     3.04           OBSERVATION DATA    M (MIXED)           RINEX VERSION / TYPE
cnvtToRINEX 3.08.0  convertToRINEX OPR  29-Jul-19 18:08 UTC PGM / RUN BY / DATE 
gfzrnx-1.11-7513    FILE CONVERSION     20190802 203036 UTC COMMENT             
----------------------------------------------------------- COMMENT             
JAB1                                                        MARKER NAME         
1                                                           MARKER NUMBER       
GEODETIC                                                    MARKER TYPE         
spanikp             SUT                                     OBSERVER / AGENCY   
5448R50048          TRIMBLE NETR9       5.37                REC # / TYPE / VERS 
12118048            TRM57971.00     NONE                    ANT # / TYPE        
  4035921.4204  1285355.7843  4752936.8469                  APPROX POSITION XYZ 
        0.2800       -0.1990        0.8700                  ANTENNA: DELTA H/E/N
     0                                                      RCV CLOCK OFFS APPL 
 11 R04  6 R05  1 R06 -4 R13 -2 R14 -7 R15  0 R16 -1 R17  4 GLONASS SLOT / FRQ #
    R22 -3 R23  3 R24  2                                    GLONASS SLOT / FRQ #
G L2X -0.25000                                              SYS / PHASE SHIFT   
R L1P  0.25000                                              SYS / PHASE SHIFT   
R L2C -0.25000                                              SYS / PHASE SHIFT   
R L2P  0.00000                                              SYS / PHASE SHIFT   
    18                                                      LEAP SECONDS        
DBHZ                                                        SIGNAL STRENGTH UNIT
 C1C    0.000 C1P    0.000 C2C    0.000 C2P    0.000        GLONASS COD/PHS/BIS 
C    9 C2I C6I C7I L2I L6I L7I S2I S6I S7I                  SYS / # / OBS TYPES 
E   15 C1X C5X C6X C7X C8X L1X L5X L6X L7X L8X S1X S5X S6X  SYS / # / OBS TYPES 
       S7X S8X                                              SYS / # / OBS TYPES 
G   12 C1C C2W C2X C5X L1C L2W L2X L5X S1C S2W S2X S5X      SYS / # / OBS TYPES 
I    3 C5A L5A S5A                                          SYS / # / OBS TYPES 
R   12 C1C C1P C2C C2P L1C L1P L2C L2P S1C S1P S2C S2P      SYS / # / OBS TYPES 
S    6 C1C C5I L1C L5I S1C S5I                              SYS / # / OBS TYPES 
    57                                                      # OF SATELLITES     
   C05   117   117   117   117   115   113   117   117   117PRN / # OF OBS      
   C08   119   119   119   119   119   119   119   119   119PRN / # OF OBS      
   C10   102    95    95    83    80    82   102    95    95PRN / # OF OBS      
   C13   120   120   120   120   120   120   120   120   120PRN / # OF OBS      
   C14   119   119   119   119   119   119   119   119   119PRN / # OF OBS      
   C18    51    50          47    47          51    50      PRN / # OF OBS      
   C21   114   114         112   112         114   114      PRN / # OF OBS      
   C24    11    11          11    11          11    11      PRN / # OF OBS      
   C26   120   120         120   120         120   120      PRN / # OF OBS      
   C27     2     2           1                 2     2      PRN / # OF OBS      
   C29   120   120         120   120         120   120      PRN / # OF OBS      
   C30   120   120         120   120         120   120      PRN / # OF OBS      
   E02   119   119   117   119   119   119   119   117   119PRN / # OF OBS      
         119   119   119   117   119   119                  PRN / # OF OBS      
   E03   119   119   119   119   119   119   119   119   119PRN / # OF OBS      
         119   119   119   119   119   119                  PRN / # OF OBS      
   E05   115   115   109   115   115   113   115   108   115PRN / # OF OBS      
         115   115   115   109   115   115                  PRN / # OF OBS      
   E08   105   105   105   105   105   105   105   105   105PRN / # OF OBS      
         105   105   105   105   105   105                  PRN / # OF OBS      
   E11   103   103    94   103   103   100   103    91   103PRN / # OF OBS      
         103   103   103    94   103   103                  PRN / # OF OBS      
   E12   107   107   107   107   107   107   107   107   107PRN / # OF OBS      
         107   107   107   107   107   107                  PRN / # OF OBS      
   E18    89    89    79    88    89    86    89    78    88PRN / # OF OBS      
          89    89    89    79    88    89                  PRN / # OF OBS      
   E24   120   120   120   120   120   120   120   120   120PRN / # OF OBS      
         120   120   120   120   120   120                  PRN / # OF OBS      
   E25   119   119   119   119   119   119   119   119   119PRN / # OF OBS      
         119   119   119   119   119   119                  PRN / # OF OBS      
   E31    49    49    37    47    49    46    49    35    47PRN / # OF OBS      
          49    49    49    37    47    49                  PRN / # OF OBS      
   E33   104   104   101   104   104   104   104   101   104PRN / # OF OBS      
         104   104   104   101   104   104                  PRN / # OF OBS      
   E36     3     3     3     3     3     3     3     3     3PRN / # OF OBS      
           3     3     3     3     3     3                  PRN / # OF OBS      
   G01    14     7    12    14     9     5    12    14    14PRN / # OF OBS      
           7    12    14                                    PRN / # OF OBS      
   G02    93    84                90    84                93PRN / # OF OBS      
          84                                                PRN / # OF OBS      
   G06   120   119   120   120   120   119   120   120   120PRN / # OF OBS      
         119   120   120                                    PRN / # OF OBS      
   G10    98    96    94    96    97    95    94    96    98PRN / # OF OBS      
          96    94    96                                    PRN / # OF OBS      
   G12   120   120   120         120   120   120         120PRN / # OF OBS      
         120   120                                          PRN / # OF OBS      
   G13    79    74                78    74                79PRN / # OF OBS      
          74                                                PRN / # OF OBS      
   G14    43    32                37    31                43PRN / # OF OBS      
          32                                                PRN / # OF OBS      
   G15   120   120   120         120   120   120         120PRN / # OF OBS      
         120   120                                          PRN / # OF OBS      
   G17   120   120   120         120   120   120         120PRN / # OF OBS      
         120   120                                          PRN / # OF OBS      
   G19   120   120               120   120               120PRN / # OF OBS      
         120                                                PRN / # OF OBS      
   G20    10     2                 5     1                10PRN / # OF OBS      
           2                                                PRN / # OF OBS      
   G24   120   120   120   120   120   120   120   120   120PRN / # OF OBS      
         120   120   120                                    PRN / # OF OBS      
   G25   120   119   119   119   119   119   119   119   120PRN / # OF OBS      
         119   119   119                                    PRN / # OF OBS      
   G28    34    24                30    24                34PRN / # OF OBS      
          24                                                PRN / # OF OBS      
   G29    21    17    17          16    15    17          21PRN / # OF OBS      
          17    17                                          PRN / # OF OBS      
   G32   117   112   114   117   115   112   114   117   117PRN / # OF OBS      
         112   114   117                                    PRN / # OF OBS      
   I02   119   119   119                                    PRN / # OF OBS      
   I03   118   118   118                                    PRN / # OF OBS      
   I06   119   119   119                                    PRN / # OF OBS      
   R04   109   109   107   109   109   109   107   108   109PRN / # OF OBS      
         109   107   109                                    PRN / # OF OBS      
   R05   120   120   120   120   120   120   120   120   120PRN / # OF OBS      
         120   120   120                                    PRN / # OF OBS      
   R06   115   115               115   112               115PRN / # OF OBS      
         115                                                PRN / # OF OBS      
   R13   112   111   109   112   112   110   108   112   112PRN / # OF OBS      
         111   109   112                                    PRN / # OF OBS      
   R14   120   120   120   120   120   120   120   120   120PRN / # OF OBS      
         120   120   120                                    PRN / # OF OBS      
   R15   120   120   120   120   120   120   120   120   120PRN / # OF OBS      
         120   120   120                                    PRN / # OF OBS      
   R16    25    24    14    22    25    24    13    18    25PRN / # OF OBS      
          24    14    22                                    PRN / # OF OBS      
   R17   119   119   117   119   119   119   117   119   119PRN / # OF OBS      
         119   117   119                                    PRN / # OF OBS      
   R22    28    28    23    27    28    28    23    27    28PRN / # OF OBS      
          28    23    27                                    PRN / # OF OBS      
   R23   120   120   120   120   120   120   120   120   120PRN / # OF OBS      
         120   120   120                                    PRN / # OF OBS      
   R24   120   120   108   120   120   120    99   120   120PRN / # OF OBS      
         120   108   120                                    PRN / # OF OBS      
   S27    65    62    65          65    62                  PRN / # OF OBS      
   S28    85    84    85          85    84                  PRN / # OF OBS      
   S36   120   119   120   109   120   119                  PRN / # OF OBS      
    30.000                                                  INTERVAL            
  2019     3    21    12     0    0.0000000     GPS         TIME OF FIRST OBS   
  2019     3    21    12    59   30.0000000     GPS         TIME OF LAST OBS    
                                                            END OF HEADER      
> 2019 03 21 12 00 00.0000000  0 24
C13  39354499.531 7  39354492.430 6  39354501.043 6 204929203.024 7 166521734.505 6 158464264.655 6        42.600          41.300          39.100
C21  25052892.203 7  25052880.980 7                 130456983.271 7 106006936.407 7                        43.800          43.200
C26  24264255.422 7  24264247.898 7                 126350341.506 7 102669971.768 7                        44.200          43.800
C29  23226168.727 8  23226159.922 7                 120944752.771 8  98277482.058 7                        48.800          44.500
C30  23624830.867 7  23624824.711 7                 123020690.679 7  99964363.608 7                        47.300          43.800
E24  21970082.719 8  21970096.688 8  21970068.082 8  21970096.156 8  21970097.043 8 115453560.851 8  86215377.706 8  93712244.373 8  88464471.085 8  87339926.997 8        50.900          49.700          53.700          49.100          52.500
G06  25083226.133 6                  25083235.332 6  25083236.234 6 131813231.844 6                 102711617.190 6  98431965.323 6        38.800                          37.300          41.300
G10  24493169.000 6  24493175.922 4  24493175.066 6  24493174.031 7 128712465.729 6 100295458.132 4 100295460.141 6  96116475.369 7        41.600          25.600          40.000          43.100
G12  21469073.945 8  21469077.746 6  21469077.867 7                 112820743.022 8  87912283.170 6  87912284.180 7                        49.300          36.300          42.000
G13  23937572.820 6  23937577.551 3                                 125792790.486 6  98020377.749 3                                        40.400          21.500
G15  22489384.586 7  22489388.941 5  22489388.762 6                 118182511.560 7  92090287.385 5  92090289.382 6                        47.800          33.500          41.700
G17  22360544.820 8  22360548.395 5  22360548.340 7                 117505451.880 8  91562706.506 5  91562707.493 7                        49.700          35.700          42.200
G19  21060462.703 8  21060464.664 6                                 110673476.750 8  86239080.560 6                                        48.500          38.100
G20  25141423.055 6                                                 132119059.199 6                                                        39.500
G24  20243049.484 8  20243055.453 7  20243055.578 8  20243055.988 9 106377941.101 8  82891926.559 7  82891928.563 8  79438098.352 9        51.000          43.400          48.300          55.300
G25  24849165.078 6                                                                                                                        37.300
R05  21246932.906 7  21246932.559 7  21246935.859 7  21246935.711 7 113577030.353 7 113577276.362 7  88337878.068 7  88337794.070 7        47.500          42.600          42.800          42.700
R13  21595891.734 6  21595890.332 6  21595894.551 6  21595894.426 6 115320858.252 6 115320853.249 6  89693996.659 6  89693871.655 6        40.800          38.100          38.000          37.700
R14  19467395.367 8  19467394.352 7  19467398.074 7  19467397.891 7 103772166.033 8 103772169.029 7  80711686.810 7  80711778.805 7        50.200          45.200          44.900          44.000
R15  21579726.219 7  21579726.016 6  21579729.207 7  21579729.664 7 115315510.859 7 115315510.871 6  89689842.308 7  89690185.290 7        45.200          41.100          42.500          42.100
R22  23940057.266 6  23940056.664 6  23940061.344 6  23940060.996 6 127793655.571 6 127793656.557 6  99395067.039 6  99395049.061 6        38.600          37.300          38.100          38.300
R23  20760460.883 8  20760460.445 7  20760465.684 6  20760466.316 6 111054470.632 8 111054465.628 7  86375695.948 6  86375783.944 6        48.800          43.400          40.100          38.400
R24  21363068.961 6  21363068.359 6  21363070.211 5  21363070.363 5 114237933.283 6 114237925.301 6  88851723.364 5  88852112.363 5        41.700          38.800          32.700          32.300
S36  38330726.016 7  38330714.301 6 201429323.074 7 150417954.993 6        42.100          41.600
> 2019 03 21 12 00 30.0000000  0 39
C05  39425328.680 6  39425319.414 6  39425324.355 6 205298029.531 6 166821429.467 6 158749442.678 6        36.400          40.800          40.000
C08  39081987.023 6  39081973.355 7  39081980.715 6 203510154.306 6 165368698.799 7 157366964.092 6        40.200          42.200          40.900
C10  40703891.883 6  40703881.938 5  40703890.164 5 211955845.852 6                                        36.800          34.600          34.900
C13  39344840.766 7  39344834.359 6  39344842.914 6 204878910.520 7 166480867.750 6 158425375.317 6        42.000          41.200          39.600
C14  24694625.070 6  24694613.160 7  24694621.457 7 128591393.922 6 104491042.361 7  99435004.184 7        41.800          44.300          42.700
C21  25068200.469 7  25068189.230 7                 130536697.833 7 106071710.968 7                        43.400          43.400
C26  24249461.805 7  24249454.098 7                 126273307.360 7 102607375.235 7                        44.400          44.700
C27  27077597.703 6  27077591.078 5                 141000162.413 6                                        37.400          34.400
C29  23213491.609 8  23213483.324 7                 120878742.229 8  98223843.091 7                        48.100          45.400
C30  23629978.180 7  23629972.738 7                 123047496.830 7  99986145.811 7                        47.000          45.400
E02  27965773.664 6  27965778.102 6  27965768.316 6  27965777.672 6  27965778.180 7 146961129.727 6 109743718.706 6 119286605.243 6 112606592.861 6 111175160.389 7        41.400          39.100          40.400          39.100          42.300
E03  25110830.609 7  25110834.297 7  25110823.328 8  25110834.172 7  25110834.887 8 131958305.124 7  98540306.164 7 107108980.813 8 101110922.454 7  99825617.408 8        46.900          45.800          49.500          45.400          48.600
E05  26172141.352 7  26172146.754 7  26172134.418 7  26172146.566 7  26172147.176 7 137535530.951 7 102705123.372 7 111635948.750 7 105384386.075 7 104044757.326 7        44.300          44.500          47.300          44.100          47.000
E24  21976651.148 8  21976665.188 8  21976636.852 8  21976665.141 8  21976665.805 8 115488079.626 8  86241154.716 8  93740262.861 8  88490920.537 8  87366040.230 8        50.800          49.700          53.700          49.100          52.500
E25  23394414.742 8  23394418.246 8  23394406.809 8  23394418.086 8  23394418.836 8 122938479.366 8  91804721.371 8  99787690.609 8  94199625.736 8  93002176.156 8        49.500          49.200          53.600          48.700          52.000
G06  25065874.844 6  25065883.672 3  25065884.105 6  25065884.383 6 131722049.033 6 102640601.696 3 102640565.708 6  98363874.304 6        39.100          22.800          37.800          41.100
G10  24500480.867 6  24500488.219 4  24500487.875 6  24500486.547 7 128750892.616 6 100325401.133 4 100325403.181 6  96145170.757 7        40.600          25.300          40.200          43.100
G12  21454684.078 8  21454688.340 6  21454688.551 7                 112745125.924 8  87853360.793 6  87853361.797 7                        49.900          36.700          43.600
G13  23959611.211 6  23959616.168 3                                 125908603.025 6  98110621.225 3                                        41.000          22.300
G15  22506947.922 8  22506952.813 5  22506953.000 7                 118274809.978 8  92162208.193 5  92162210.209 7                        48.500          33.600          42.800
G17  22370184.125 8  22370188.141 5  22370188.234 7                 117556108.788 8  91602179.427 5  91602180.420 7                        48.800          34.500          43.000
G19  21059397.227 8  21059399.473 6                                 110667879.474 8  86234719.046 6                                        48.200          38.300
G20  25155510.086 6                                                 132193088.475 6                                                        37.300
G24  20239708.805 8  20239715.191 7  20239715.273 8  20239715.594 9 106360387.500 8  82878248.436 7  82878250.441 8  79424990.149 9        51.400          43.500          48.300          55.200
G25  24829206.055 6  24829214.805 3  24829214.871 6  24829215.320 6 130478387.975 6 101671484.391 3 101671447.418 6  97435136.305 6        36.300          18.600          36.200          40.500
G28  25150745.156 5  25150751.953 2                                 132168057.197 5 102988122.173 2                                        31.600          16.300
I02  37528843.125 6 147271237.696 6        40.200
I06  38222218.586 6 149992227.831 6        39.200
R04  21779349.617 7  21779348.840 6  21779351.969 7  21779351.758 7 116627421.843 7 116627418.867 6  90710215.578 7  90710030.580 7        44.600          41.700          43.100          42.400
R05  21247516.164 7  21247516.352 7  21247519.336 7  21247519.258 7 113580150.256 7 113580396.257 7  88340304.631 7  88340220.648 7        47.200          43.200          43.300          43.700
R06  23964610.430 5  23964607.578 5                                 127879749.926 5 127879760.923 5                                        34.600          33.700
R13  21611541.180 6  21611538.922 6  21611542.992 6  21611542.930 6 115404420.857 6 115404415.854 6  89758989.755 6  89758864.760 6        41.000          38.100          38.200          37.600
R14  19467342.297 8  19467341.488 7  19467345.613 7  19467345.184 7 103771884.669 8 103771887.672 7  80711467.980 7  80711559.977 7        50.800          45.100          45.600          44.900
R15  21563992.172 7  21563992.566 7  21563994.586 7  21563995.676 7 115231434.036 7 115231434.041 7  89624449.238 7  89624792.240 7        45.900          42.600          43.400          42.800
R17  24185222.711 6  24185222.070 6                  24185228.441 4 129420014.132 6 129420010.115 6                 100660014.670 4        39.900          36.800                          27.000
R22  23961047.258 6  23961044.742 6  23961048.121 6  23961049.242 6 127905689.525 6 127905690.518 6  99482204.536 6  99482186.553 6        38.200          36.500          37.700          37.600
R23  20761157.398 8  20761155.902 7  20761160.582 6  20761162.051 6 111058191.050 8 111058186.055 7  86378589.607 6  86378677.610 6        48.800          43.900          40.700          38.800
R24  21344146.563 7  21344146.152 6  21344149.242 5  21344148.168 5 114136747.834 7 114136739.842 6  88773023.600 5  88773412.602 5        42.200          39.500          32.800          31.600
S36  38330725.469 6  38330714.488 7 201429323.020 6 150417960.826 7        41.400          42.100
> 2019 03 21 12 01 00.0000000  0 39
C05  39425007.250 6  39424997.922 6  39425002.488 6 205296355.234 6 166820068.941 6 158748147.979 6        36.000          40.400          39.200
C08  39076167.914 6  39076154.652 6  39076161.902 6 203479854.574 6 165344077.801 6 157343534.439 6        39.600          41.400          40.200
C10  40708425.953 6  40708414.762 5  40708423.586 5 211979451.287 6 172250626.648 5 163915951.407 5        37.100          34.100          34.100
C13  39335218.453 7  39335211.684 6  39335220.285 6 204828803.650 7 166440151.835 6 158386629.539 6        42.500          40.800          39.400
C14  24697848.883 7  24697836.020 7  24697844.355 7 128608176.856 7 104504679.843 7  99447981.789 7        42.000          42.900          42.200
C21  25083560.125 7  25083548.914 7                 130616678.977 7 106136702.160 7                        43.800          42.400
C26  24234697.180 7  24234689.789 7                 126196425.932 7 102544902.791 7                        43.900          43.400
C29  23200900.328 7  23200891.813 7                 120813175.301 7  98170564.593 7                        47.800          44.400
C30  23635232.984 7  23635227.164 7                 123074858.965 7 100008379.788 7                        47.200          43.800
E02  27951743.547 6  27951748.648 6  27951738.410 6  27951747.020 6  27951748.648 6 146887404.649 6 109688664.320 6 119226763.504 6 112550102.263 6 111119387.901 6        40.500          38.300          39.400          37.200          41.000
E03  25115132.633 7  25115136.363 7  25115125.410 8  25115135.844 7  25115136.820 8 131980912.139 7  98557188.015 7 107127330.647 8 101128244.694 7  99842719.453 8        47.300          45.900          49.500          45.100          48.600
E05  26188633.773 7  26188639.066 7  26188626.715 7  26188638.629 7  26188639.551 7 137622198.839 7 102769842.828 7 111706296.011 7 105450793.865 7 104110320.948 7        43.600          44.300          47.300          43.700          47.000
E24  21983262.328 8  21983276.309 8  21983247.816 8  21983275.770 8  21983276.742 8 115522820.525 8  86267097.584 8  93768461.632 8  88517540.166 8  87392321.478 8        50.300          49.800          53.600          49.100          52.500
E25  23387663.914 8  23387667.367 8  23387655.957 8  23387667.070 8  23387667.910 8 122903003.101 8  91778229.362 8  99758894.937 8  94172442.633 8  92975338.599 8        49.900          49.200          53.500          48.800          52.100
G06  25048547.406 6  25048555.961 3  25048556.637 6  25048557.230 6 131630994.655 6 102569650.260 3 102569614.243 6  98295879.194 6        39.000          21.800          37.600          41.100
G10  24507893.734 6  24507900.578 3  24507900.395 6  24507898.770 7 128789846.431 6 100355754.720 3 100355756.729 6  96174259.578 7        40.400          22.500          39.900          42.600
G12  21440369.031 8  21440373.117 6  21440373.340 7                 112669898.694 8  87794742.196 6  87794743.199 7                        48.700          36.200          43.000
G13  23981682.031 6  23981687.086 3                                 126024586.636 6  98200997.979 3                                        41.000          22.600
G15  22524580.273 8  22524584.492 5  22524584.754 6                 118367466.035 8  92234407.686 5  92234409.695 6                        48.300          33.600          41.200
G17  22379925.250 8  22379929.168 5  22379928.945 6                 117607297.768 8  91642066.941 5  91642067.944 6                        49.800          35.100          41.600
G19  21058470.719 8  21058473.277 6                                 110663012.381 8  86230926.508 6                                        48.000          38.300
G20  25169648.031 5                                                 132267380.462 5                                                        35.300
G24  20236461.430 8  20236467.887 7  20236467.875 8  20236468.262 9 106343322.973 8  82864951.397 7  82864953.416 8  79412247.163 9        50.000          43.400          48.400          55.300
G25  24809278.523 5  24809287.523 3  24809287.875 6  24809287.773 6 130373669.418 5 101589885.498 3 101589848.518 6  97356937.364 6        35.000          18.600          37.300          40.000
G28  25168059.484 5  25168065.281 2                                 132259045.547 5 103059022.060 2                                        33.700          16.900
G32  25501362.008 5                  25501370.883 5  25501368.961 6                                 104423821.95915 100072829.954 6        32.000                          31.200          36.000
I02  37531439.180 6 147281422.961 6        40.200
I03  40901504.648 6 160506286.566 6        39.500
I06  38222625.945 6 149993823.810 6        39.700
R04  21798993.938 7  21798992.578 6  21798996.801 7  21798995.648 7 116732614.206 7 116732611.227 6  90792031.811 7  90791846.806 7        45.000          40.700          42.600          42.200
R05  21248267.258 7  21248266.141 7  21248269.922 7  21248269.137 7 113584157.890 7 113584403.897 7  88343421.694 7  88343337.682 7        47.900          42.500          42.600          42.100
R13  21627237.711 6  21627235.895 6  21627240.793 6  21627239.828 6 115488240.805 6 115488235.797 6  89824183.017 6  89824058.012 6        40.800          37.900          37.900          37.600
R14  19467371.727 8  19467370.898 7  19467374.543 7  19467374.520 7 103772041.007 8 103772044.009 7  80711589.573 7  80711681.562 7        50.300          45.100          44.500          44.000
R15  21548302.828 7  21548302.332 6  21548304.309 7  21548305.066 6 115147589.461 7 115147589.474 6  89559236.818 7  89559579.815 6        46.000          41.100          42.100          41.700
R17  24159500.180 6  24159498.152 6                  24159503.480 5 129282357.626 6 129282353.622 6                 100552948.805 5        41.000          39.000                          31.200
R22  23982118.016 6  23982116.813 5  23982119.973 6  23982120.887 6 128018172.821 6 128018173.83115  99569691.519 6  99569673.480 6        36.100          34.100          38.400          38.600
R23  20762023.344 8  20762022.219 7  20762026.547 6  20762027.984 6 111062823.880 8 111062818.892 7  86382192.943 6  86382280.924 6        49.800          43.300          39.500          39.100
R24  21325337.109 6  21325335.363 6  21325338.527 5  21325337.035 5 114036156.696 6 114036148.698 6  88694784.08115  88695175.072 5        41.600          39.000          32.500          32.600
S36  38330737.234 6  38330724.957 6 201429375.298 6 150418000.774 6        41.800          41.300
> 2019 03 21 12 01 30.0000000  0 42
C05  39424722.688 5  39424713.402 6  39424718.379 6 205294873.568 5 166818864.970 6 158747002.257 6        35.900          40.500          39.800
C08  39070422.008 6  39070408.645 6  39070415.852 6 203449933.870 6 165319764.794 6 157320397.870 6        40.100          41.700          40.900
C10  40712993.672 6  40712982.883 5  40712992.121 5 212003238.033 6 172269955.335 5 163934344.828 5        37.200          34.200          34.300
C13  39325657.938 6  39325651.637 6  39325660.316 6 204779022.136 6 166399700.297 6 158348135.336 6        41.700          41.300          39.400
C14  24701200.906 6  24701188.852 7  24701197.270 7 128625635.514 6 104518866.419 7  99461481.918 7        41.700          44.300          42.900
C21  25098997.148 7  25098986.168 7                 130697063.675 7 106202021.264 7                        43.400          43.700
C26  24219988.953 7  24219981.754 7                 126119837.409 7 102482668.384 7                        44.500          44.400
C27  27111521.609 5  27111515.773 4                                                                        34.600          29.500
C29  23188421.547 7  23188412.559 7                 120748193.281 7  98117761.397 7                        47.900          45.400
C30  23640621.070 7  23640615.082 7                 123102915.603 7 100031178.118 7                        47.600          44.400
E02  27937758.641 6  27937763.188 6  27937753.438 6  27937763.277 6  27937763.723 7 146813912.800 6 109633784.073 6 119167111.074 6 112493790.423 6 111063791.850 7        41.200          38.300          40.100          39.300          42.200
E03  25119552.641 7  25119556.457 7  25119545.621 8  25119555.922 7  25119556.949 8 132004139.731 7  98574533.276 7 107146184.210 8 101146042.435 7  99860290.960 8        47.000          46.500          49.500          45.700          48.800
E05  26205192.750 7  26205198.086 7  26205185.438 7  26205197.496 7  26205198.324 7 137709215.277 7 102834822.583 7 111776926.196 7 105517468.738 7 104176148.259 7        44.000          44.500          47.300          44.300          47.400
E24  21989942.484 8  21989956.402 8  21989927.867 8  21989955.625 8  21989956.738 8 115557923.933 8  86293311.156 8  93796954.661 8  88544437.582 8  87418876.972 8        50.800          49.800          53.700          49.200          52.500
E25  23380983.820 8  23380987.199 8  23380975.852 8  23380986.684 8  23380987.688 8 122867898.162 8  91752014.651 8  99730400.687 8  94145544.054 8  92948781.955 8        49.700          49.300          53.700          49.000          52.100
G06  25031272.375 6  25031280.840 3  25031281.063 6  25031282.348 7 131540212.527 6 102498911.018 3 102498875.015 6  98228087.418 7        38.900          22.200          37.900          42.100
G10  24515432.836 6  24515440.488 3  24515439.895 6  24515438.492 7 128829465.966 6 100386627.035 3 100386629.047 6  96203845.550 7        40.800          22.900          40.300          42.600
G12  21426154.906 8  21426158.660 6  21426158.930 7                 112595203.007 8  87736537.800 6  87736538.805 7                        48.600          36.700          43.400
G13  24003811.914 6  24003817.102 3                                 126140879.599 6  98291615.830 3                                        41.700          22.200
G15  22542306.516 8  22542310.859 5  22542311.184 7                 118460617.632 8  92306993.313 5  92306995.325 7                        48.900          33.400          42.200
G17  22389794.188 8  22389797.629 5  22389797.891 7                 117659157.712 8  91682477.295 5  91682478.292 7                        49.600          35.200          42.600
G19  21057711.117 8  21057712.855 6                                 110659016.368 8  86227812.742 6                                        48.900          38.100
G20  25183860.500 5                                                                                                                        32.500
G24  20233334.375 8  20233340.594 7  20233341.117 8  20233341.035 9 106326888.998 8  82852145.715 7  82852147.726 8  79399975.044 9        50.000          43.700          48.500          55.300
G25  24789408.359 5  24789417.723 3  24789417.723 6  24789418.352 6 130269253.691 5 101508522.664 3 101508485.690 6  97278964.634 6        34.500          19.000          38.100          40.800
G28  25185407.438 6  25185412.043 3                                 132350204.783 6 103130055.175 3                                        36.900          19.000
G32  25481855.891 5                                  25481860.836 5 133908071.338 5                                  99996276.992 5        35.600                                          34.100
I02  37534077.570 6 147291776.059 6        40.400
I03  40901685.742 6 160507001.455 6        38.800
I06  38223070.094 6 149995569.652 6        39.500
R04  21818756.578 7  21818755.980 6  21818759.293 7  21818759.430 7 116838447.794 7 116838444.792 6  90874346.764 7  90874161.775 7        44.700          41.900          42.600          42.300
R05  21249208.906 8  21249208.195 7  21249212.184 7  21249211.613 7 113589195.741 8 113589441.749 7  88347340.023 7  88347256.026 7        48.100          43.100          44.100          43.300
R13  21643009.516 6  21643007.297 6  21643010.809 6  21643011.441 6 115572460.242 6 115572455.246 6  89889686.998 6  89889561.996 6        41.000          38.700          38.100          37.800
R14  19467509.813 8  19467509.039 7  19467513.207 7  19467512.754 7 103772777.767 8 103772780.769 7  80712162.619 7  80712254.608 7        50.500          45.200          45.500          45.500
R15  21532682.594 7  21532682.242 7  21532684.773 7  21532685.195 7 115064121.059 7 115064121.076 7  89494316.995 7  89494659.992 7        46.000          42.400          43.000          42.400
R17  24133802.063 6  24133801.082 6  24133807.859 5  24133807.066 5 129144852.221 6 129144848.225 6 100445988.465 5 100446000.465 5        41.800          39.000          33.600          33.600
R22  24003298.547 5  24003298.590 5  24003302.516 6  24003303.066 6 128131244.467 5 128131227.459 5  99657636.009 6  99657618.010 6        35.500          33.700          39.200          39.400
R23  20763086.484 8  20763085.242 7  20763089.949 6  20763091.488 6 111068512.536 8 111068507.540 7  86386617.459 6  86386705.455 6        48.700          44.100          40.500          38.800
R24  21306663.148 6  21306662.465 6  21306664.441 5  21306664.527 5 113936306.841 6 113936298.858 6  88617124.156 5  88617514.119 5        41.400          39.100          32.200          32.300
S27  39188630.188 5  39188623.766 6 205937627.072 5                        31.800          37.700
S28  40854860.078 5  40854844.516 6 214693716.663 5                        33.400          37.900
S36  38330785.344 7  38330772.836 7 201429624.884 7 150418189.181 7        42.000          42.100
> 2019 03 21 12 02 00.0000000  0 41
C05  39424346.469 6  39424336.930 6  39424341.805 6 205292912.743 6 166817271.620 6 158745486.011 6        36.200          40.600          39.900
C08  39064619.672 6  39064606.344 7  39064613.773 6 203419720.788 6 165295214.224 7 157297035.240 6        40.400          42.200          41.500
C10  40717467.109 6  40717456.531 5  40717465.383 5 212026534.245 6 172288885.398 5 163952358.919 5        36.800          34.200          33.600
C13  39316031.719 6  39316025.211 6  39316033.910 6 204728894.839 6 166358967.785 6 158309373.768 6        41.800          41.400          39.900
C14  24704553.969 7  24704542.227 7  24704550.516 7 128643097.556 7 104533055.738 7  99474984.644 7        42.000          43.900          43.300
C21  25114382.508 7  25114370.867 7                 130777177.914 7 106267120.605 7                        43.000          43.200
C26  24205208.461 7  24205201.070 7                 126042871.049 7 102420126.934 7                        44.800          45.200
C29  23175925.852 8  23175917.219 7                 120683126.497 8  98064889.313 7                        49.200          46.000
C30  23646013.250 7  23646007.367 7                 123130994.304 7 100053994.376 7                        47.200          44.900
E02  27923689.039 6  27923694.355 6  27923683.910 6  27923692.949 6  27923693.977 7 146739976.559 6 109578572.065 6 119107097.954 6 112437138.045 6 111007859.661 7        41.200          39.600          40.600          38.200          42.300
E03  25123961.758 7  25123965.531 7  25123954.668 8  25123965.004 7  25123965.988 8 132027309.676 7  98591835.495 7 107164990.969 8 101163796.018 7  99877818.856 8        47.300          46.300          49.500          45.500          48.900
E05  26221688.367 7  26221693.652 7  26221681.305 7  26221693.207 7  26221693.988 7 137795900.685 7 102899555.125 7 111847287.682 7 105583889.966 7 104241725.151 7        44.300          44.400          47.300          44.500          47.000
E24  21996562.305 8  21996576.293 8  21996547.719 8  21996575.527 8  21996576.613 8 115592711.737 8  86319289.062 8  93825191.503 8  88571093.176 8  87445193.725 8        51.000          49.800          53.700          49.100          52.500
E25  23374245.313 8  23374248.492 8  23374237.156 8  23374248.152 8  23374249.059 8 122832486.849 8  91725571.155 8  99701657.746 8  94118410.726 8  92921993.542 8        50.100          49.400          53.700          48.800          52.100
G06  25013920.289 6  25013928.820 3  25013929.227 6  25013930.188 7 131449027.835 6 102427858.090 3 102427822.109 6  98159995.058 7        38.600          22.300          38.300          42.000
G10  24522969.383 6  24522976.934 4  24522976.883 6  24522975.293 7 128869071.477 6 100417488.443 4 100417490.443 6  96233421.053 7        40.900          24.000          39.900          42.500
G12  21411913.133 8  21411917.098 6  21411917.527 7                 112520362.704 8  87678220.703 6  87678221.708 7                        49.800          37.000          44.000
G13  24025871.367 6  24025876.730 3                                 126256802.103 6  98381944.978 3                                        41.100          22.800
G15  22559997.617 8  22560001.770 5  22560001.926 7                 118553584.502 8  92379434.995 5  92379437.007 7                        48.800          33.600          42.000
G17  22399660.859 8  22399664.855 5  22399664.488 7                 117711009.480 8  91722881.269 5  91722882.277 7                        49.000          35.000          42.700
G19  21056987.422 7  21056989.379 6                                 110655214.277 7  86224850.077 6                                        47.600          38.100
G24  20230198.484 8  20230204.531 7  20230204.813 8  20230204.969 9 106310409.196 8  82839304.310 7  82839306.321 8  79387668.709 9        51.500          43.900          48.900          55.300
G25  24769467.617 5  24769477.309 2  24769477.188 6  24769477.375 6 130164464.056 5 101426868.455 2 101426831.460 6  97200712.709 6        35.200          16.900          38.000          41.600
G28  25202657.320 5  25202662.453 2                                 132440856.459 5 103200692.850 2                                        35.700          15.600
G32  25462290.680 6                                  25462298.414 5 133805258.085 6                                  99919500.817 5        37.400                                          33.300
I02  37536628.070 6 147301788.151 6        40.200
I03  40901775.969 6 160507352.275 6        38.700
I06  38223424.477 6 149996959.048 6        39.700
R04  21838510.516 7  21838509.426 6  21838512.867 7  21838512.875 7 116944227.188 7 116944224.199 6  90956619.598 7  90956434.595 7        44.900          41.900          43.200          42.700
R05  21250214.938 8  21250214.270 7  21250217.586 7  21250217.422 7 113594574.106 8 113594820.113 7  88351523.197 7  88351439.193 7        48.000          44.100          43.800          43.100
R06  23908874.727 5  23908872.336 5                                 127582339.506 5                                                        33.700          32.700
R13  21658726.305 6  21658725.227 6  21658729.914 6  21658728.746 6 115656389.488 6 115656384.480 6  89954965.252 6  89954840.263 6        40.700          38.700          38.300          38.300
R14  19467628.367 8  19467627.172 7  19467631.230 7  19467630.852 7 103773407.839 8 103773410.843 7  80712652.676 7  80712744.665 7        50.600          45.500          46.100          45.300
R15  21517003.586 7  21517003.875 7  21517006.965 7  21517006.832 7 114980340.590 7 114980340.602 7  89429154.439 7  89429497.436 7        45.800          43.400          43.900          43.300
R17  24108005.789 7  24108004.500 6  24108010.117 5  24108010.320 5 129006811.447 7 129006807.454 6 100338623.738 5 100338635.739 5        42.200          39.600          34.800          34.500
R22  24024462.688 5  24024461.313 5  24024465.465 6  24024465.613 6 128244211.537 5 128244194.552 5  99745499.200 6  99745481.204 6        35.100          35.200          38.900          38.200
R23  20764218.594 8  20764216.941 7  20764222.047 6  20764223.148 6 111074566.793 8 111074561.797 7  86391326.338 6  86391414.341 6        48.700          44.500          40.100          38.700
R24  21288000.422 7  21288000.512 6  21288001.289 5  21288002.738 5 113836513.432 7 113836505.441 6  88539505.054 5  88539897.057 5        42.100          39.900          32.400          32.500
S27  39188631.969 5  39188627.008 6 205937645.305 5                        32.200          37.600
S28  40854822.875 5  40854806.660 6 214693519.834 5                        32.600          37.800
S36  38330740.031 6  38330728.711 7 201429397.085 6 150418016.638 7        41.300          42.600
> 2019 03 21 12 02 30.0000000  0 41
C05  39424019.516 6  39424010.625 6  39424015.457 6 205291213.740 6 166815891.023 6 158744172.218 6        36.300          40.600          39.900
C08  39058903.938 6  39058890.660 7  39058897.711 6 203389956.337 6 165271028.176 7 157274019.488 6        40.200          43.100          41.100
C10  40721989.477 6  40721978.246 5  40721986.895 5 212050081.007 6 172308019.054 5 163970566.743 5        36.700          34.600          33.900
C13  39306481.328 6  39306474.836 6  39306483.453 6 204679162.992 6 166318556.613 6 158270917.973 6        41.900          41.600          39.500
C14  24708050.469 6  24708038.391 7  24708046.703 7 128661302.716 6 104547848.920 7  99489062.016 7        41.500          44.000          43.300
C21  25129856.852 7  25129846.152 7                 130857759.764 7 106332599.910 7                        44.000          43.700
C26  24190497.828 7  24190490.430 7                 125966268.202 7 102357880.876 7                        45.000          45.400
C29  23163556.672 8  23163548.355 7                 120618717.589 8  98012551.818 7                        48.500          46.700
C30  23651551.859 7  23651545.820 7                 123159834.759 7 100077429.616 7                        47.800          45.400
E02  27909677.094 7  27909681.375 6  27909671.781 6  27909680.574 6  27909681.953 7 146666343.568 7 109523586.479 6 119047330.975 6 112380718.031 6 110952156.853 7        42.100          37.900          40.800          38.300          42.200
E03  25128502.109 7  25128505.641 7  25128494.629 8  25128505.422 7  25128506.258 8 132051168.727 7  98609652.298 7 107184357.073 8 101182077.623 7  99895868.062 8        47.900          46.300          49.300          46.200          49.100
E05  26238263.070 7  26238268.215 7  26238255.684 7  26238267.789 7  26238268.656 7 137883000.611 7 102964597.207 7 111917985.631 7 105650628.814 7 104307615.610 7        43.800          45.200          47.200          44.800          47.700
E24  22003264.258 8  22003278.172 8  22003249.574 8  22003277.898 8  22003278.664 8 115627931.067 8  86345589.208 8  93853778.620 8  88598079.413 8  87471836.913 8        50.700          49.800          53.700          49.000          52.400
E25  23367590.313 8  23367593.934 8  23367582.320 8  23367593.789 8  23367594.488 8 122797516.658 8  91699457.059 8  99673272.861 8  94091615.390 8  92895538.834 8        50.000          49.300          53.700          48.800          52.100
G06  24996633.734 6  24996643.102 3  24996643.422 6  24996644.340 7 131358191.378 6 102357076.532 3 102357040.543 6  98092162.773 7        37.700          21.100          38.700          42.300
G10  24530645.813 6  24530652.941 3  24530652.371 6  24530651.152 7 128909408.357 6 100448919.727 3 100448921.734 6  96263542.721 7        39.900          22.800          39.600          42.900
G12  21397786.352 8  21397790.281 6  21397790.707 7                 112446125.356 8  87620373.452 6  87620374.455 7                        49.600          36.100          43.700
G13  24048001.969 6  24048006.996 3                                 126373098.827 6  98472565.724 3                                        40.600          21.700
G15  22577795.125 8  22577799.660 5  22577799.613 7                 118647111.453 8  92452313.105 5  92452315.096 7                        48.500          33.600          42.500
G17  22409668.570 8  22409672.266 5  22409672.328 7                 117763598.574 8  91763859.783 5  91763860.786 7                        50.000          35.000          43.100
G19  21056443.016 8  21056444.844 6                                 110652353.163 8  86222620.647 6                                        48.300          38.400
G24  20227195.945 8  20227202.234 7  20227202.273 8  20227202.633 9 106294631.658 8  82827010.136 7  82827012.148 8  79375886.788 9        51.400          43.900          48.900          55.300
G25  24749598.875 6  24749606.965 3  24749607.941 6  24749608.098 7 130060049.221 6 101345506.301 3 101345469.307 6  97122740.640 7        36.400          19.300          38.900          42.100
G28  25219954.117 5  25219958.008 2                                 132531747.148 5 103271516.711 2                                        35.200          17.800
G32  25442811.188 6                  25442820.449 5  25442817.141 5 133702896.205 6                 104184051.846 5  99843061.711 5        36.500                          31.400          33.100
I02  37539236.227 6 147312021.045 6        39.800
I03  40901914.789 6 160507897.456 6        38.800
I06  38223830.047 6 149998550.382 6        39.600
R04  21858394.727 7  21858394.293 7  21858397.719 7  21858397.836 7 117050709.618 7 117050706.646 7  91039439.217 7  91039254.220 7        44.500          42.500          43.700          42.700
R05  21251427.289 8  21251426.551 7  21251429.777 7  21251429.797 7 113601052.987 8 113601299.000 7  88356562.326 7  88356478.329 7        48.200          45.000          44.700          44.300
R06  23890472.961 5  23890472.578 5                                 127484150.808 5                                                        34.700          32.800
R13  21674531.219 6  21674530.125 6  21674534.859 6  21674533.637 6 115740787.484 6 115740782.474 6  90020608.127 6  90020483.131 6        40.200          38.900          38.700          38.000
R14  19467868.789 8  19467867.867 7  19467871.453 7  19467871.266 7 103774689.455 8 103774692.449 7  80713649.491 7  80713741.487 7        50.200          46.700          46.900          46.700
R15  21501409.773 7  21501409.188 7  21501412.578 7  21501412.375 7 114897009.121 7 114897009.118 7  89364341.104 7  89364684.107 7        45.400          43.000          43.400          43.200
R17  24082251.797 6  24082250.992 6  24082255.805 6  24082256.988 6 128869000.301 6 128868996.334 6 100231437.601 6 100231449.586 6        41.500          39.900          37.100          36.100
R22  24045746.578 6  24045745.824 6  24045749.570 6  24045749.934 6 128357829.388 6 128357812.409 6  99833868.586 6  99833850.561 6        37.000          36.300          38.800          38.300
R23  20765560.438 8  20765559.461 7  20765563.938 6  20765565.449 6 111081747.470 8 111081742.474 7  86396911.323 6  86396999.325 6        49.400          45.100          40.400          39.600
R24  21269492.570 7  21269492.367 6  21269494.336 5  21269494.086 5 113737541.030 7 113737533.038 6                  88462918.556 5        42.300          40.000          32.500          32.400
S27  39188684.391 5  39188680.656 6 205937923.475 5                        33.000          38.700
S28  40854835.781 5  40854819.617 6 214693588.204 5                        32.600          37.700
S36  38330746.984 6  38330735.188 7 201429426.212 6 150418038.775 7        41.800          42.900
> 2019 03 21 12 03 00.0000000  0 40
C05  39423693.016 6  39423684.008 6  39423688.883 6 205289513.025 6 166814509.029 6 158742857.087 6        36.600          39.400          39.500
C08  39053223.367 6  39053210.285 6  39053217.441 6 203360377.395 6 165246992.881 6 157251147.197 6        39.400          41.400          40.800
C10  40726508.133 6  40726497.996 5  40726506.676 5 212073615.014 6 172327142.322 5 163988764.698 5        37.600          33.400          33.900
C13  39296955.867 7  39296949.711 6  39296958.359 6 204629563.486 7 166278252.971 6 158232564.516 6        42.200          40.900          39.400
C14  24711639.289 7  24711626.504 7  24711635.039 7 128679986.909 7 104563031.343 7  99503509.809 7        42.100          43.000          42.500
C21  25145370.250 7  25145359.836 7                 130938543.489 7 106398243.264 7                        43.500          42.000
C26  24175806.992 7  24175798.898 7                 125889766.423 7 102295716.944 7                        44.500          43.900
C29  23151263.453 8  23151255.270 7                 120554705.186 8  97960536.516 7                        48.800          44.800
C30  23657185.883 7  23657179.797 7                 123189172.786 7 100101269.177 7                        47.200          43.700
E02  27895672.195 6  27895677.137 6  27895667.273 6  27895676.051 6  27895677.078 6 146592748.258 6 109468629.014 6 118987594.587 6 112324326.866 6 110896482.555 6        41.200          37.900          41.600          38.200          41.400
E03  25133122.742 7  25133126.262 7  25133115.395 8  25133126.590 7  25133126.930 8 132075450.603 7  98627784.865 7 107204066.380 8 101200683.209 7  99914237.143 8        47.700          45.700          49.300          45.400          48.500
E05  26254865.414 7  26254870.727 7  26254858.457 7  26254870.633 7  26254871.223 7 137970247.510 7 103029749.056 7 111988802.873 7 105717480.279 7 104373617.278 7        44.600          44.300          47.300          43.600          47.000
E24  22009997.727 8  22010011.637 8  22009983.258 8  22010011.508 8  22010012.168 8 115663315.889 8  86372012.929 8  93882500.065 8  88625192.452 8  87498605.294 8        51.300          49.800          53.700          49.000          52.500
E25  23360969.195 8  23360972.730 8  23360961.262 8  23360972.543 8  23360973.254 8 122762722.021 8  91673474.061 8  99645030.471 8  94064954.578 8  92869216.923 8        49.600          49.300          53.700          48.900          52.200
G06  24979365.297 6  24979374.348 3  24979373.688 6  24979374.793 7 131267440.415 6 102286361.584 3 102286325.616 6  98024394.313 7        37.600          21.100          38.700          42.800
G10  24538410.008 6  24538416.641 3  24538415.930 6  24538415.379 7 128950208.930 6 100480712.348 3 100480714.354 6  96294010.602 7        40.500          22.900          39.000          42.500
G12  21383723.445 8  21383727.695 6  21383727.855 7                 112372226.333 8  87562789.826 6  87562790.823 7                        48.500          36.300          42.500
G13  24070152.164 6  24070157.652 3                                 126489501.992 6  98563269.422 3                                        40.500          22.500
G15  22595648.461 8  22595652.750 5  22595652.875 6                 118740930.355 8  92525418.709 5  92525420.698 6                        48.200          32.900          41.100
G17  22419765.102 8  22419768.766 5  22419769.063 6                 117816656.933 8  91805203.951 5  91805204.959 6                        49.100          34.100          41.900
G19  21056027.281 7  21056028.965 6                                 110650167.363 7  86220917.437 6                                        47.800          37.900
G24  20224276.727 8  20224283.055 7  20224283.137 8  20224283.395 9 106279291.013 8  82815056.389 7  82815058.401 8  79364431.117 9        51.000          43.500          48.700          55.200
G25  24729749.539 5  24729758.422 3  24729758.559 6  24729759.188 6 129955744.366 5 101264229.850 3 101264192.917 6  97044850.752 6        35.500          19.300          38.400          41.900
G28  25237244.336 6  25237249.238 3                                 132622610.301 6 103342319.095 3                                        37.400          19.300
G32  25423367.953 6  25423375.203 2                  25423375.074 5 133600722.347 6 104104469.823 2                  99766763.085 5        37.700          16.900                          33.400
I02  37541849.367 6 147322274.074 6        39.900
I03  40902052.563 6 160508438.368 6        38.400
I06  38224236.430 6 150000145.044 6        40.300
R04  21878360.188 7  21878359.191 6  21878363.094 7  21878362.711 7 117157620.211 7 117157617.232 6  91122591.851 7  91122406.842 7        44.500          40.900          42.000          42.000
R05  21252794.500 8  21252794.316 7  21252797.000 7  21252796.703 7 113608361.352 8 113608607.368 7  88362246.618 7  88362162.622 7        48.100          42.700          42.300          42.100
R13  21690372.906 6  21690372.324 6  21690377.180 6  21690375.902 6 115825383.609 6 115825378.603 6  90086405.077 6  90086280.087 6        40.500          37.600          38.300          37.700
R14  19468180.500 8  19468179.926 7  19468183.449 7  19468183.500 7 103776353.372 8 103776356.375 7  80714943.660 7  80715035.649 7        50.800          45.300          44.700          43.600
R15  21485848.789 7  21485848.922 6  21485850.871 7  21485851.770 7 114813857.273 7 114813857.285 6  89299667.487 7  89300010.482 7        46.400          41.300          42.500          42.100
R17  24056491.516 6  24056490.734 6  24056495.539 6  24056496.375 6 128731151.757 6 128731147.771 6 100124222.313 6 100124234.312 6        40.900          37.700          37.200          36.000
R22  24067103.297 6  24067101.191 6  24067105.309 6  24067105.734 6 128471823.893 6 128471806.914 6  99922530.885 6  99922512.874 6        38.800          36.300          40.300          38.900
R23  20767062.898 8  20767061.836 7  20767065.723 6  20767067.508 6 111089783.505 8 111089778.509 7  86403161.596 6  86403249.584 6        49.400          43.700          39.500          39.100
R24  21251088.539 7  21251087.527 6  21251090.449 5  21251089.695 5 113639123.718 7 113639115.735 6                  88386371.794 5        42.500          39.200          32.600          31.500
S27  39188739.031 5  39188744.520 6 205938208.199 5                        32.600          36.400
S28  40854847.906 5  40854832.684 6 214693654.656 5                        33.200          37.500
S36  38330753.734 6  38330741.512 6 201429458.702 6 150418063.954 6        41.300          40.900
> 2019 03 21 12 03 30.0000000  0 40
C05  39423366.797 6  39423357.293 6  39423361.805 6 205287811.237 6 166813126.193 6 158741541.160 6        36.200          39.900          38.900
C08  39047579.430 6  39047565.477 6  39047573.262 6 203330984.600 6 165223108.852 6 157228418.842 6        40.400          41.300          40.900
C10  40731026.086 6  40731015.406 5  40731024.051 5 212097136.777 6 172346255.682 5 164006953.216 5        36.100          34.200          33.800
C13  39287456.727 7  39287450.059 6  39287458.551 6 204580097.510 7 166238057.850 6 158194314.325 6        42.300          41.000          39.900
C14  24715318.219 6  24715306.461 7  24715315.016 7 128699149.534 6 104578602.530 7  99518327.560 7        41.400          43.300          42.000
C21  25160922.422 7  25160911.910 7                 131019526.899 7 106464048.875 7                        42.900          42.200
C26  24161134.930 7  24161127.180 7                 125813366.777 7 102233635.986 7                        44.700          43.700
C29  23139047.945 8  23139038.852 7                 120491091.447 8  97908845.165 7                        48.700          44.700
C30  23662915.188 7  23662909.152 7                 123219007.649 7 100125512.456 7                        46.700          43.200
E02  27881674.844 6  27881679.055 6  27881669.453 6  27881678.547 6  27881679.586 6 146519191.137 6 109413700.048 6 118927889.189 6 112267964.985 6 110840837.127 6        41.300          37.900          41.200          38.600          41.600
E03  25137823.883 7  25137827.551 7  25137816.523 8  25137827.168 7  25137827.992 8 132100155.014 7  98646232.960 7 107224118.655 8 101219612.558 7  99932925.858 8        47.600          45.700          49.400          45.100          48.500
E05  26271495.906 7  26271501.020 7  26271488.578 7  26271500.695 7  26271501.453 7 138057639.850 7 103095009.503 7 112059738.169 7 105784443.185 7 104439728.946 7        44.300          43.900          47.200          43.600          46.800
E24  22016762.852 8  22016776.660 8  22016748.176 8  22016776.266 8  22016777.148 8 115698866.163 8  86398560.202 8  93911355.805 8  88652432.264 8  87525498.839 8        50.900          49.800          53.600          49.000          52.500
E25  23354381.719 8  23354385.000 8  23354373.469 8  23354384.676 8  23354385.496 8 122728103.312 8  91647622.446 8  99616930.884 8  94038428.568 8  92843028.102 8        50.300          49.400          53.700          48.900          52.200
G06  24962112.727 5  24962120.969 3  24962121.387 6  24962122.434 7 131176778.514 5 102215716.092 3 102215680.069 6  97956692.361 7        35.500          19.900          38.800          42.800
G10  24546262.266 6  24546269.215 3  24546268.688 6  24546267.043 7 128991471.424 6 100512864.912 3 100512866.916 6  96324823.464 7        41.100          22.600          39.200          42.500
G12  21369725.852 8  21369729.824 6  21369730.074 7                 112298666.933 8  87505470.835 6  87505471.832 7                        50.000          36.800          42.800
G13  24092323.414 6  24092328.563 3                                 126606009.042 6  98654054.057 3                                        40.700          21.800
G15  22613556.203 8  22613560.969 5  22613560.602 6                 118835038.633 8  92598749.800 5  92598751.809 6                        48.100          32.700          41.200
G17  22429951.156 8  22429954.609 5  22429954.574 7                 117870183.427 8  91846912.902 5  91846913.903 7                        49.200          34.900          42.100
G19  21055740.094 8  21055741.496 6                                 110648657.441 8  86219740.887 6                                        49.100          38.100
G24  20221441.055 8  20221447.129 7  20221447.320 8  20221447.625 9 106264389.107 8  82803444.518 7  82803446.523 8  79353303.070 9        51.100          43.600          48.500          55.200
G25  24709922.305 5  24709931.117 3  24709931.262 6  24709932.207 7 129851551.234 5 101183040.521 3 101183003.494 6  96967044.229 7        35.500          19.600          37.900          42.700
G28  25254529.750 6  25254534.199 3                                 132713445.566 6 103413099.806 3                                        38.900          18.600
G32  25403961.430 6  25403968.066 2  25403968.984 5  25403967.875 5 133498739.769 6 104025002.827 2 104024970.859 5  99690607.219 5        37.700          17.800          33.900          35.000
I02  37544467.063 6 147332548.354 6        40.500
I03  40902190.094 6 160508975.469 6        38.700
I06  38224643.859 6 150001743.563 6        40.000
R04  21898403.281 7  21898403.395 6  21898407.086 6  21898406.852 6 117264954.901 7 117264951.915 6  91206074.328 6  91205889.337 6        45.300          41.100          41.800          41.700
R05  21254316.727 7  21254316.664 7  21254319.836 7  21254319.109 7 113616499.035 7 113616745.034 7  88368575.907 7  88368491.918 7        47.900          42.600          42.900          42.400
R06  23853940.750 5  23853939.223 5                                 127289202.461 5                                                        35.300          33.300
R13  21706252.039 6  21706250.984 6  21706255.191 6  21706254.918 6 115910177.544 6 115910172.543 6  90152355.899 6  90152230.895 6        40.100          37.600          38.100          36.800
R14  19468564.727 8  19468563.707 7  19468567.906 7  19468567.375 7 103778400.061 8 103778403.056 7  80716535.522 7  80716627.519 7        50.800          45.200          44.700          43.600
R15  21470322.023 7  21470321.633 6  21470325.082 7  21470324.578 7 114730886.194 7 114730886.213 6  89235134.469 7  89235477.458 7        45.800          41.700          42.500          42.300
R17  24030724.344 6  24030723.926 6  24030728.047 6  24030729.742 6 128593270.418 6 128593266.440 6 100016981.501 6 100016993.492 6        40.700          37.400          37.200          37.200
R22  24088526.547 6  24088525.395 6  24088528.750 6  24088529.785 6 128586191.290 6 128586174.287 6 100011483.239 6 100011465.242 6        39.500          37.900          38.000          37.800
R23  20768724.883 8  20768723.902 7  20768729.328 6  20768729.914 6 111098675.174 8 111098670.178 7  86410077.333 6  86410165.343 6        49.800          43.600          39.900          38.800
R24  21232788.156 6  21232787.664 6                  21232789.832 5 113541266.246 6 113541258.248 6                  88310260.457 5        41.700          39.300                          31.900
S28  40854860.109 5  40854845.160 6 214693719.638 5                        31.600          37.700
S36  38330760.016 6  38330747.660 6 201429494.640 6 150418090.306 6        41.400          41.600
> 2019 03 21 12 04 00.0000000  0 40
C05  39423039.688 6  39423030.348 6  39423035.250 6 205286109.838 6 166811743.660 6 158740225.518 6        36.700          40.200          39.200
C08  39041970.469 6  39041956.961 7  39041964.555 6 203301779.405 6 165199377.253 7 157205835.561 6        40.100          42.000          40.800
C10  40735541.523 6  40735529.969 5  40735539.461 5 212120647.874 6 172365360.394 5 164025133.501 5        36.900          33.700          33.700
C13  39277983.727 7  39277976.703 6  39277985.406 6 204530766.685 7 166197972.546 6 158156168.639 6        42.600          41.400          39.500
C14  24719090.320 6  24719078.234 7  24719086.629 7 128718791.162 6 104594562.970 7  99533515.714 7        40.900          43.400          42.800
C21  25176512.773 7  25176502.027 7                 131100708.975 7 106530015.913 7                        43.300          42.700
C26  24146482.523 7  24146475.434 7                 125737071.476 7 102171639.828 7                        44.700          44.900
C29  23126908.117 8  23126899.676 7                 120427879.773 8  97857480.527 7                        48.700          45.000
C30  23668739.570 7  23668734.340 7                 123249339.887 7 100150159.888 7                        47.000          44.500
E02  27867684.961 6  27867689.063 6  27867679.480 7  27867688.527 6  27867689.785 6 146445673.774 6 109358800.801 6 118868216.069 7 112211633.595 6 110785221.801 6        41.200          38.100          42.000          39.000          41.500
E03  25142605.031 7  25142609.336 7  25142598.348 8  25142608.676 7  25142609.711 8 132125282.686 7  98664997.116 7 107244514.488 8 101238866.196 7  99951934.768 8        47.500          45.700          49.400          45.200          48.400
E05  26288153.492 7  26288159.148 7  26288146.680 7  26288158.055 7  26288159.332 7 138145177.268 7 103160378.292 7 112130791.226 7 105851517.239 7 104505950.374 7        43.400          44.200          47.200          43.600          46.800
E24  22023559.063 8  22023573.727 8  22023545.031 8  22023572.500 8  22023573.914 8 115734583.056 8  86425231.899 8  93940346.782 8  88679799.732 8  87552518.414 8        50.700          49.800          53.600          49.000          52.500
E25  23347827.328 8  23347831.219 8  23347819.730 8  23347830.160 8  23347831.563 8 122693662.085 8  91621903.355 8  99588975.352 8  94012038.542 8  92816973.551 8        50.000          49.400          53.700          48.800          52.200
G06  24944877.250 6  24944886.883 3  24944886.559 6  24944888.141 7 131086210.227 6 102145143.501 3 102145107.519 6  97889060.337 7        36.800          20.400          38.900          43.100
G10  24554200.563 6  24554209.070 3  24554208.613 6  24554206.406 7 129033195.423 6 100545377.076 3 100545379.072 6  96355980.953 7        39.200          22.500          40.200          42.100
G12  21355792.453 8  21355797.035 6  21355797.445 7                 112225449.527 8  87448418.347 6  87448419.336 7                        48.800          37.100          42.800
G13  24114514.164 6  24114518.766 3                                 126722619.282 6  98744919.112 3                                        41.200          22.900
G15  22631519.133 7  22631523.902 5  22631523.906 7                 118929434.979 7  92672305.362 5  92672307.371 7                        47.800          32.800          42.100
G17  22440225.539 8  22440229.414 5  22440229.387 7                 117924177.372 8  91888986.117 5  91888987.114 7                        48.600          34.800          42.400
G19  21055580.281 8  21055583.203 6                                 110647824.584 8  86219091.926 6                                        48.400          37.900
G24  20218689.023 8  20218695.480 7  20218695.691 8  20218695.820 9 106249928.335 8  82792176.392 7  82792178.389 8  79342504.432 9        50.700          43.400          48.600          55.300
G25  24690116.938 6  24690125.238 3  24690125.543 6  24690126.707 7 129747472.109 6 101101940.022 3 101101903.009 6  96889322.967 7        36.700          19.900          38.600          42.800
G28  25271809.914 6  25271814.211 3                                 132804253.396 6 103483859.106 3                                        39.000          18.300
G32  25384592.070 6  25384599.125 3  25384599.574 5  25384598.168 6 133396952.402 6 103945688.059 3 103945656.063 5  99614597.161 6        37.300          18.300          35.500          37.100
I02  37547091.609 6 147342844.243 6        40.300
I03  40902324.758 6 160509509.881 6        39.200
I06  38225052.047 6 150003346.955 6        40.500
R04  21918527.188 7  21918525.461 6  21918529.953 7  21918529.492 6 117372710.181 7 117372707.193 6  91289883.952 7  91289698.955 6        45.100          41.200          42.200          41.900
R05  21255995.375 7  21255993.668 7  21255996.641 7  21255996.992 7 113625467.090 7 113625713.083 7  88375551.080 7  88375467.076 7        47.300          43.200          42.200          42.600
R06  23835810.570 6  23835808.594 5                                 127192455.204 6 127192464.238 5                                        36.900          34.700
R13  21722169.148 6  21722167.438 6  21722171.984 6  21722171.551 6 115995170.180 6 115995165.203 6  90218461.252 6  90218336.247 6        40.600          38.000          38.100          37.600
R14  19469020.398 8  19469019.996 7  19469023.762 7  19469023.477 7 103780831.130 8 103780834.133 7  80718426.366 7  80718518.356 7        50.500          45.200          45.100          44.000
R15  21454829.156 7  21454828.770 6  21454831.285 7  21454832.078 7 114648098.452 7 114648098.456 6  89170744.025 7  89171087.028 7        45.900          41.900          42.300          42.300
R17  24004954.891 6  24004951.914 6  24004956.828 6  24004958.078 6 128455361.294 6 128455357.298 6  99909719.033 6  99909731.039 6        39.500          36.600          39.000          38.100
R22  24110021.984 6  24110019.648 6  24110025.273 6  24110024.004 6 128700928.587 6 128700911.597 6 100100723.337 6 100100705.341 6        41.400          38.600          38.100          37.600
R23  20770547.383 8  20770546.031 7  20770551.496 6  20770552.332 6 111108423.409 8 111108418.413 7  86417659.308 6  86417747.326 6        48.900          43.300          39.800          38.400
R24  21214594.313 7  21214593.570 6                  21214595.863 5 113443974.187 7 113443966.203 6                  88234588.888 5        42.100          39.500                          32.400
S28  40854872.000 5  40854857.281 6 214693787.125 5                        33.400          37.300
S36  38330765.422 6  38330753.777 6 201429531.068 6 150418113.718 6        41.300          41.600
> 2019 03 21 12 04 30.0000000  0 41
C05  39422713.148 6  39422704.094 6  39422708.672 6 205284409.606 6 166810362.063 6 158738910.769 6        36.200          40.700          40.100
C08  39036397.867 6  39036384.879 7  39036391.953 6 203272763.343 6 165175799.340 7 157183398.513 6        39.800          42.500          41.100
C10  40740054.523 6  40740043.117 5  40740052.590 5 212144149.227 6 172384457.135 5 164043306.203 5        36.900          33.400          33.700
C13  39268536.172 6  39268529.473 7  39268538.023 6 204481572.771 6 166157998.482 7 158118128.815 6        41.300          42.400          40.100
C14  24722954.922 6  24722942.508 7  24722950.773 7 128738911.972 6 104610912.751 7  99549074.370 7        41.500          44.100          43.600
C21  25192140.914 7  25192130.207 7                 131182088.327 7 106596143.249 7                        43.300          43.100
C26  24131851.492 7  24131844.156 7                 125660882.473 7 102109730.042 7                        44.600          45.700
C29  23114846.750 8  23114838.547 7                 120365073.146 8  97806445.026 7                        48.700          47.000
C30  23674660.695 7  23674654.988 7                 123280169.612 7 100175211.573 7                        47.000          46.200
E02  27853702.617 6  27853707.543 6  27853697.422 7  27853706.551 6  27853707.531 7 146372197.501 6 109303932.279 6 118808576.318 7 112155333.677 6 110729637.584 7        40.000          39.300          42.000          39.400          42.800
E03  25147467.813 7  25147471.516 7  25147460.449 8  25147471.121 7  25147472.008 8 132150834.200 7  98684077.778 7 107265254.344 8 101258444.633 7  99971264.309 8        47.800          45.800          49.300          45.900          48.600
E05  26304838.953 7  26304844.410 7  26304831.895 7  26304843.695 7  26304844.684 7 138232859.001 7 103225854.850 7 112201961.417 7 105918701.901 7 104572280.986 7        44.100          44.800          47.000          45.000          47.600
E24  22030388.078 8  22030402.102 8  22030373.465 8  22030401.496 8  22030402.488 8 115770467.358 8  86452028.620 8  93969473.643 8  88707295.506 8  87579664.666 8        50.100          49.800          53.600          49.100          52.500
E25  23341307.602 8  23341311.156 8  23341299.648 8  23341310.801 8  23341311.645 8 122659399.581 8  91596317.743 8  99561164.889 8  93985785.479 8  92791054.213 8        50.300          49.500          53.700          49.000          52.200
G06  24927661.148 6  24927670.707 3  24927671.113 6  24927671.434 7 130995739.489 6 102074646.932 3 102074610.926 6  97821501.131 7        36.600          21.800          40.200          44.100
G10  24562229.148 6  24562236.203 3  24562236.180 6  24562235.184 7 129075379.582 6 100578247.797 3 100578249.804 6  96387482.065 7        40.200          22.500          40.200          42.800
G12  21341925.813 8  21341929.520 6  21341930.047 7                 112152576.430 8  87391634.126 6  87391635.137 7                        49.600          37.300          44.300
G13  24136723.102 6  24136728.551 3                                 126839331.335 6  98835863.489 3                                        40.800          22.600
G15  22649537.063 7  22649541.535 5  22649541.523 7                 119024118.192 7  92746084.453 5  92746086.440 7                        47.700          32.800          42.200
G17  22450589.078 8  22450592.863 5  22450592.996 7                 117978637.935 8  91931422.909 5  91931423.902 7                        49.500          35.300          42.800
G19  21055551.680 8  21055553.699 6                                 110647669.742 8  86218971.283 6                                        48.800          38.700
G24  20216021.617 8  20216027.898 7  20216028.066 8  20216028.262 9 106235910.236 8  82781253.194 7  82781255.190 8  79332036.381 9        51.800          43.800          49.300          55.400
G25  24670333.367 6  24670341.793 3  24670342.547 6  24670342.828 7 129643509.046 6 101020929.925 3 101020892.921 6  96811688.315 7        36.300          19.900          38.500          43.600
G28  25289084.789 6  25289089.730 3                                 132895033.918 6 103554597.123 3                                        38.900          18.300
G32  25365260.391 6  25365267.996 3  25365267.797 5  25365266.469 6 133295363.660 6 103866528.003 3 103866496.039 5  99538735.460 6        39.200          19.300          35.600          38.300
I02  37549719.719 6 147353162.419 6        40.000
I03  40902461.156 6 160510042.127 6        38.600
I06  38225462.648 6 150004955.657 6        40.600
R04  21938726.039 7  21938726.387 7  21938730.590 7  21938729.906 7 117480883.208 7 117480880.224 7  91374018.476 7  91373833.487 7        44.600          42.000          43.800          42.900
R05  21257827.508 7  21257826.824 7  21257830.773 7  21257829.871 7 113635265.902 7 113635511.903 7  88383172.367 7  88383088.370 7        47.500          44.800          44.200          44.000
R06  23817772.250 6  23817769.754 5                                 127096196.582 6 127096205.601 5                                        37.100          35.700
R13  21738122.320 6  21738121.188 6  21738125.469 6  21738125.176 6 116080361.742 6 116080356.756 6  90284721.325 6  90284596.319 6        39.700          38.300          38.400          38.100
R14  19469548.633 8  19469548.430 7  19469552.457 7  19469552.004 7 103783648.122 8 103783651.117 7  80720617.357 7  80720709.353 7        50.900          46.500          47.000          46.300
R15  21439371.820 7  21439371.672 7  21439373.906 7  21439374.184 7 114565496.128 7 114565496.132 7  89106497.814 7  89106840.803 7        46.100          43.900          44.100          43.300
R17  23979177.492 6  23979175.992 6  23979182.000 6  23979182.113 6 128317429.129 6 128317425.158 6  99802438.652 6  99802450.669 6        37.900          36.000          39.400          38.300
R22  24131584.305 6  24131583.336 6  24131587.590 6  24131587.391 6 128816033.018 6 128816016.024 6 100190248.973 6 100190230.979 6        41.600          39.900          38.400          37.300
R23  20772529.688 8  20772528.750 7  20772534.328 6  20772534.703 6 111119028.933 8 111119023.937 7  86425908.067 6  86425996.070 6        48.800          45.100          40.400          39.000
R24  21196507.063 6  21196506.695 6  21196510.191 5  21196508.367 5 113347253.246 6 113347245.254 6  88158965.503 5  88159361.524 5        41.800          40.200          33.500          32.300
S27  39188897.344 5  39188893.691 6 205939059.054 5                        32.900          38.400
S28  40854886.219 5  40854870.332 6 214693855.025 5                        32.200          38.300
S36  38330771.984 6  38330760.359 7 201429566.132 6 150418141.150 7        41.800          42.300
> 2019 03 21 12 05 00.0000000  0 40
C05  39422386.227 6  39422377.223 6  39422382.082 6 205282708.332 6 166808979.627 6 158737595.220 6        36.300          40.400          39.700
C08  39030861.609 6  39030848.285 7  39030855.738 6 203243933.839 6 165152373.010 7 157161105.716 6        40.300          42.300          41.200
C10  40744564.539 6  40744554.191 5  40744562.848 5 212167638.741 6 172403544.260 5 164061469.744 5        37.500          33.300          34.700
C13  39259114.711 6  39259108.070 7  39259116.746 6 204432513.513 6 166118133.841 7 158080193.113 6        41.800          42.000          39.800
C14  24726908.820 6  24726897.793 7  24726906.051 7 128759508.335 6 104627648.978 7  99565000.774 7        41.300          43.600          43.100
C21  25207805.961 7  25207795.234 7                 131263659.811 7 106662426.718 7                        43.500          42.600
C26  24117239.859 7  24117232.750 7                 125584797.902 7 102047905.111 7                        44.400          44.600
C29  23102863.664 8  23102854.711 7                 120302670.764 8  97755737.998 7                        48.800          45.900
C30  23680676.484 7  23680670.344 7                 123311493.168 7 100200664.527 7                        47.400          45.000
E02  27839728.492 6  27839732.484 6  27839722.703 7  27839732.285 6  27839732.801 7 146298759.783 6 109249092.471 6 118748967.824 7 112099063.287 6 110674082.483 7        39.800          39.400          42.000          40.200          43.200
E03  25152410.430 7  25152413.805 7  25152402.723 8  25152413.508 7  25152414.266 8 132176806.172 7  98703472.422 7 107286335.477 8 101278345.216 7  99990911.925 8        47.700          45.900          49.200          45.300          48.600
E05  26321550.734 7  26321556.227 7  26321543.742 7  26321555.750 7  26321556.605 7 138320680.549 7 103291435.820 7 112273245.094 7 105985993.684 7 104638717.355 7        44.000          44.200          47.000          44.100          46.600
E24  22037248.258 8  22037261.895 8  22037233.230 8  22037261.391 8  22037262.254 8 115806516.066 8  86478948.097 8  93998733.958 8  88734917.225 8  87606935.271 8        50.400          49.700          53.600          49.000          52.400
E25  23334821.492 8  23334824.754 8  23334813.148 8  23334824.328 8  23334825.148 8 122625313.198 8  91570863.626 8  99533497.371 8  93959667.338 8  92765268.082 8        49.700          49.500          53.700          48.900          52.300
G06  24910465.023 5  24910472.824 3  24910473.477 6  24910474.199 7 130905367.098 5 102004226.988 3 102004191.005 6  97754015.373 7        35.100          20.100          39.400          43.200
G10  24570343.930 6  24570350.727 3  24570350.355 6  24570348.914 7 129118019.500 6 100611473.664 3 100611475.705 6  96419323.527 7        39.400          21.700          39.600          42.800
G12  21328123.305 8  21328127.402 6  21328127.434 7                 112080045.780 8  87335116.763 6  87335117.768 7                        49.800          36.700          43.000
G13  24158951.758 6  24158956.535 3                                 126956140.268 6  98926883.342 3                                        40.700          22.200
G15  22667608.609 8  22667612.965 5  22667612.582 7                 119119082.762 8  92820082.775 5  92820084.775 7                        48.500          32.800          42.200
G17  22461040.633 8  22461044.359 5  22461044.188 7                 118033560.851 8  91974219.986 5  91974220.996 7                        48.800          35.000          42.900
G19  21055650.859 8  21055652.617 6                                 110648190.034 8  86219376.722 6                                        48.400          38.200
G24  20213437.773 8  20213444.156 7  20213444.086 8  20213444.559 9 106222332.868 8  82770673.422 7  82770675.427 8  79321897.445 9        51.700          43.500          48.600          55.300
G25  24650571.422 6  24650580.055 3  24650580.605 6  24650580.805 7 129539660.721 6 100940009.258 3 100939972.298 6  96734139.410 7        36.200          21.300          39.300          43.400
G28  25306354.063 6  25306358.406 2                                 132985784.083 6 103625311.553 2                                        39.700          17.800
G32  25345967.203 6  25345973.125 3  25345974.438 6  25345972.137 6 133193973.936 6 103787522.996 3 103787490.978 6  99463022.334 6        38.000          19.300          36.500          38.600
I02  37552354.586 6 147363501.769 6        40.400
I03  40902596.320 6 160510570.559 6        39.400
I06  38225873.023 6 150006568.198 6        40.700
R04  21959004.320 7  21959003.773 6  21959007.992 7  21959007.113 7 117589466.528 7 117589463.541 6  91458472.125 7  91458287.124 7        44.600          41.800          42.900          42.400
R05  21259815.672 7  21259815.242 7  21259818.766 7  21259817.926 7 113645891.988 7 113646138.003 7  88391437.118 7  88391353.099 7        47.400          43.600          43.200          43.800
R06  23799825.680 6  23799823.031 6                                 127000429.371 6 127000438.363 6                                        38.100          36.400
R13  21754113.125 6  21754111.277 6  21754115.730 6  21754115.414 6 116165748.574 6 116165743.573 6  90351133.262 6  90351008.258 6        40.500          37.700          38.200          37.600
R14  19470149.766 8  19470148.809 7  19470152.297 7  19470152.160 7 103786848.274 8 103786851.276 7  80723106.366 7  80723198.355 7        50.700          45.500          45.600          45.000
R15  21423947.398 7  21423947.695 7  21423950.348 7  21423950.254 7 114483077.423 7 114483077.420 7  89042394.404 7  89042737.402 7        45.900          42.300          43.000          42.800
R17  23953395.594 6  23953395.781 5  23953401.547 6  23953401.777 6 128179475.403 6 128179471.41215  99695141.488 6  99695153.482 6        36.300          35.100          39.800          37.900
R22  24153214.547 7  24153213.777 6  24153216.398 6  24153217.629 6 128931497.770 7 128931480.756 6 100280054.829 6 100280036.846 6        42.900          39.400          37.100          36.400
R23  20774672.055 8  20774671.176 7  20774676.289 6  20774676.961 6 111130488.685 8 111130483.682 7  86434821.228 6  86434909.223 6        48.600          44.000          40.100          39.200
R24  21178527.531 6  21178525.879 6  21178528.254 5  21178528.145 5 113251104.604 6 113251096.619 6  88084183.284 5  88084579.268 5        41.800          39.900          32.400          31.600
S28  40854897.313 5  40854883.105 6 214693923.263 5                        32.800          38.100
S36  38330778.406 6  38330767.090 7 201429598.012 6 150418169.853 7        41.300          42.400
> 2019 03 21 12 05 30.0000000  0 42
C05  39422058.820 6  39422050.309 6  39422055.238 6 205281005.329 6 166807595.788 6 158736278.336 6        36.300          41.100          40.000
C08  39025361.617 6  39025347.816 7  39025354.965 6 203215290.773 6 165129098.192 7 157138957.099 6        40.200          42.300          41.400
C10  40749073.641 6  40749063.152 5  40749071.906 5 212191115.820 6 172422621.306 5 164079623.705 5        37.600          34.100          34.700
C13  39249719.438 6  39249712.672 7  39249721.297 6 204383588.825 6 166078378.553 7 158042361.481 6        41.700          42.200          39.900
C14  24730956.203 7  24730944.227 7  24730952.465 7 128780578.825 7 104644770.471 7  99581293.804 7        42.300          44.300          43.200
C21  25223507.594 7  25223496.410 7                 131345420.346 7 106728863.805 7                        43.000          43.300
C26  24102649.164 7  24102641.566 7                 125508818.012 7 101986165.248 7                        44.300          45.300
C29  23090957.188 8  23090948.902 7                 120240673.980 8  97705360.563 7                        48.800          46.800
C30  23686786.031 7  23686780.160 7                 123343309.023 7 100226517.516 7                        46.700          46.300
E02  27825760.195 6  27825764.840 6  27825755.016 7  27825764.539 6  27825765.387 7 146225360.229 6 109194281.177 6 118689390.325 7 112042822.147 6 110618556.261 7        40.000          39.400          42.400          40.700          43.600
E03  25157432.148 7  25157435.867 7  25157424.832 8  25157435.410 7  25157436.418 8 132203197.389 7  98723180.134 7 107307756.921 8 101298567.057 7 100010876.694 8        47.900          45.700          49.300          46.000          48.600
E05  26338288.898 7  26338294.320 7  26338281.715 7  26338293.781 7  26338294.742 7 138408639.517 7 103357119.396 7 112344640.322 7 106053390.766 7 104705257.680 7        44.500          44.800          47.200          44.400          47.300
E24  22044138.750 8  22044152.785 8  22044124.277 8  22044152.293 8  22044153.293 8 115842728.316 8  86505989.710 8  94028127.014 8  88762664.277 8  87634329.603 8        50.900          49.900          53.600          49.200          52.500
E25  23328368.188 8  23328371.691 8  23328360.215 8  23328371.254 8  23328372.227 8 122591402.498 8  91545540.709 8  99505972.460 8  93933683.830 8  92739614.872 8        50.400          49.600          53.800          49.100          52.300
G01  25469908.516 5                  25469915.738 6  25469914.820 7                                 104295022.67816  99949396.627 7        31.900                          36.800          42.000
G06  24893286.398 6  24893295.313 3  24893295.324 6  24893296.203 7 130815095.535 6 101933885.600 3 101933849.621 6  97686604.906 7        36.000          19.600          39.900          43.900
G10  24578543.383 6  24578550.973 3  24578551.176 6  24578548.688 7 129161112.488 6 100645052.566 3 100645054.573 6  96451503.281 7        38.100          21.800          40.100          42.000
G12  21314386.805 8  21314390.422 6  21314390.711 7                 112007857.766 8  87278866.395 6  87278867.383 7                        49.500          37.600          44.500
G13  24181196.977 6  24181202.609 3                                 127073042.735 6  99017976.098 3                                        40.800          21.800
G15  22685732.180 7  22685737.063 5  22685737.148 7                 119214325.594 7  92894297.931 5  92894299.927 7                        47.500          32.300          42.300
G17  22471579.695 8  22471583.254 5  22471583.441 7                 118088943.556 8  92017375.343 5  92017376.330 7                        49.200          34.400          42.700
G19  21055878.258 8  21055880.133 6                                 110649385.095 8  86220307.960 6                                        48.000          38.300
G24  20210938.570 8  20210944.527 7  20210944.879 8  20210944.945 9 106209197.211 8  82760437.848 7  82760439.868 8  79312088.351 9        51.100          43.900          49.300          55.300
G25  24630832.648 6  24630840.430 3  24630840.527 6  24630840.961 7 129435927.545 6 100859178.376 3 100859141.393 6  96656676.490 7        37.700          22.800          38.900          43.800
G28  25323617.977 6  25323621.730 2                                 133076502.421 6 103696001.099 2                                        39.600          16.900
G32  25326711.367 6  25326718.328 3  25326718.574 6  25326717.227 6 133092785.129 6 103708674.566 3 103708642.575 6  99387459.281 6        38.500          21.100          38.100          39.900
I02  37554994.953 6 147373862.040 6        40.200
I03  40902730.242 6 160511094.698 6        38.700
I06  38226284.313 6 150008184.030 6        40.500
R04  21979356.938 7  21979356.574 7  21979360.586 7  21979360.219 7 117698455.199 7 117698452.207 7  91543241.048 7  91543056.052 7        44.700          42.100          43.400          42.700
R05  21261957.719 8  21261957.363 7  21261960.633 7  21261960.223 7 113657344.091 8 113657590.091 7  88400344.288 7  88400260.291 7        48.100          44.300          44.200          43.900
R06  23781969.078 6  23781968.602 6                                 126905156.826 6 126905165.838 6                                        37.800          36.800
R13  21770139.586 6  21770138.082 6  21770142.531 6  21770142.094 6 116251330.083 6 116251325.082 6  90417696.627 6  90417571.630 6        40.500          38.200          38.200          38.200
R14  19470821.555 8  19470820.953 7  19470824.695 7  19470824.473 7 103790431.318 8 103790434.318 7  80725893.187 7  80725985.172 7        50.200          46.400          46.900          45.900
R15  21408558.164 7  21408558.074 7  21408561.566 7  21408561.559 7 114400842.756 7 114400842.753 7  88978434.145 7  88978777.139 7        45.900          43.600          43.800          43.600
R17  23927612.789 6  23927612.313 5  23927617.707 6  23927618.332 6 128041503.422 6 128041499.405 5  99587830.132 6  99587842.130 6        36.300          34.300          39.400          38.800
R22  24174911.195 6  24174910.371 6  24174913.836 6  24174914.855 6 129047317.960 6 129047300.967 6 100370137.208 6 100370119.223 6        41.800          39.500          36.900          36.700
R23  20776973.734 8  20776972.863 7  20776978.508 6  20776978.719 6 111142801.640 8 111142796.637 7  86444397.973 6  86444485.975 6        48.200          45.100          40.500          39.800
R24  21160653.781 7  21160653.723 6  21160655.230 5  21160655.348 5 113155532.131 7 113155524.148 6  88009849.163 5  88010245.160 5        42.200          40.400          33.300          33.100
S27  39189003.578 5  39189000.000 6 205939610.745 5                        31.600          38.600
S28  40854909.891 5  40854897.844 6 214693989.571 5                        32.300          37.100
S36  38330785.250 6  38330773.875 7 201429631.813 6 150418190.711 7        41.800          42.200
> 2019 03 21 12 06 00.0000000  0 42
C05  39421732.102 6  39421723.262 6  39421728.133 6 205279302.237 6 166806211.874 6 158734961.379 6        36.000          41.000          39.400
C08  39019896.336 6  39019883.285 7  39019890.531 6 203186835.800 6 165105976.202 7 157116953.918 6        40.400          42.200          41.600
C10  40753580.977 6  40753569.102 5  40753578.672 5 212214582.120 6 172441689.604 5 164097769.328 5        37.400          33.300          34.400
C13  39240350.102 6  39240343.262 6  39240351.961 6 204334800.524 6 166038734.091 6 158004635.300 6        41.700          41.600          40.800
C14  24735093.211 6  24735081.816 7  24735089.930 7 128802123.992 6 104662277.673 7  99597953.881 7        41.400          44.500          43.200
C21  25239244.977 7  25239233.727 7                 131427369.050 7 106795453.795 7                        42.700          43.300
C26  24088078.500 7  24088071.152 7                 125432945.191 7 101924512.390 7                        44.800          45.300
C29  23079130.117 8  23079121.512 7                 120179086.169 8  97655315.453 7                        48.400          46.400
C30  23692990.508 7  23692984.656 7                 123375617.656 7 100252770.924 7                        46.700          46.200
E02  27811800.164 6  27811805.348 6  27811795.355 7  27811804.250 6  27811805.410 7 146152000.576 6 109139499.707 6 118629845.193 7 111986611.548 6 110563060.230 7        39.300          40.700          42.700          41.000          44.200
E03  25162534.273 8  25162538.102 7  25162526.926 8  25162537.469 7  25162538.445 8 132230008.697 8  98743201.557 7 107329519.335 8 101319110.772 7 100031159.269 8        48.100          46.100          49.200          45.600          48.600
E05  26355053.117 7  26355058.531 7  26355045.988 7  26355057.934 7  26355058.883 7 138496735.569 7 103422905.353 7 112416146.812 7 106120892.864 7 104771901.714 7        43.700          44.600          47.000          45.100          47.400
E18  29039443.172 6  29039450.500 6  29039438.234 6  29039449.512 6  29039450.453 6 152603301.023 6 113957039.712 6 123866295.213 6 116929826.583 6 115443436.757 6        38.200          38.200          39.200          37.900          41.500
E24  22051061.242 8  22051075.207 8  22051046.609 8  22051074.395 8  22051075.598 8 115879105.324 8  86533154.363 8  94057653.807 8  88790537.574 8  87661848.572 8        50.800          49.800          53.600          49.200          52.500
E25  23321949.250 8  23321952.574 8  23321940.973 8  23321951.813 8  23321952.945 8 122557669.122 8  91520350.212 8  99478591.483 8  93907836.181 8  92714095.799 8        50.100          49.700          53.800          49.000          52.300
G01  25479468.266 4  25479475.031 2  25479474.695 5  25479474.086 6                                 104334164.688 5  99986907.734 6        28.900          14.800          35.600          40.600
G06  24876128.297 5  24876137.078 3  24876137.164 6  24876138.215 7 130724929.547 5 101863626.463 3 101863590.464 6  97619273.224 7        35.600          21.100          39.200          44.000
G10  24586829.211 6  24586837.215 3  24586837.598 6  24586835.977 7 129204657.901 6 100678984.006 3 100678986.030 6  96484020.928 7        38.700          22.200          39.700          42.900
G12  21300715.359 8  21300719.266 6  21300719.660 7                 111936015.041 8  87222885.075 6  87222886.079 7                        49.600          36.600          44.300
G13  24203460.734 6  24203466.043 3                                 127190038.353 6  99109141.444 3                                        40.400          22.800
G15  22703909.055 7  22703913.887 5  22703914.121 7                 119309845.574 7  92968729.038 5  92968731.043 7                        47.500          31.800          42.100
G17  22482206.141 8  22482209.645 5  22482209.422 7                 118144785.686 8  92060888.692 5  92060889.668 7                        48.300          34.300          43.300
G19  21056233.766 7  21056236.055 6                                 110651256.352 7  86221766.095 6                                        47.500          38.400
G24  20208523.313 8  20208529.371 7  20208529.703 8  20208529.754 9 106196505.406 8  82750548.128 7  82750550.139 8  79302610.704 9        51.400          43.800          49.100          55.400
G25  24611114.273 6  24611122.570 3  24611122.680 6  24611123.527 7 129332312.159 6 100778439.257 3 100778402.236 6  96579301.518 7        37.100          21.700          39.200          43.600
G28  25340874.859 6  25340879.023 2                                 133167189.999 6 103766666.743 2                                        39.800          13.900
G32  25307495.797 6  25307501.832 3  25307501.867 6  25307500.766 6 132991801.447 6 103629986.001 3 103629953.963 6  99312049.373 6        37.900          20.400          38.100          40.600
I02  37557640.359 6 147384242.767 6        40.100
I03  40902861.516 6 160511615.751 6        38.900
I06  38226698.180 6 150009804.338 6        40.800
R04  21999785.125 7  21999784.234 7  21999788.137 7  21999788.422 7 117807846.327 7 117807843.340 7  91628322.972 7  91628137.989 7        44.100          42.400          43.300          43.300
R05  21264253.953 7  21264253.816 7  21264257.836 7  21264257.121 7 113669623.042 7 113669869.058 7  88409894.586 7  88409810.582 7        46.700          44.500          43.900          43.800
R06  23764209.508 6  23764208.613 5                                 126810384.428 6 126810393.424 5                                        37.500          35.900
R13  21786203.797 6  21786201.016 6  21786205.285 6  21786205.531 6 116337107.123 6 116337102.135 6  90484412.068 6  90484287.079 6        40.200          38.300          38.300          37.900
R14  19471565.695 8  19471565.117 7  19471568.734 7  19471568.738 7 103794399.071 8 103794402.081 7  80728979.217 7  80729071.206 7        50.300          46.600          47.000          46.600
R15  21393204.109 7  21393204.258 7  21393207.227 7  21393207.250 7 114318794.748 7 114318794.753 7  88914619.055 7  88914962.052 7        46.300          43.900          43.600          43.300
R17  23901827.320 6  23901826.586 5  23901832.031 6  23901832.559 6 127903518.368 6 127903514.350 5  99480508.571 6  99480520.588 6        37.000          35.100          39.000          37.600
R22  24196675.477 7  24196674.230 6  24196677.449 5  24196677.977 5 129163491.066 7 129163474.061 6 100460493.986 5 100460475.980 5        42.100          39.900          35.700          35.000
R23  20779435.234 8  20779434.336 7  20779439.391 6  20779440.355 6 111155968.753 8 111155963.749 7  86454639.076 6  86454727.079 6        48.800          45.200          40.700          39.400
R24  21142891.242 7  21142889.945 6  21142891.527 5  21142891.785 5 113060541.927 7 113060533.929 6  87935967.914 5  87936363.926 5        43.000          40.200          33.200          32.500
S27  39189057.609 5  39189052.902 6 205939889.887 5                        30.800          38.700
S36  38330791.703 7  38330780.586 7 201429670.352 7 150418215.238 7        42.100          42.600
> 2019 03 21 12 06 30.0000000  0 44
C05  39421404.836 6  39421396.160 6  39421400.621 6 205277598.333 6 166804827.306 6 158733643.806 6        36.300          40.100          39.800
C08  39014468.102 6  39014454.844 6  39014461.777 6 203158568.434 6 165083006.660 6 157095095.816 6        40.300          41.900          41.600
C10  40758085.484 6  40758073.324 5  40758082.184 5 212238037.100 6 172460748.667 5 164115906.183 5        37.100          32.800          34.300
C13  39231006.992 6  39231000.129 6  39231008.930 6 204286148.472 6 165999200.346 6 157967014.491 6        41.600          41.900          40.300
C14  24739321.734 6  24739310.090 7  24739318.320 7 128824142.141 6 104680169.209 7  99614979.699 7        41.300          43.900          42.600
C21  25255017.578 7  25255006.734 7                 131509502.693 7 106862194.067 7                        43.000          43.600
C26  24073528.305 7  24073521.082 7                 125357179.532 7 101862946.614 7                        44.300          45.100
C29  23067381.578 8  23067372.895 7                 120117908.479 8  97605603.605 7                        48.600          46.500
C30  23699289.414 7  23699283.637 7                 123408417.351 7 100279423.368 7                        47.400          45.500
E02  27797847.617 6  27797852.613 6  27797842.996 7  27797851.902 6  27797852.938 7 146078680.278 6 109084747.593 6 118570332.018 7 111930431.115 6 110507593.960 7        39.600          40.400          43.200          41.100          43.600
E03  25167716.039 7  25167719.813 7  25167708.813 8  25167719.297 7  25167720.176 8 132257238.709 7  98763535.650 7 107351621.603 8 101339975.318 7 100051758.589 8        47.400          46.300          49.300          45.600          48.600
E05  26371842.641 7  26371848.148 7  26371835.711 7  26371847.922 7  26371848.656 7 138584966.187 7 103488791.791 7 112487762.525 7 106188498.091 7 104838647.537 7        44.200          44.400          46.900          44.400          47.200
E12  23812987.484 7  23812988.406 7  23812977.785 7  23812988.059 7  23812988.844 7 125138090.069 7  93447275.396 7 101573084.182 7  95885030.112 7  94666152.859 7        42.500          43.900          45.600          42.700          45.800
E18  29006807.039 7  29006814.105 6  29006801.949 7  29006813.270 6  29006814.305 7 152431795.770 7 113828968.338 6 123727085.212 7 116798414.235 6 115313694.891 7        42.700          40.400          42.200          40.400          43.500
E24  22058014.398 8  22058028.738 8  22058000.266 8  22058028.063 8  22058029.117 8 115915646.130 8  86560441.311 8  94087313.547 8  88818536.356 8  87689491.435 8        50.800          49.900          53.600          49.000          52.500
E25  23315563.508 8  23315566.836 8  23315555.430 8  23315566.418 8  23315567.313 8 122524112.460 8  91495291.685 8  99451353.934 8  93882123.953 8  92688710.423 8        50.400          49.600          53.800          49.000          52.300
G01  25489121.523 5                  25489131.055 6  25489129.965 6                                 104373703.61416 100024799.23816        33.300                          36.000          41.300
G06  24858991.484 6  24858999.371 3  24858999.809 6  24859000.688 7 130634871.516 6 101793451.392 3 101793415.403 6  97552022.135 7        36.700          20.600          39.600          43.400
G10  24595202.023 6  24595209.383 3  24595208.883 6  24595207.207 7 129248652.933 6 100713265.815 3 100713267.829 6  96516874.299 7        38.800          22.000          39.500          42.200
G12  21287109.813 8  21287113.770 6  21287113.809 7                 111864517.476 8  87167172.711 6  87167173.722 7                        50.200          37.200          43.600
G13  24225740.625 6  24225746.664 3                                 127307123.904 6  99200376.869 3                                        39.700          22.000
G15  22722138.211 7  22722142.945 5  22722143.461 7                 119405639.295 7  93043373.469 5  93043375.463 7                        47.100          32.800          42.400
G17  22492919.422 8  22492923.090 5  22492923.500 7                 118201084.912 8  92104758.215 5  92104759.218 7                        48.000          34.600          42.700
G19  21056718.750 8  21056720.738 6                                 110653802.916 8  86223750.449 6                                        48.200          37.700
G20  25327554.531 5                                                 133097162.245 5                                                        32.000
G24  20206192.281 8  20206198.523 7  20206198.645 8  20206199.039 9 106184257.125 8  82741004.017 7  82741006.022 8  79293464.257 9        51.000          44.100          48.700          55.300
G25  24591419.531 6  24591428.012 3  24591427.969 6  24591428.578 7 129228814.916 6 100697792.169 3 100697755.158 6  96502014.751 7        38.000          22.200          38.800          43.600
G28  25358125.336 6  25358130.305 2                                 133257845.199 6 103837307.133 2                                        39.100          13.900
G32  25288318.625 6  25288324.477 3  25288324.789 6  25288323.270 6 132891024.747 6 103551458.721 3 103551426.754 6  99236794.093 6        36.800          20.900          38.800          40.900
I02  37560291.359 6 147394646.362 6        40.400
I03  40902993.477 6 160512133.150 6        39.000
I06  38227111.445 6 150011428.581 6        39.900
R04  22020287.367 7  22020287.117 6  22020290.973 7  22020290.621 7 117917634.756 7 117917631.777 6  91713713.924 7  91713528.933 7        44.200          41.700          43.200          42.600
R05  21266705.703 7  21266705.688 7  21266708.402 7  21266708.625 7 113682727.412 7 113682973.427 7  88420086.878 7  88420002.874 7        47.200          44.200          44.000          43.400
R06  23746544.570 6  23746542.090 6                                 126716114.756 6 126716123.772 6                                        38.300          36.100
R13  21802302.070 6  21802301.148 6  21802304.668 6  21802305.219 6 116423078.136 6 116423073.139 6  90551278.387 6  90551153.398 6        39.900          38.400          37.700          37.600
R14  19472382.516 8  19472381.316 7  19472385.523 7  19472385.184 7 103798750.850 8 103798753.837 7  80732363.918 7  80732455.922 7        50.200          45.600          46.000          45.800
R15  21377885.148 7  21377884.984 7  21377887.902 7  21377888.004 7 114236933.516 7 114236933.536 7  88850949.252 7  88851292.233 7        46.400          43.300          43.000          44.000
R17  23876039.484 6  23876038.563 6  23876044.820 6  23876044.625 6 127765523.620 6 127765519.618 6  99373179.435 6  99373191.444 6        38.600          36.600          39.000          37.800
R22  24218503.195 6  24218502.438 6  24218505.883 5  24218506.480 5 129280012.334 6 129279995.341 6 100551121.614 5 100551103.602 5        41.600          39.700          33.900          32.800
R23  20782056.367 8  20782055.246 7  20782060.590 6  20782061.137 6 111169988.510 8 111169983.515 7  86465543.339 6  86465631.350 6        48.600          44.500          40.600          38.900
R24  21125235.484 7  21125235.773 6  21125240.168 5  21125237.621 5 112966137.507 7 112966129.508 6  87862544.287 5  87862938.303 5        42.300          40.000          33.300          33.000
S28  40854936.703 5  40854920.836 6 214694120.881 5                        31.200          36.300
S36  38330799.078 6  38330791.105 7 201429701.650 6 150418310.058 7        41.700          42.600
> 2019 03 21 12 07 00.0000000  0 47
C05  39421077.836 6  39421069.137 6  39421073.609 6 205275894.057 6 166803442.432 6 158732325.944 6        36.400          40.700          39.600
C08  39009075.945 6  39009062.363 7  39009069.734 6 203130489.215 6 165060190.015 7 157073383.204 6        40.900          42.600          41.000
C10  40762587.344 6  40762575.531 5  40762584.531 5 212261481.201 6 172479798.918 5 164134034.640 5        36.500          33.800          34.900
C13  39221690.313 6  39221683.375 6  39221691.836 6 204237633.641 6 165959778.110 6 157929499.795 6        41.300          41.800          39.800
C14  24743641.148 6  24743629.281 7  24743637.402 7 128846632.583 6 104698444.531 7  99632370.730 7        41.800          43.600          42.600
C21  25270826.227 7  25270815.141 7                 131591819.042 7 106929082.812 7                        43.400          42.800
C26  24058999.141 7  24058991.867 7                 125281522.119 7 101801468.801 7                        44.700          44.600
C29  23055712.102 8  23055703.625 7                 120057143.022 8  97556226.731 7                        48.800          46.000
C30  23705682.305 7  23705676.629 7                 123441707.356 7 100306474.231 7                        46.600          44.800
E02  27783902.797 6  27783907.762 6  27783897.898 7  27783907.035 6  27783908.039 7 146005399.763 6 109030025.204 6 118510851.132 7 111874281.188 6 110452157.797 7        39.500          39.700          42.900          41.100          43.100
E03  25172977.227 7  25172981.074 7  25172970.039 8  25172980.434 7  25172981.477 8 132284887.004 7  98784182.074 7 107374063.399 8 101361160.363 7 100072674.324 8        47.800          46.300          49.300          45.700          49.000
E05  26388658.289 7  26388663.395 7  26388650.836 7  26388662.789 7  26388663.734 7 138673329.798 7 103554777.548 7 112559486.200 7 106256205.216 7 104905493.984 7        44.100          44.000          47.000          44.500          46.900
E12  23804456.055 6  23804457.004 7  23804446.410 7  23804456.707 7  23804457.445 7 125093257.334 6  93413796.471 7 101536694.011 7  95850677.816 7  94632237.248 7        41.900          43.200          45.500          42.900          45.900
E18  28974107.367 7  28974114.406 6  28974102.363 7  28974113.359 6  28974114.555 7 152259958.027 7 113700647.984 6 123587606.553 7 116666746.366 6 115183700.781 7        42.700          41.600          43.600          41.000          44.300
E24  22064999.414 8  22065013.238 8  22064984.797 8  22065012.805 8  22065013.762 8 115952350.664 8  86587850.549 8  94117106.188 8  88846660.618 8  87717258.189 8        50.600          49.800          53.700          49.200          52.500
E25  23309211.633 8  23309214.980 8  23309203.508 8  23309214.590 8  23309215.398 8 122490732.944 8  91470365.422 8  99424260.183 8  93856547.441 8  92663459.034 8        50.300          49.700          53.800          49.400          52.400
E31  27659325.883 6  27659331.715 6  27659318.949 6  27659331.352 6  27659332.195 6 145350738.891 6 108541135.990 6 117979462.413 6 111372644.020 6 109956890.112 6        40.900          37.900          39.200          38.100          41.200
E33  26701340.047 6  26701342.633 7  26701333.723 7  26701342.523 7  26701343.297 7 140316487.995 6 104781792.846 7 113893220.411 7 107515229.788 7 106148511.925 7        41.800          42.300          44.600          42.400          45.300
G01  25498874.500 5  25498886.234 2                  25498882.418 6                                                 100063070.009 6        32.900          14.800                          39.000
G06  24841872.922 6  24841883.281 3  24841883.441 6  24841884.125 7 130544924.946 6 101723363.221 3 101723327.193 6  97484854.279 7        37.000          20.100          38.300          43.600
G10  24603659.500 6  24603666.375 3  24603665.992 6  24603664.898 7 129293095.743 6 100747896.532 3 100747898.565 6  96550062.071 7        38.300          21.800          39.800          42.700
G12  21273570.219 8  21273574.301 6  21273574.418 7                 111793366.409 8  87111730.356 6  87111731.345 7                        49.900          37.300          43.500
G13  24248038.250 6  24248044.047 3                                 127424296.905 6  99291680.410 3                                        39.700          21.100
G15  22740419.188 7  22740423.641 5  22740423.641 7                 119501704.347 7  93118229.319 5  93118231.308 7                        47.300          33.100          42.000
G17  22503719.250 8  22503723.109 5  22503723.328 7                 118257839.155 8  92148982.309 5  92148983.312 7                        49.100          34.400          42.500
G19  21057331.453 7  21057333.641 6                                 110657024.597 7  86226260.878 6                                        47.500          38.100
G20  25342118.516 5                                                                                                                        32.800
G24  20203946.258 8  20203952.461 7  20203952.805 8  20203952.906 9 106172453.863 8  82731806.678 7  82731808.675 8  79284650.128 9        51.400          43.900          49.300          55.400
G25  24571746.469 6  24571755.520 3  24571756.102 6  24571756.375 7 129125437.139 6 100617238.175 3 100617201.131 6  96424817.189 7        37.400          22.300          38.100          43.800
G28  25375370.422 6  25375376.051 2                                 133348467.760 6 103907922.238 2                                        38.300          14.800
G32  25269180.492 6  25269187.816 3  25269187.543 6  25269186.516 6 132790458.061 6 103473095.132 3 103473063.182 6  99161695.679 6        36.100          20.600          38.900          41.500
I02  37562947.461 6 147405070.245 6        40.000
I03  40903124.758 6 160512647.186 6        38.400
I06  38227526.383 6 150013057.025 6        39.800
R04  22040862.992 7  22040862.813 6  22040866.137 7  22040866.250 7 118027816.308 7 118027813.321 6  91799410.643 7  91799225.649 7        44.800          41.400          43.200          42.700
R05  21269312.031 7  21269311.727 7  21269315.012 7  21269314.148 7 113696656.466 7 113696902.488 7  88430920.584 7  88430836.579 7        47.600          43.800          43.300          43.200
R06  23728972.742 6  23728971.879 5                                 126622352.097 6 126622361.109 5                                        36.700          35.700
R13  21818438.398 6  21818436.906 6  21818441.570 6  21818440.902 6 116509242.098 6 116509237.097 6  90618294.776 6  90618169.787 6        40.300          37.700          38.600          38.100
R14  19473270.789 8  19473270.109 7  19473274.113 7  19473273.730 7 103803487.236 8 103803490.233 7  80736047.786 7  80736139.789 7        50.500          46.200          45.800          45.300
R15  21362601.227 7  21362601.207 7  21362603.762 7  21362603.941 7 114155260.488 7 114155260.492 7  88787425.812 7  88787768.802 7        46.600          43.000          43.200          42.700
R17  23850250.844 6  23850249.766 6  23850255.680 6  23850255.867 6 127627523.246 6 127627519.266 6  99265845.925 6  99265857.946 6        38.600          36.700          37.900          37.400
R22  24240396.930 7  24240395.266 6                  24240398.871 4 129396877.983 7 129396860.973 6                 100641999.056 4        43.200          40.400                          28.100
R23  20784835.945 8  20784835.371 7  20784840.215 6  20784841.418 6 111184860.849 8 111184855.860 7  86477110.740 6  86477198.743 6        48.700          44.100          40.400          39.200
R24  21107692.875 7  21107691.848 6                  21107694.133 5 112872323.009 7 112872315.025 6                  87789971.524 5        42.100          39.500                          32.200
S27  39189161.641 5  39189158.641 6 205940440.368 5                        32.200          38.000
S28  40854949.328 5  40854933.445 6 214694184.35815                        31.300          37.100
S36  38330805.719 6  38330793.715 6 201429736.966 6 150418338.737 6        41.100          41.800
> 2019 03 21 12 07 30.0000000  0 49
C05  39420751.000 6  39420741.496 6  39420746.316 6 205274189.701 6 166802057.490 6 158731008.007 6        36.200          40.800          39.800
C08  39003720.156 6  39003706.203 7  39003713.336 6 203102598.539 6 165037526.566 7 157051816.363 6        40.800          42.700          41.400
C10  40767087.391 6  40767076.359 5  40767085.148 5 212284914.783 6 172498840.597 5 164152154.943 5        37.400          34.400          34.700
C13  39212400.180 6  39212393.121 6  39212401.680 6 204189256.680 6 165920467.898 6 157892091.695 6        41.800          41.800          40.100
C14  24748050.336 6  24748038.992 7  24748047.105 7 128869594.593 6 104717103.026 7  99650126.396 7        41.800          44.000          43.100
C21  25286668.805 7  25286657.594 7                 131674315.947 7 106996118.248 7                        43.300          43.500
C26  24044491.250 7  24044483.629 7                 125205974.121 7 101740079.869 7                        44.700          45.500
C29  23044122.258 8  23044113.621 7                 119996791.940 8  97507186.557 7                        48.700          47.400
C30  23712169.211 7  23712163.480 7                 123475486.847 7 100333922.824 7                        46.900          45.800
E02  27769965.961 6  27769970.621 6  27769960.813 7  27769969.938 7  27769970.980 7 145932159.552 6 108975332.916 6 118451402.955 7 111818162.135 7 110396752.134 7        39.600          41.700          43.400          42.100          45.100
E03  25178318.023 7  25178321.809 7  25178310.910 8  25178321.348 7  25178322.297 8 132312953.187 7  98805140.567 7 107396844.371 8 101382665.601 7 100093906.193 8        47.600          46.200          49.300          46.700          49.100
E05  26405497.875 7  26405503.449 7  26405490.820 7  26405502.809 7  26405503.820 7 138761824.855 7 103620861.446 7 112631316.555 7 106324013.071 7 104972439.862 7        44.100          44.500          46.800          44.700          47.500
E08  25127813.398 6  25127815.996 6  25127808.000 7  25127815.691 6  25127816.355 7 132047548.674 6  98606935.534 6 107181425.032 7 101179289.224 6  99893111.984 7        41.500          41.700          42.900          41.900          44.400
E11  25591222.008 6  25591224.430 6  25591213.582 6  25591223.637 6  25591224.609 6 134482777.720 6 100425458.504 6 109158062.701 6 103045251.676 6 101735357.696 6        38.000          37.900          41.000          38.800          41.600
E12  23795998.406 7  23795999.539 7  23795989.004 7  23795999.336 7  23796000.023 7 125048813.579 7  93380607.987 7 101500619.555 7  95816623.544 7  94598615.867 7        42.300          43.100          45.800          43.100          46.200
E18  28941344.172 6  28941351.664 6  28941339.453 7  28941350.563 6  28941351.785 7 152087788.340 6 113572079.789 6 123447858.474 7 116534824.237 6 115053455.617 7        41.100          41.200          43.400          41.200          44.400
E24  22072015.031 8  22072029.164 8  22072000.668 8  22072028.520 8  22072029.559 8 115989218.958 8  86615382.059 8  94147031.739 8  88874910.341 8  87745148.808 8        51.000          49.800          53.600          49.500          52.400
E25  23302893.305 8  23302896.766 8  23302885.406 8  23302896.305 8  23302897.238 8 122457530.952 8  91445571.734 8  99397310.509 8  93831106.956 8  92638341.951 8        50.000          49.900          53.800          49.700          52.700
E31  27673384.742 6  27673390.719 6  27673377.625 6  27673390.320 6  27673391.289 6 145424619.558 6 108596306.543 6 118039430.460 6 111429253.838 6 110012780.301 6        41.600          38.500          38.400          38.100          41.400
E33  26707583.164 7  26707586.180 7  26707576.727 7  26707585.441 7  26707586.230 7 140349294.916 7 104806291.530 7 113919849.405 7 107540367.544 7 106173330.142 7        43.000          42.600          44.300          42.600          45.900
G01  25508723.945 5  25508733.961 2  25508731.402 5  25508730.934 6 134049181.412 5 104454005.643 2 104453969.634 5 100101718.970 6        33.600          15.600          33.500          39.000
G06  24824779.992 6  24824788.691 3  24824789.285 6  24824790.051 7 130455093.326 6 101653364.564 3 101653328.590 6  97417772.275 7        38.600          21.100          38.800          43.600
G10  24612200.547 6  24612208.434 3  24612208.238 6  24612207.617 7 129337984.473 6 100782874.712 3 100782876.717 6  96583582.800 7        36.400          21.500          39.000          42.000
G12  21260096.938 8  21260100.535 6  21260100.730 7                 111722563.200 8  87056559.039 6  87056560.028 7                        50.400          37.600          44.000
G13  24270352.375 6  24270357.496 3                                 127541555.501 6  99383050.628 3                                        39.700          21.300
G15  22758750.430 7  22758755.168 5  22758755.273 7                 119598038.403 7  93193294.768 5  93193296.764 7                        45.800          31.800          42.000
G17  22514605.148 8  22514609.309 5  22514609.477 7                 118315046.532 8  92193559.481 5  92193560.471 7                        48.100          34.600          42.900
G19  21058073.305 7  21058075.250 6                                 110660921.482 7  86229297.414 6                                        47.300          37.900
G20  25356713.711 5  25356719.613 2                                                                                                        32.300          15.600
G24  20201785.211 8  20201791.441 7  20201791.305 8  20201791.797 9 106161097.036 8  82722957.184 7  82722959.195 8  79276169.382 9        52.100          44.400          49.200          55.400
G25  24552097.883 6  24552106.637 3  24552106.551 6  24552107.027 7 129022180.295 6 100536778.343 3 100536741.342 6  96347709.902 7        37.400          23.000          39.200          43.600
G28  25392608.680 6  25392614.129 2                                 133439057.108 6 103978511.318 2                                        37.800          13.900
G32  25250084.008 6  25250090.988 3  25250091.246 6  25250089.438 7 132690104.408 6 103394897.462 3 103394865.515 6  99086756.232 7        36.400          21.500          40.000          42.100
I02  37565609.063 6 147415516.277 6        39.800
I03  40903255.375 6 160513158.139 6        38.800
I06  38227942.945 6 150014689.889 6        40.100
R04  22061511.805 7  22061510.715 7  22061514.801 7  22061514.563 7 118138386.763 7 118138383.776 7  91885409.823 7  91885224.834 7        44.100          42.200          43.200          43.400
R05  21272071.211 7  21272071.242 7  21272074.633 7  21272074.266 7 113711409.656 7 113711655.664 7  88442395.277 7  88442311.280 7        47.500          44.400          44.300          44.300
R06  23711496.844 6  23711496.332 5                                 126529100.940 6 126529109.881 5                                        36.900          35.900
R13  21834609.852 6  21834608.816 6  21834612.371 6  21834612.922 6 116595599.739 6 116595594.751 6  90685461.804 6  90685336.806 6        40.500          38.700          38.400          38.200
R14  19474231.273 8  19474230.875 7  19474234.926 7  19474234.418 7 103808608.678 8 103808611.688 7  80740031.137 7  80740123.121 7        50.500          46.700          47.200          46.300
R15  21347352.328 7  21347352.336 7  21347354.730 7  21347355.258 7 114073776.904 7 114073776.909 7  88724049.708 7  88724392.695 7        46.100          44.400          43.700          43.300
R17  23824462.953 6  23824461.191 6  23824466.688 6  23824466.945 6 127489521.598 6 127489517.596 6  99158511.409 6  99158523.408 6        39.100          37.900          38.100          37.600
R22  24262353.000 7  24262351.488 6                                 129514084.014 7 129514067.017 6                                        42.300          40.600
R23  20787775.906 8  20787774.688 7  20787779.547 6  20787780.836 6 111200585.008 8 111200580.028 7  86489340.669 6  86489428.651 6        48.300          45.400          40.400          39.400
R24  21090259.398 6  21090259.160 6  21090262.504 5  21090261.316 5 112779103.221 6 112779095.238 6  87717074.276 5  87717467.279 5        41.900          40.700          33.200          32.600
S27  39189215.563 5  39189211.102 6 205940716.019 5                        31.300          39.000
S28  40854962.656 5  40854946.191 6 214694250.779 5                        32.200          37.800
S36  38330812.109 6  38330800.395 7 201429772.017 6 150418365.806 7        41.400          42.900
> 2019 03 21 12 08 00.0000000  0 48
C05  39420422.531 6  39420413.863 6  39420419.176 6 205272484.648 6 166800671.967 6 158729689.523 6        36.400          40.600          39.800
C08  38998399.609 6  38998386.148 6  38998393.938 6 203074895.955 6 165015015.963 6 157030394.991 6        40.200          41.400          41.300
C10  40771585.023 6  40771573.973 5  40771583.094 5 212308337.496 6 172517873.455 5 164170266.834 5        37.100          33.300          34.900
C13  39203135.828 6  39203129.078 6  39203137.934 6 204141017.298 6 165881269.487 6 157854789.991 6        41.800          41.100          39.900
C14  24752550.570 6  24752538.836 7  24752547.363 7 128893026.522 6 104736143.387 7  99668245.445 7        41.900          43.400          42.300
C21  25302545.516 7  25302534.570 7                 131756990.269 7 107063297.870 7                        43.300          42.200
C26  24030003.961 7  24029996.453 7                 125130535.711 7 101678780.017 7                        44.600          44.000
C29  23032612.094 8  23032603.664 7                 119936856.375 8  97458484.037 7                        48.600          45.700
C30  23718749.922 7  23718744.211 7                 123509754.125 7 100361767.811 7                        47.100          44.400
E02  27756036.320 6  27756041.168 6  27756031.195 7  27756040.313 6  27756041.219 7 145858959.128 6 108920670.325 6 118391987.091 7 111762073.555 6 110341376.538 7        39.100          40.900          43.500          41.200          44.000
E03  25183738.141 7  25183742.012 7  25183731.000 8  25183741.211 7  25183742.383 8 132341435.744 7  98826410.012 7 107419963.323 8 101404489.895 7 100115453.060 8        47.900          45.900          49.300          45.200          48.600
E05  26422362.688 7  26422368.246 7  26422355.660 7  26422367.434 7  26422368.465 7 138850448.835 7 103687041.647 7 112703251.566 7 106391919.707 7 105039483.280 7        43.800          43.800          46.700          43.400          46.400
E08  25118493.820 7  25118496.266 6  25118488.727 7  25118496.008 7  25118496.613 7 131998572.809 7  98570362.681 6 107141671.937 7 101141762.284 7  99856062.081 7        42.800          40.600          43.400          42.000          44.000
E11  25573448.281 5  25573450.168 6                  25573449.410 6  25573450.609 6 134389375.288 5 100355710.011 6                 102973683.677 6 101664699.446 6        34.200          38.300                          38.500          40.900
E12  23787615.352 7  23787616.320 7  23787605.676 7  23787616.094 7  23787616.781 7 125004759.483 7  93347710.465 7 101464861.389 7  95782867.841 7  94565289.255 7        42.100          42.900          45.700          42.900          45.300
E18  28908518.859 7  28908525.887 6  28908513.988 7  28908525.020 6  28908525.930 7 151915287.700 7 113443264.377 6 123307841.750 7 116402648.413 6 114922960.003 7        42.300          40.800          43.200          41.000          44.000
E24  22079062.125 8  22079075.969 8  22079047.266 8  22079074.961 8  22079076.336 8 116026250.032 8  86643035.133 8  94177089.435 8  88903284.803 8  87773162.571 8        51.000          49.800          53.500          49.000          52.500
E25  23296608.891 8  23296612.492 8  23296600.711 8  23296611.535 8  23296612.762 8 122424505.947 8  91420910.213 8  99370504.510 8  93805802.084 8  92613358.756 8        50.100          49.700          53.800          49.000          52.400
E31  27687446.203 6  27687452.141 6  27687439.324 6  27687451.289 6  27687452.527 6 145498511.742 6 108651485.747 6 118099407.853 6 111485872.509 6 110068679.224 6        41.500          38.600          38.800          38.900          41.600
E33  26713906.305 7  26713908.855 7  26713900.129 7  26713908.598 7  26713909.320 7 140382522.741 7 104831104.482 7 113946820.027 7 107565827.804 7 106198466.755 7        42.300          42.100          44.700          42.100          44.600
G01  25518669.180 5  25518677.465 3  25518676.598 5  25518676.102 6 134101441.338 5 104494727.714 3 104494691.704 5 100140744.221 6        33.400          18.300          35.700          40.900
G06  24807708.461 6  24807716.277 3  24807716.559 6  24807718.035 7 130365378.972 6 101583457.295 3 101583421.337 6  97350777.830 7        38.800          22.300          37.800          42.900
G10  24620827.523 6  24620834.563 3  24620834.301 6  24620833.055 6 129383316.200 6 100818198.110 3 100818200.135 6  96617434.380 6        38.300          22.000          38.800          41.500
G12  21246689.930 8  21246693.496 6  21246693.410 7                 111652107.866 8  87001658.810 6  87001659.814 7                        50.900          37.300          43.600
G13  24292681.586 6  24292687.059 3                                 127658896.624 6  99474485.210 3                                        39.700          19.600
G15  22777132.961 7  22777137.520 5  22777138.008 6                 119694638.330 7  93268567.397 5  93268569.398 6                        47.400          32.800          41.400
G17  22525577.461 8  22525581.313 5  22525581.289 7                 118372704.770 8  92238487.984 5  92238488.987 7                        48.400          34.000          42.700
G19  21058943.477 7  21058945.039 6                                 110665492.822 7  86232859.511 6                                        47.800          38.100
G24  20199709.250 8  20199715.203 7  20199715.176 8  20199715.520 9 106150186.211 8  82714455.248 7  82714457.252 8  79268021.686 9        51.700          44.000          49.100          55.400
G25  24532471.180 6  24532480.016 3  24532480.605 6  24532480.945 7 128919044.599 6 100456412.955 3 100456376.003 6  96270693.094 7        37.600          21.800          37.800          43.300
G28  25409841.516 5                                                 133529611.639 5                                                        35.300
G32  25231028.633 5  25231034.871 3  25231034.895 6  25231033.578 7 132589965.558 5 103316867.217 3 103316835.271 6  99011977.273 7        35.300          18.300          38.700          42.100
I02  37568277.227 6 147425983.020 6        40.100
I03  40903383.906 6 160513665.425 6        39.100
I06  38228359.727 6 150016326.706 6        40.500
R04  22082230.109 7  22082230.211 6  22082235.441 7  22082234.398 7 118249340.735 7 118249337.742 6  91971707.306 7  91971522.312 7        44.100          41.100          42.700          42.300
R05  21274987.078 7  21274984.902 7  21274987.984 7  21274987.969 7 113726985.491 7 113727231.491 7  88454509.811 7  88454425.807 7        47.100          43.000          43.100          42.400
R06  23694117.367 6  23694117.172 6                                 126436364.301 6 126436373.268 6                                        37.300          36.100
R13  21850818.883 6  21850816.762 6  21850821.305 6  21850820.852 6 116682149.399 6 116682144.415 6  90752778.180 6  90752653.175 6        40.600          38.100          38.300          38.000
R14  19475264.563 8  19475263.809 7  19475267.516 7  19475267.328 7 103814114.778 8 103814117.773 7  80744313.645 7  80744405.654 7        50.900          45.500          45.500          44.700
R15  21332139.695 7  21332139.113 7  21332141.691 7  21332142.391 7 113992482.970 7 113992482.997 7  88660821.124 7  88661164.121 7        46.400          42.600          42.500          42.100
R17  23798673.648 6  23798672.141 6  23798676.520 6  23798678.277 6 127351521.789 6 127351517.805 6  99051178.287 6  99051190.295 6        39.900          38.100          37.300          36.500
R22  24284372.766 6  24284371.141 6                  24284376.672 4 129631625.576 6 129631608.563 6                 100824617.820 4        40.300          38.200                          24.300
R23  20790874.164 8  20790872.848 7  20790877.656 6  20790879.223 6 111217159.940 8 111217154.951 7  86502232.276 6  86502320.280 6        48.600          43.800          39.400          38.300
R24  21072939.305 7  21072938.395 6                  21072940.699 5 112686481.741 7 112686473.749 6                  87645428.407 5        42.900          40.100                          32.400
S27  39189268.266 5  39189263.762 6 205940992.198 5                        30.500          37.700
S28  40854974.719 5  40854958.773 6 214694317.256 5                        31.600          37.100
S36  38330818.938 6  38330807.398 6 201429805.768 6 150418386.012 6        40.900          41.600
> 2019 03 21 12 08 30.0000000  0 48
C05  39420095.109 6  39420086.906 6  39420091.023 6 205270779.571 6 166799286.458 6 158728371.054 6        36.200          39.900          39.400
C08  38993116.219 6  38993102.602 6  38993110.211 6 203047382.443 6 164992659.001 6 157009119.829 6        40.500          41.900          40.900
C10  40776082.211 6  40776070.020 5  40776079.477 5 212331749.997 6 172536898.025 5 164188370.872 5        36.800          33.800          34.800
C13  39193898.750 7  39193891.840 6  39193900.492 6 204092916.604 7 165842183.779 6 157817595.533 6        42.500          41.400          40.500
C14  24757140.734 7  24757128.750 7  24757136.754 7 128916927.841 7 104755565.148 7  99686727.444 7        42.200          43.600          42.200
C21  25318456.094 7  25318445.129 7                 131839840.008 7 107130620.035 7                        43.700          42.600
C26  24015538.211 7  24015530.598 7                 125055208.264 7 101617570.318 7                        44.900          44.000
C29  23021182.711 8  23021174.039 7                 119877338.673 8  97410121.063 7                        48.500          45.500
C30  23725424.234 7  23725418.520 7                 123544508.614 7 100390008.680 7                        46.800          44.000
E02  27742114.813 6  27742118.883 6                  27742118.480 6  27742119.383 7 145785800.339 6 108866038.076 6                 111706016.112 6 110286031.692 7        37.200          39.800                          41.300          43.200
E03  25189237.648 7  25189240.984 7  25189230.094 8  25189241.270 7  25189241.707 8 132370334.735 7  98847990.402 7 107443420.282 8 101426633.257 7 100137314.930 8        46.800          45.900          49.200          45.000          48.500
E05  26439252.063 7  26439256.871 7  26439244.426 7  26439257.082 7  26439257.438 7 138939200.478 7 103753317.162 7 112775290.193 7 106459924.159 7 105106623.260 7        44.600          43.600          46.700          43.300          46.300
E08  25109242.852 7  25109245.152 6  25109237.766 7  25109244.918 6  25109245.750 7 131949959.043 7  98534060.200 6 107102212.725 7 101104512.792 6  99819286.093 7        42.700          41.600          43.600          41.200          44.100
E11  25555684.078 5  25555685.910 6                  25555685.566 6  25555686.352 6 134296024.863 5 100285999.675 6                 102902154.769 6 101594079.820 6        35.700          38.300                          38.000          41.000
E12  23779306.555 7  23779307.648 7  23779296.965 7  23779307.449 7  23779308.066 7 124961096.936 7  93315105.360 7 101429421.033 7  95749412.140 7  94532258.858 7        42.100          42.700          45.400          42.400          45.400
E18  28875629.992 6  28875637.016 6  28875625.086 7  28875636.320 6  28875637.363 7 151742458.060 6 113314203.376 6 123167558.028 7 116270220.598 6 114792215.588 7        41.500          39.900          42.200          40.800          43.100
E24  22086140.016 8  22086153.379 8  22086125.047 8  22086153.945 8  22086154.207 8 116063444.190 8  86670809.970 8  94207279.493 8  88931784.210 8  87801299.693 8        50.600          49.800          53.600          49.000          52.500
E25  23290358.539 8  23290361.375 8  23290350.047 8  23290362.008 8  23290362.156 8 122391658.563 8  91396381.327 8  99343842.677 8  93780633.325 8  92588509.930 8        50.100          49.600          53.800          49.000          52.400
E31  27701510.063 6  27701515.613 6  27701502.871 6  27701515.027 6  27701516.160 6 145572415.895 6 108706673.873 6 118159394.964 6 111542500.335 6 110124587.208 6        40.800          38.600          38.100          38.200          41.500
E33  26720309.555 7  26720311.805 6  26720302.805 7  26720311.543 7  26720312.367 7 140416171.067 7 104856231.487 6 113974131.977 7 107591610.285 7 106223921.487 7        42.400          41.900          44.100          42.200          44.800
G01  25528710.656 5  25528718.414 2  25528717.398 5  25528716.215 6 134154203.893 5 104535841.402 2 104535805.399 5 100180144.892 6        35.000          17.800          35.300          39.800
G06  24790659.414 6  24790667.504 3  24790668.164 6  24790668.641 7 130275785.959 6 101513644.585 3 101513608.606 6  97283873.977 7        39.000          21.100          37.300          42.000
G10  24629538.008 6  24629545.508 3  24629545.238 6  24629543.215 6 129429089.492 6 100853865.574 3 100853867.571 6  96651615.708 6        38.600          21.700          39.000          41.500
G12  21233348.945 8  21233352.852 6  21233352.941 7                 111582002.354 8  86947031.169 6  86947032.180 7                        50.500          37.500          43.100
G13  24315026.211 6  24315031.699 3                                 127776318.534 6  99565982.707 3                                        39.000          19.900
G15  22795565.758 7  22795570.254 5  22795570.152 6                 119791501.875 7  93344045.447 5  93344047.454 6                        46.600          32.200          41.600
G17  22536635.070 7  22536638.793 5  22536638.875 7                 118430812.473 7  92283766.712 5  92283767.712 7                        47.500          34.600          42.600
G19  21059941.539 8  21059943.332 6                                 110670738.854 8  86236947.345 6                                        48.000          37.900
G20  25386003.484 5  25386008.152 2                                 133404313.585 5 103951455.029 2                                        31.000          15.600
G24  20197718.016 8  20197724.117 7  20197724.156 8  20197724.570 9 106139723.564 8  82706302.545 7  82706304.535 8  79260208.672 9        51.000          44.100          48.800          55.400
G25  24512869.172 6  24512877.238 3  24512877.219 6  24512878.383 7 128816031.984 6 100376143.462 3 100376106.480 6  96193768.170 7        38.100          20.900          37.700          43.600
G28  25427066.953 5                                                 133620131.575 5                                                        35.000
I02  37570949.398 6 147436470.514 6        39.800
I03  40903512.711 6 160514169.677 6        38.600
I06  38228778.086 6 150017967.993 6        40.100
R04  22103021.906 7  22103021.531 6  22103025.379 7  22103025.180 6 118360674.551 7 118360671.564 6  92058300.220 7  92058115.224 6        44.100          41.000          42.200          41.700
R05  21278052.836 7  21278052.504 7  21278055.820 7  21278055.398 7 113743383.287 7 113743629.294 7  88467263.643 7  88467179.647 7        47.900          43.300          42.400          43.000
R06  23676838.813 6  23676835.504 5                                 126344146.311 6 126344155.329 5                                        37.100          35.100
R13  21867063.008 6  21867060.875 6  21867064.336 6  21867064.977 6 116768890.776 6 116768885.773 6  90820243.654 6  90820118.664 6        41.000          37.900          37.900          37.500
R14  19476369.875 8  19476369.059 7  19476372.414 7  19476372.551 7 103820006.271 8 103820009.281 7  80748895.936 7  80748987.926 7        50.100          45.500          45.100          44.600
R15  21316962.016 7  21316962.707 7  21316964.672 7  21316965.180 7 113911380.449 7 113911380.460 7  88597741.400 7  88598084.396 7        47.200          42.200          42.700          42.400
R17  23772886.125 6  23772885.004 6  23772890.387 6  23772890.820 6 127213528.594 6 127213524.591 6  98943850.315 6  98943862.297 6        40.800          38.300          37.300          36.300
R22  24306454.789 6  24306452.855 6                  24306457.344 5 129749499.295 6 129749482.280 6                 100916297.343 5        38.600          36.700                          31.200
R23  20794131.945 8  20794130.809 7  20794135.469 6  20794136.797 6 111234585.274 8 111234580.270 7  86515785.318 6  86515873.336 6        48.800          43.400          39.200          38.600
R24  21055731.203 7  21055730.574 6  21055731.547 5  21055732.668 5 112594462.911 7 112594454.899 6                  87573858.249 5        42.800          39.700          32.400          32.800
S27  39189319.953 5  39189316.539 6 205941268.453 5                        31.300          37.900
S28  40854988.891 5  40854971.449 6 214694384.228 5                        32.400          38.000
S36  38330826.313 6  38330814.398 6 201429849.532 6 150418413.211 6        41.100          41.300
> 2019 03 21 12 09 00.0000000  0 48
C05  39419767.484 6  39419759.422 6  39419763.770 6 205269073.639 6 166797900.252 6 158727051.914 6        36.200          39.800          39.500
C08  38987868.664 6  38987855.090 6  38987862.234 6 203020057.221 6 164970455.038 6 156987990.253 6        40.800          41.400          41.300
C10  40780575.391 6  40780564.336 5  40780573.445 5 212355151.395 6 172555913.579 5 164206466.303 5        37.000          33.200          34.800
C13  39184688.477 7  39184681.215 6  39184689.488 6 204044954.061 7 165803210.328 6 157780507.910 6        42.100          41.000          39.500
C14  24761820.602 7  24761808.668 7  24761816.906 7 128941296.709 7 104775366.829 7  99705570.979 7        42.000          43.400          42.200
C21  25334399.125 7  25334388.453 7                 131922861.907 7 107198082.094 7                        43.100          42.400
C26  24001093.008 7  24001086.004 7                 124979991.814 7 101556450.820 7                        44.900          44.100
C29  23009833.078 8  23009824.625 7                 119818239.759 8  97362098.380 7                        49.000          45.700
C30  23732191.703 7  23732185.914 7                 123579748.395 7 100418643.894 7                        46.600          44.000
E02  27728199.992 5  27728204.566 6                  27728204.203 6  27728205.145 7 145712680.37015 108811435.58016                 111649989.21616 110230717.00317        34.400          41.100                          41.800          44.600
E03  25194815.633 7  25194819.355 7  25194808.340 8  25194818.898 7  25194819.891 8 132399648.346 7  98869880.432 7 107467213.788 8 101449094.338 7 100159490.493 8        47.200          45.900          49.200          45.200          48.500
E05  26456164.406 7  26456169.590 7  26456157.250 7  26456169.273 7  26456170.137 7 139028077.095 7 103819686.014 7 112847430.272 7 106528024.372 7 105173857.803 7        44.400          44.000          46.400          43.500          46.800
E08  25100061.016 7  25100063.398 6  25100055.902 7  25100063.418 6  25100063.844 7 131901708.059 7  98498028.620 6 107063047.969 7 101067541.272 6  99782784.549 7        43.400          41.100          44.600          41.800          44.400
E11  25537929.500 5  25537931.680 6                  25537931.152 6  25537932.043 6 134202727.58715 100216328.25116                 102830665.80116 101523499.63116        34.000          38.300                          38.800          41.900
E12  23771072.602 6  23771073.480 7  23771062.930 7  23771073.121 7  23771073.945 7 124917826.538 6  93282793.067 7 101394298.970 7  95716256.937 7  94499525.111 7        41.800          42.700          45.500          42.400          45.300
E18  28842679.539 7  28842686.480 6  28842674.332 7  28842684.922 6  28842686.418 7 151569300.040 7 113184897.174 6 123027007.726 7 116137541.167 6 114661222.778 7        42.700          41.600          43.800          40.600          43.800
E24  22093248.227 8  22093262.234 8  22093233.805 8  22093262.043 8  22093262.820 8 116100800.277 8  86698705.755 8  94237600.993 8  88960407.715 8  87829559.341 8        51.200          49.900          53.500          49.200          52.600
E25  23284141.281 8  23284144.547 8  23284133.082 8  23284144.406 8  23284145.156 8 122358988.163 8  91371984.598 8  99317324.503 8  93755600.160 8  92563794.977 8        50.000          49.700          53.800          49.200          52.500
E31  27715575.688 6  27715581.227 6  27715568.137 6  27715580.676 6  27715581.738 6 145646331.115 6 108761870.232 6 118219391.059 6 111599136.608 6 110180503.515 6        40.400          38.600          37.700          38.600          41.500
E33  26726792.281 7  26726794.766 6  26726786.152 7  26726794.055 6  26726795.172 7 140450238.239 7 104881671.240 6 114001783.899 7 107617713.707 6 106249693.076 7        42.500          41.900          44.400          41.600          44.400
G01  25538846.234 5                                  25538851.008 6 134207466.375 5                                 100219918.859 6        32.200                                          38.100
G06  24773633.500 6  24773641.785 3  24773642.492 6  24773643.293 7 130186316.511 6 101443928.180 3 101443892.180 6  97217062.417 7        40.300          22.500          37.200          42.000
G10  24638332.195 6  24638339.121 3  24638338.730 6  24638337.523 6 129475301.170 6 100889874.654 3 100889876.653 6  96686124.381 6        37.500          21.100          38.700          41.300
G12  21220074.602 8  21220078.605 6  21220078.805 7                 111512245.800 8  86892675.445 6  86892676.441 7                        50.700          37.800          43.500
G13  24337386.422 6  24337390.832 3                                 127893817.804 6  99657540.503 3                                        39.400          19.600
G15  22814047.531 7  22814052.125 5  22814052.402 6                 119888625.544 7  93419726.190 5  93419728.202 6                        47.600          31.600          41.400
G17  22547777.578 7  22547781.230 5  22547781.402 7                 118489366.751 7  92329393.416 5  92329394.417 7                        47.800          34.500          42.100
G19  21061067.875 7  21061069.719 6                                 110676658.373 7  86241559.975 6                                        47.900          38.100
G24  20195812.344 8  20195818.457 7  20195818.465 8  20195818.770 9 106129708.685 8  82698498.739 7  82698500.750 8  79252730.039 9        51.600          43.900          48.800          55.400
G25  24493290.977 6  24493298.301 3  24493298.367 6  24493298.875 7 128713142.465 6 100295969.862 3 100295932.865 6  96116935.164 7        37.700          22.300          38.300          43.200
G28  25444285.969 5                                                                                                                        32.500
G32  25193038.281 5                  25193048.102 6  25193046.707 6                                 103161286.32416  98862909.51816        33.700                          37.200          41.700
I02  37573627.820 6 147446979.011 6        40.200
I03  40903640.789 6 160514670.167 6        39.100
I06  38229197.570 6 150019613.092 6        39.800
R04  22123883.016 7  22123882.016 6  22123886.398 7  22123886.016 7 118472382.818 7 118472379.830 6  92145184.361 7  92144999.376 7        44.100          41.200          42.100          42.100
R05  21281273.906 8  21281273.871 7  21281277.309 7  21281276.496 7 113760601.423 8 113760847.438 7  88480655.522 7  88480571.525 7        48.100          43.100          42.400          42.300
R06  23659652.672 6  23659651.199 5                                 126252450.161 6 126252459.165 5                                        36.400          34.500
R13  21883341.586 6  21883340.457 6  21883345.332 6  21883344.285 6 116855822.031 6 116855817.029 6  90887856.841 6  90887731.832 6        40.100          38.600          38.600          37.500
R14  19477547.391 8  19477546.547 7  19477549.797 7  19477550.016 7 103826282.622 8 103826285.615 7  80753777.531 7  80753869.534 7        50.700          45.700          45.200          44.300
R15  21301820.867 7  21301820.656 7  21301823.145 7  21301823.789 7 113830469.386 7 113830469.391 7  88534810.594 7  88535153.612 7        46.900          42.500          42.800          42.700
R17  23747100.258 6  23747099.195 6  23747104.965 5  23747105.336 5 127075544.709 6 127075540.726 6  98836529.516 5  98836541.514 5        39.000          37.400          35.400          34.900
R22  24328596.148 5  24328596.039 5                  24328600.574 5 129867699.979 5 129867682.988 5                 101008231.207 5        34.700          33.500                          31.300
R23  20797547.836 8  20797546.941 7  20797551.813 6  20797552.789 6 111252859.633 8 111252854.645 7  86529998.756 6  86530086.736 6        48.600          43.400          39.900          38.800
R24  21038635.797 7  21038636.090 6  21038637.699 5  21038637.879 5 112503050.213 7 112503042.238 6                  87502759.540 5        42.500          39.400          32.900          32.400
S27  39189373.406 5  39189369.469 6 205941550.912 5                        32.000          38.200
S28  40855000.891 5  40854984.152 6 214694450.844 5                        31.900          37.100
S36  38330832.563 6  38330821.117 6 201429884.537 6 150418444.679 6        41.200          41.100
> 2019 03 21 12 09 30.0000000  0 48
C05  39419441.078 6  39419431.371 6  39419436.246 6 205267366.994 6 166796513.431 6 158725732.212 6        36.300          40.900          39.200
C08  38982657.109 6  38982643.941 7  38982651.207 6 202992920.827 6 164948404.510 7 156967006.695 6        40.900          42.300          41.600
C10  40785066.742 6  40785056.484 5  40785065.199 5 212378542.141 6 172574920.444 5 164224553.475 5        37.200          34.300          34.600
C13  39175503.391 6  39175497.066 6  39175505.793 6 203997130.435 6 165764349.744 6 157743527.683 6        41.700          41.800          40.500
C14  24766590.109 7  24766577.781 7  24766586.352 7 128966132.086 7 104795547.606 7  99724775.257 7        42.100          43.300          43.000
C21  25350375.602 7  25350364.668 7                 132006053.547 7 107265682.079 7                        43.800          43.400
C26  23986670.078 7  23986663.195 7                 124904887.320 7 101495422.298 7                        45.000          45.400
C29  22998564.398 8  22998556.238 7                 119759561.659 8  97314417.653 7                        48.800          46.800
C30  23739052.211 7  23739046.414 7                 123615472.459 7 100447672.626 7                        46.900          45.600
E02  27714293.688 6  27714298.320 6  27714288.430 7  27714297.285 6  27714298.445 7 145639599.591 6 108756863.073 6 118213932.695 7 111593993.057 6 110175432.662 7        41.100          41.900          43.700          41.500          44.600
E03  25200472.727 8  25200476.449 7  25200465.430 8  25200475.941 7  25200476.930 8 132429376.026 8  98892079.649 7 107491343.387 8 101471872.667 7 100181979.267 8        48.200          45.900          49.100          45.700          48.600
E05  26473100.703 7  26473106.055 7  26473093.148 7  26473105.211 7  26473106.305 7 139117076.935 7 103886146.892 7 112919670.370 7 106596219.016 7 105241185.558 7        44.600          44.000          46.500          44.300          46.700
E08  25090948.555 7  25090951.137 7  25090943.289 7  25090949.602 7  25090951.461 7 131853821.209 7  98462268.991 7 107024178.794 7 101030848.778 7  99746558.484 7        43.000          43.100          45.200          42.000          45.700
E11  25520185.773 6  25520187.426 6  25520177.082 6  25520187.199 6  25520188.031 7 134109481.632 6 100146697.373 6 108855059.342 6 102759218.484 6 101452960.521 7        39.100          39.200          41.200          39.900          42.600
E12  23762913.516 6  23762914.340 7  23762903.523 7  23762913.895 7  23762914.766 7 124874949.724 6  93250774.701 7 101359496.385 7  95683403.291 7  94467089.101 7        41.900          42.800          45.500          43.300          45.900
E18  28809665.672 5  28809673.055 6  28809661.102 6  28809671.770 6  28809673.281 6 151395813.764 5 113055346.642 6 122886192.893 6 116004611.036 6 114529982.443 6        33.500          37.800          38.600          37.100          40.900
E24  22100387.734 8  22100401.875 8  22100373.086 8  22100401.066 8  22100402.246 8 116138318.120 8  86726722.325 8  94268053.786 8  88989155.148 8  87857941.342 8        50.600          49.800          53.500          49.100          52.500
E25  23277958.031 8  23277961.441 8  23277949.730 8  23277960.973 8  23277961.934 8 122326494.950 8  91347720.190 8  99290950.146 8  93730702.765 8  92539214.078 8        50.000          49.500          53.800          49.300          52.500
E31  27729643.305 6  27729649.297 6  27729636.063 6  27729648.387 6  27729649.500 7 145720257.297 6 108817074.818 6 118279396.058 6 111655781.303 6 110236428.164 7        40.400          39.300          38.200          38.700          42.900
E33  26733354.359 7  26733357.289 7  26733347.789 7  26733356.363 7  26733357.445 7 140484723.458 7 104907423.185 7 114029775.154 7 107644137.435 7 106275780.914 7        42.500          42.500          44.200          42.300          45.000
G01  25549074.867 4                  25549082.426 5  25549082.426 6 134261226.370 4                 104619200.366 5 100260065.036 6        29.900                          31.600          38.300
G06  24756631.922 6  24756640.469 3  24756640.898 6  24756641.750 7 130096973.910 6 101374310.611 3 101374274.631 6  97150345.597 7        41.200          22.500          38.100          42.100
G10  24647208.188 6  24647216.270 3  24647216.195 6  24647214.414 6 129521949.183 6 100926223.718 3 100926225.742 6  96720958.898 6        37.200          21.500          39.600          41.400
G12  21206867.070 8  21206870.977 6  21206870.961 7                 111442839.254 8  86838592.452 6  86838593.449 7                        50.500          38.100          44.500
G13  24359759.375 6  24359764.863 3                                 128011392.049 6  99749156.710 3                                        39.600          18.600
G15  22832578.602 7  22832583.531 5  22832583.703 6                 119986006.988 7  93495607.790 5  93495609.792 6                        46.800          32.000          41.900
G17  22559004.680 8  22559008.738 5  22559008.676 7                 118548366.118 8  92375366.960 5  92375367.947 7                        48.100          34.500          42.800
G19  21062322.563 8  21062324.477 6                                 110683251.163 8  86246697.224 6                                        48.300          38.300
G20  25415413.125 4                                                                                                                        29.900
G24  20193992.031 8  20193997.957 7  20193998.230 8  20193998.398 9 106120142.437 8  82691044.525 7  82691046.522 8  79245586.404 9        51.100          43.700          49.100          55.400
G25  24473734.359 6  24473742.633 3  24473742.480 6  24473743.258 7 128610377.291 6 100215893.133 3 100215856.164 6  96040194.998 7        38.000          21.300          38.100          42.700
G28  25461497.953 5                                                                                                                        31.500
G32  25174110.703 5  25174117.246 3  25174117.641 6  25174117.363 7 132290877.132 5 103083799.026 3 103083771.045 6  98788624.060 7        34.400          18.300          37.700          42.100
I02  37576310.680 6 147457508.920 6        40.700
I03  40903767.391 6 160515167.000 6        39.400
I06  38229617.273 6 150021262.093 6        40.200
R04  22144813.063 7  22144811.863 6  22144816.109 7  22144815.836 7 118584461.062 7 118584458.090 6  92232356.280 7  92232171.280 7        43.500          41.600          42.700          42.700
R05  21284648.430 7  21284647.820 7  21284651.207 7  21284651.094 7 113778638.933 7 113778884.941 7  88494684.683 7  88494600.686 7        47.300          44.200          44.300          43.600
R06  23642569.570 6  23642567.344 5                                 126161279.480 6 126161288.469 5                                        37.200          35.300
R13  21899656.016 6  21899655.313 6  21899660.383 6  21899659.313 6 116942943.241 6 116942938.262 6  90955617.728 6  90955492.739 6        39.900          38.600          38.300          38.100
R14  19478796.727 8  19478796.156 7  19478799.750 7  19478799.723 7 103832943.924 8 103832946.928 7  80758958.552 7  80759050.549 7        50.900          45.800          46.100          46.200
R15  21286715.289 7  21286715.621 7  21286718.297 7  21286718.531 7 113749750.878 7 113749750.882 7  88472029.559 7  88472372.563 7        46.800          43.900          44.000          43.500
R17  23721317.008 7  23721316.230 6  23721321.906 6  23721321.918 5 126937574.436 7 126937570.421 6  98729219.384 6  98729231.390 5        42.200          40.200          36.000          35.000
R23  20801123.414 8  20801121.566 7  20801126.902 6  20801127.566 6 111271981.914 8 111271976.926 7  86544871.636 6  86544959.646 6        48.800          44.700          40.300          38.900
R24  21021654.641 7  21021655.195 6  21021658.254 5  21021657.371 5 112412248.156 7 112412240.166 6  87431737.771 5  87432135.765 5        42.800          40.500          33.200          32.800
S27  39189425.406 5  39189421.367 6 205941824.86915                        31.600          37.900
S28  40855013.484 5  40854996.844 6 214694516.312 5                        32.200          38.000
S36  38330839.781 6  38330828.258 7 201429919.526 6 150418468.538 7        41.600          42.300
> 2019 03 21 12 10 00.0000000  0 45
C05  39419112.641 6  39419103.598 6  39419108.445 6 205265660.463 6 166795126.732 6 158724412.594 6        36.200          41.100          40.000
C08  38977482.445 6  38977468.961 7  38977476.418 6 202965973.989 6 164926508.019 7 156946169.722 6        40.800          42.200          41.300
C10  40789556.961 6  40789546.082 5  40789555.316 5 212401923.043 6 172593919.333 5 164242633.044 5        37.000          34.200          35.000
C13  39166346.641 7  39166339.758 6  39166348.414 6 203949446.865 7 165725602.972 6 157706655.772 6        42.500          41.800          40.600
C14  24771448.828 7  24771436.910 7  24771445.266 7 128991433.753 7 104816107.268 7  99744340.088 7        43.000          44.500          43.400
C21  25366383.625 7  25366373.047 7                 132089413.193 7 107333418.584 7                        43.700          43.300
C26  23972269.219 7  23972261.625 7                 124829896.389 7 101434486.033 7                        45.700          45.200
C29  22987377.273 8  22987368.734 7                 119701306.768 8  97267080.802 7                        49.000          47.100
C30  23746005.297 7  23745999.762 7                 123651680.438 7 100477094.583 7                        46.200          45.500
E02  27700394.523 6  27700398.977 6  27700389.293 7  27700398.668 6  27700399.492 7 145566560.949 6 108702321.334 6 118154648.109 7 111538028.472 6 110120179.500 7        41.100          41.500          42.600          41.600          44.800
E03  25206208.336 8  25206212.285 7  25206201.168 8  25206211.813 7  25206212.684 8 132459517.749 8  98914588.083 7 107515809.067 8 101494968.260 7 100204781.273 8        48.000          46.100          49.100          46.100          48.800
E05  26490059.727 7  26490065.277 7  26490052.754 7  26490064.707 7  26490065.684 7 139206198.934 7 103952698.962 7 112992009.610 7 106664507.235 7 105308605.706 7        44.400          44.600          46.300          44.700          46.900
E08  25081905.109 6  25081907.949 7  25081900.383 7  25081907.688 7  25081908.438 7 131806300.598 6  98426782.851 7 106985606.894 7 100994436.903 7  99710609.481 7        41.400          43.000          45.500          42.300          45.700
E11  25502452.484 6  25502454.230 6  25502444.102 6  25502453.797 6  25502454.793 7 134016294.831 6 100077109.192 6 108779420.99916 102687814.946 6 101382464.676 7        38.600          39.100          41.600          39.500          42.600
E12  23754829.102 6  23754830.313 7  23754819.566 7  23754830.219 7  23754830.809 7 124832468.630 6  93219051.825 7 101325014.988 7  95650852.850 7  94434952.441 7        41.800          43.000          45.500          43.400          46.200
E18  28776590.805 6  28776598.016 7  28776586.066 7  28776596.930 7  28776598.184 7 151222004.725 6 112925553.539 7 122745112.397 7 115871432.027 7 114398496.386 7        39.300          42.200          43.600          42.600          45.200
E24  22107558.102 8  22107572.000 8  22107543.305 8  22107571.586 8  22107572.516 8 116175998.243 8  86754860.081 8  94298638.297 8  89018026.927 8  87886446.108 8        50.500          50.000          53.400          49.100          52.500
E25  23271808.523 8  23271811.996 8  23271800.410 8  23271811.586 8  23271812.492 8 122294179.712 8  91323588.697 8  99264720.247 8  93705941.750 8  92514767.824 8        49.700          49.700          53.900          49.300          52.500
E31  27743713.531 6  27743719.203 6  27743705.949 6  27743718.996 6  27743719.539 7 145794195.114 6 108872288.047 6 118339410.487 6 111712434.920 6 110292361.591 7        40.600          40.400          38.600          39.300          43.100
E33  26739996.188 7  26739999.008 7  26739989.922 7  26739998.273 7  26739999.320 7 140519626.553 7 104933487.200 7 114058105.581 7 107670881.384 7 106302184.897 7        42.900          42.700          44.100          42.600          45.500
G06  24739656.180 6  24739663.887 3  24739665.305 6  24739665.551 7 130007762.045 6 101304794.908 3 101304758.929 6  97083726.400 7        41.200          22.900          37.900          42.300
G10  24656167.875 6  24656175.848 3  24656175.285 6  24656174.375 6 129569032.023 6 100962911.600 3 100962913.623 6  96756118.126 6        37.100          22.800          39.900          41.100
G12  21193726.547 8  21193730.098 6  21193730.395 7                 111373784.867 8  86784783.865 6  86784784.861 7                        50.700          37.600          44.700
G13  24382146.945 6  24382152.629 3                                 128129039.953 6  99840830.342 3                                        39.000          19.300
G15  22851158.563 7  22851163.344 5  22851163.684 6                 120083644.378 7  93571688.837 5  93571690.846 6                        47.300          32.100          41.800
G17  22570316.320 8  22570320.324 5  22570320.195 7                 118607809.004 8  92421686.081 5  92421687.074 7                        48.600          34.600          42.900
G19  21063705.219 8  21063707.168 6                                 110690517.529 8  86252359.340 6                                        49.000          38.100
G20  25430163.352 4                                                                                                                        28.600
G24  20192256.953 8  20192263.176 7  20192263.539 8  20192263.629 9 106111026.100 8  82683940.889 7  82683942.886 8  79238778.752 9        51.800          43.900          49.000          55.400
G25  24454202.523 6  24454210.570 3  24454210.984 6  24454211.949 7 128507738.281 6 100135914.722 3 100135877.755 6  95963549.035 7        38.800          20.900          37.500          43.200
G32  25155223.547 6  25155230.793 3  25155231.660 6  25155230.242 7 132191625.401 6 103006460.000 3 103006432.016 6  98714507.494 7        36.400          18.600          37.900          42.100
I02  37578999.133 6 147468060.274 6        40.700
I03  40903892.195 6 160515660.811 6        39.600
I06  38230038.609 6 150022915.547 6        40.100
R04  22165812.969 7  22165810.121 7  22165813.410 7  22165813.922 7 118696905.649 7 118696902.661 7  92319813.115 7  92319628.120 7        43.800          42.000          43.200          42.200
R05  21288175.656 7  21288175.660 7  21288177.828 7  21288178.039 7 113797495.271 7 113797741.286 7  88509350.699 7  88509266.703 7        47.900          44.000          44.500          43.800
R06  23625582.352 6  23625580.297 5                                 126070638.894 6 126070647.873 5                                        36.400          34.600
R13  21916008.086 6  21916005.973 6  21916009.957 6  21916009.813 6 117030254.166 6 117030249.177 6  91023526.222 6  91023401.191 6        39.900          38.400          38.400          38.200
R14  19480119.352 8  19480118.066 7  19480121.676 7  19480121.688 7 103839991.256 8 103839994.250 7  80764439.813 7  80764531.809 7        50.900          46.300          47.300          46.000
R15  21271645.930 7  21271646.746 7  21271649.109 7  21271649.492 7 113669226.640 7 113669226.653 7  88409399.645 7  88409742.635 7        46.800          43.900          44.600          43.800
R17  23695538.617 6  23695536.668 6  23695542.293 6  23695542.195 5 126799622.572 6 126799618.577 6  98621923.543 6  98621935.541 5        41.800          39.700          36.500          35.700
R23  20804855.742 8  20804854.953 7  20804860.008 6  20804860.680 6 111291952.078 8 111291947.082 7  86560403.998 6  86560492.001 6        48.200          45.000          40.700          39.600
R24  21004789.766 7  21004789.980 6  21004792.078 5  21004791.898 5 112322061.238 7 112322053.247 6  87361591.436 5  87361990.435 5        43.100          40.500          32.800          32.500
S28  40855024.359 5  40855009.383 6 214694582.712 5                        32.400          37.700
S36  38330847.109 6  38330835.383 7 201429953.467 6 150418500.238 7        41.600          43.000
> 2019 03 21 12 10 30.0000000  0 44
C05  39418784.602 6  39418776.211 6  39418780.473 6 205263953.375 6 166793739.576 6 158723092.556 6        36.300          41.000          39.400
C08  38972344.016 6  38972330.285 7  38972337.566 6 202939216.164 6 164904765.119 7 156925478.912 6        40.900          42.200          41.500
C10  40794044.703 6  40794034.750 5  40794043.523 5 212425293.688 6 172612909.868 5 164260704.680 5        37.100          33.900          35.800
C13  39157216.703 7  39157209.676 6  39157218.211 6 203901903.060 7 165686969.784 6 157669891.938 6        42.700          41.600          41.200
C14  24776396.992 6  24776385.152 7  24776393.430 7 129017199.668 6 104837044.172 7  99764263.921 7        41.700          43.400          43.500
C21  25382423.648 7  25382412.996 7                 132172937.555 7 107401288.945 7                        43.400          42.900
C26  23957889.359 7  23957882.391 7                 124755019.049 7 101373642.090 7                        44.600          45.100
C29  22976271.406 8  22976262.992 7                 119643476.037 8  97220088.626 7                        48.700          46.400
C30  23753051.250 7  23753045.715 7                 123688370.343 7 100506908.145 7                        46.700          45.700
E02  27686503.164 6  27686508.109 6  27686498.215 7  27686507.582 7  27686508.434 7 145493562.765 6 108647809.743 6 118095396.390 7 111482094.845 7 110064956.903 7        41.200          41.700          43.000          42.100          44.700
E03  25212022.461 7  25212026.711 7  25212015.484 8  25212025.758 7  25212026.957 8 132490071.864 7  98937404.453 7 107540609.482 8 101518379.844 7 100227895.255 8        47.700          46.000          49.200          45.300          48.700
E05  26507041.672 7  26507047.508 7  26507034.758 7  26507046.633 7  26507047.828 7 139295440.417 7 104019340.269 7 113064445.844 7 106732887.017 7 105376116.242 7        44.200          43.800          46.300          43.800          46.500
E08  25072932.328 7  25072935.172 7  25072927.051 7  25072933.766 7  25072935.398 7 131759146.714 7  98391570.565 7 106947332.660 7 100958306.038 7  99674937.908 7        42.800          43.600          44.900          42.100          45.600
E11  25484730.484 6  25484732.367 6  25484721.688 6  25484731.973 6  25484732.789 7 133923165.452 6 100007564.663 6 108703828.042 6 102616456.189 6 101312013.022 7        38.700          38.800          41.700          39.900          42.400
E12  23746821.109 7  23746821.852 7  23746811.238 7  23746821.465 7  23746822.320 7 124790383.693 7  93187624.765 7 101290855.155 7  95618605.962 7  94403115.464 7        42.300          43.200          45.500          43.400          45.700
E24  22114758.859 8  22114773.027 8  22114744.387 8  22114772.293 8  22114773.484 8 116213839.464 8  86783118.131 8  94329353.577 8  89047022.154 8  87915072.747 8        51.200          50.000          53.400          49.300          52.600
E25  23265692.992 8  23265696.445 8  23265684.809 8  23265695.742 8  23265696.887 8 122262041.912 8  91299589.698 8  99238634.387 8  93681316.690 8  92490455.800 8        50.500          49.700          53.900          49.500          52.700
E31  27757784.969 5  27757791.414 6                  27757790.082 6  27757791.488 7 145868142.71615 108927509.36316                 111769096.77816 110348303.17817        34.600          39.900                          39.700          42.700
E33  26746716.953 7  26746719.977 7  26746710.574 7  26746719.188 7  26746720.332 7 140554945.741 7 104959861.916 7 114086773.760 7 107697944.140 7 106328903.638 7        43.200          42.800          43.900          42.300          45.300
G01  25569819.031 5                  25569827.219 5  25569825.820 6                                 104704144.189 5 100341469.578 6        30.500                          34.400          38.600
G06  24722704.133 6  24722712.680 3  24722713.559 6  24722714.270 6 129918683.255 6 101235382.938 3 101235346.948 6  97017206.602 6        40.300          22.200          36.000          41.400
G10  24665209.289 6  24665217.293 3  24665217.641 6  24665215.641 6 129616546.737 6 100999936.014 3 100999938.010 6  96791599.848 6        38.600          21.100          39.800          40.800
G12  21180653.078 8  21180656.684 6  21180656.898 7                 111305082.443 8  86731249.538 6  86731250.528 7                        50.900          37.900          44.100
G13  24404548.359 6  24404554.285 3                                 128246758.476 6  99932558.978 3                                        38.700          19.000
G15  22869786.289 8  22869790.883 5  22869791.230 6                 120181533.666 8  93647966.175 5  93647968.164 6                        48.000          32.100          41.400
G17  22581711.617 8  22581715.621 5  22581715.840 7                 118667692.773 8  92468348.761 5  92468349.756 7                        48.300          34.300          42.600
G19  21065215.922 8  21065217.793 6                                 110698456.297 8  86258545.409 6                                        48.900          38.600
G24  20190607.867 8  20190614.160 7  20190614.074 8  20190614.500 9 106102359.896 8  82677188.003 7  82677189.999 8  79232307.241 9        51.700          44.100          49.100          55.400
G25  24434694.164 6  24434703.230 3  24434703.297 6  24434704.391 7 128405225.826 6 100056034.931 3 100055997.928 6  95886997.553 7        37.600          20.900          37.600          43.000
G32  25136380.164 6  25136387.117 3  25136387.086 6  25136386.766 7 132092601.787 6 102929298.766 3 102929270.797 6  98640561.313 7        37.500          19.300          37.100          42.900
I02  37581694.070 6 147478632.799 6        40.100
I03  40904018.148 6 160516151.109 6        39.200
I06  38230460.922 6 150024573.133 6        40.300
R04  22186876.367 7  22186875.926 6  22186879.496 7  22186879.754 7 118809711.023 7 118809708.044 6  92407550.569 7  92407365.580 7        44.100          41.900          42.600          42.300
R05  21291855.656 7  21291855.367 7  21291858.977 7  21291858.344 7 113817168.656 7 113817414.657 7  88524652.207 7  88524568.225 7        47.700          43.900          43.900          43.600
R06  23608696.328 6  23608694.734 5                                 125980531.632 6 125980540.62815                                        36.700          34.900
R13  21932392.570 6  21932391.594 6  21932394.516 6  21932395.664 6 117117753.195 6 117117748.186 6  91091580.938 6  91091455.971 6        40.100          37.700          37.700          38.100
R14  19481513.453 8  19481512.469 7  19481516.512 7  19481516.008 7 103847424.007 8 103847427.001 7  80770220.835 7  80770312.839 7        50.700          45.900          46.200          45.300
R15  21256614.516 7  21256613.598 7  21256616.598 7  21256616.660 7 113588897.134 7 113588897.138 7  88346921.157 7  88347264.162 7        46.700          43.400          43.800          43.400
R17  23669762.766 6  23669760.879 6  23669766.344 6  23669766.500 5 126661692.043 6 126661688.037 6  98514644.286 6  98514656.311 5        41.400          39.700          36.100          35.900
R23  20808747.016 8  20808745.961 7  20808750.980 6  20808752.207 6 111312768.472 8 111312763.468 7  86576594.529 6  86576682.547 6        48.300          44.100          40.500          38.800
R24  20988040.641 7  20988040.152 6  20988042.430 5  20988042.227 5 112232492.969 7 112232484.977 6  87291927.26915  87292326.292 5        43.000          40.300          33.400          32.900
S27  39189529.672 5  39189525.969 6 205942376.982 5                        32.400          38.400
S36  38330854.719 6  38330842.508 7 201429991.759 6 150418530.640 7        41.100          42.500
> 2019 03 21 12 11 00.0000000  0 44
C05  39418456.805 6  39418448.098 6  39418452.977 6 205262246.056 6 166792352.233 6 158721772.345 6        36.400          40.200          39.300
C08  38967240.953 6  38967228.211 6  38967235.527 6 202912647.869 6 164883176.229 6 156904934.639 6        40.900          41.800          41.200
C10  40798532.055 6  40798520.691 5  40798529.539 5 212448654.207 6 172631892.204 5 164278768.503 5        37.100          34.100          34.600
C13  39148112.883 6  39148106.137 6  39148114.629 6 203854499.632 6 165648450.645 6 157633236.643 6        41.300          41.400          40.600
C14  24781433.055 7  24781421.852 7  24781430.656 7 129043429.174 7 104858357.762 7  99784546.206 7        42.400          43.000          43.000
C21  25398494.672 7  25398484.402 7                 132256624.453 7 107469291.354 7                        43.300          43.200
C26  23943532.828 7  23943525.102 7                 124680256.509 7 101312891.420 7                        45.400          44.500
C29  22965247.555 8  22965239.008 7                 119586071.594 8  97173442.835 7                        49.100          45.700
C30  23760189.914 7  23760183.910 7                 123725541.339 7 100537112.620 7                        46.600          44.700
E02  27672620.008 6  27672624.891 6  27672615.094 7  27672623.906 6  27672625.129 7 145420605.605 6 108593328.831 6 118036177.972 7 111426192.686 6 110009765.359 7        40.700          41.600          43.300          41.600          44.000
E03  25217914.727 7  25217919.313 7  25217908.070 8  25217918.605 7  25217919.633 8 132521037.983 7  98960528.480 7 107565744.308 8 101542107.117 7 100251320.899 8        47.600          45.700          48.900          45.100          48.500
E05  26524046.391 7  26524052.117 7  26524039.383 7  26524051.418 7  26524052.453 7 139384799.858 7 104086069.659 7 113136977.808 7 106801357.194 7 105443716.030 7        43.600          43.700          46.100          43.300          46.100
E08  25064029.273 7  25064032.016 7  25064024.715 7  25064031.543 7  25064032.363 7 131712361.216 7  98356633.357 7 106909357.430 7 100922457.423 7  99639544.993 7        43.000          42.600          45.100          42.400          44.900
E11  25467020.422 6  25467021.984 6  25467011.051 6  25467021.395 6  25467022.336 7 133830097.85316  99938065.513 6 108628284.42616 102545143.994 6 101241607.364 7        39.200          39.600          41.400          39.100          42.400
E12  23738887.680 7  23738889.141 7  23738878.324 7  23738888.781 7  23738889.527 7 124748696.590 7  93156494.813 7 101257018.232 7  95586663.919 7  94371579.469 7        42.500          42.600          45.400          42.700          45.100
E24  22121990.672 8  22122004.754 8  22121975.926 8  22122003.914 8  22122005.121 8 116251841.918 8  86811496.579 8  94360199.717 8  89076140.901 8  87943821.345 8        50.700          49.800          53.400          49.000          52.500
E25  23259611.258 8  23259614.613 8  23259603.105 8  23259614.047 8  23259615.086 8 122230081.910 8  91275723.471 8  99212692.823 8  93656827.865 8  92466278.274 8        49.700          49.700          53.900          49.200          52.500
E31  27771859.172 6  27771865.199 6  27771851.648 6  27771864.699 6  27771865.641 7 145942101.21016 108982738.793 6 118459467.63316 111825766.982 6 110404252.994 7        38.300          40.800          39.200          39.800          43.100
E33  26753517.695 7  26753520.102 7  26753510.637 7  26753519.281 7  26753520.461 7 140590680.506 7 104986546.962 7 114115779.248 7 107725325.313 7 106355936.743 7        42.700          42.200          44.100          42.300          44.800
G01  25580331.398 6                  25580339.215 5  25580339.895 6 134425481.747 6                 104747193.087 5 100382724.755 6        36.800                          34.300          40.900
G06  24705779.789 6  24705787.773 3  24705788.133 5  24705788.980 6 129829741.120 6 101166077.422 3 101166041.415 5  96950788.849 6        41.500          21.100          35.800          41.300
G10  24674333.609 6  24674340.711 3  24674340.250 6  24674338.691 6 129664491.301 6 101037295.369 3 101037297.408 6  96827402.563 6        38.400          20.600          37.700          40.000
G12  21167646.336 8  21167650.086 6  21167650.098 7                 111236733.095 8  86677990.324 6  86677991.321 7                        50.700          37.800          44.100
G13  24426962.672 6  24426967.941 3                                 128364545.212 6 100024340.737 3                                        40.300          19.600
G15  22888461.953 7  22888466.230 5  22888466.391 6                 120279672.899 7  93724438.254 5  93724440.251 6                        47.200          32.100          41.600
G17  22593190.797 8  22593194.867 5  22593194.484 7                 118728015.384 8  92515353.389 5  92515354.390 7                        48.000          34.400          42.600
G19  21066854.273 8  21066856.578 6                                 110707067.300 8  86265255.286 6                                        48.200          38.000
G24  20189044.313 8  20189050.840 7  20189051.133 8  20189051.141 9 106094144.874 8  82670786.684 7  82670788.688 8  79226172.646 9        52.100          43.700          48.700          55.400
G25  24415211.953 6  24415220.586 3  24415220.684 6  24415220.930 7 128302841.180 6  99976254.715 3  99976217.721 6  95810541.543 7        38.300          21.500          37.500          42.200
G32  25117579.961 6  25117588.141 3  25117587.730 6  25117587.117 7 131993809.190 6 102852317.535 3 102852289.566 6  98566787.641 7        38.200          19.000          37.300          42.300
I02  37584393.680 6 147489226.954 6        40.200
I03  40904141.531 6 160516638.024 6        38.700
I06  38230884.844 6 150026234.816 6        40.400
R04  22208010.063 7  22208007.781 6  22208011.875 7  22208012.121 6 118922873.350 7 118922870.363 6  92495565.660 7  92495380.664 6        44.100          41.300          42.100          41.600
R05  21295689.086 7  21295688.820 7  21295691.445 7  21295691.457 7 113837658.028 7 113837904.027 7  88540588.383 7  88540504.386 7        47.900          43.200          43.400          43.100
R06  23591910.000 5  23591908.859 5                                 125890961.209 5 125890970.19215                                        35.200          34.700
R13  21948814.594 6  21948812.340 6  21948817.531 6  21948816.770 6 117205440.684 6 117205435.668 6  91159782.287 6  91159657.298 6        39.700          37.600          37.900          38.000
R14  19482980.438 8  19482979.289 7  19482982.758 7  19482982.949 7 103855242.729 8 103855245.730 7  80776302.064 7  80776394.061 7        50.200          45.300          45.600          44.900
R15  21241617.719 7  21241617.879 7  21241621.352 7  21241621.047 7 113508763.589 7 113508763.586 7  88284595.094 7  88284938.098 7        47.700          42.700          43.600          43.200
R17  23643991.625 6  23643990.078 6  23643995.738 6  23643995.816 5 126523787.391 6 126523783.399 6  98407385.206 6  98407397.204 5        41.200          38.700          36.300          35.700
R23  20812797.930 8  20812795.645 7  20812800.582 6  20812801.574 6 111334430.489 8 111334425.493 7  86593442.765 6  86593530.783 6        48.600          43.900          40.500          39.700
R24  20971408.125 7  20971406.809 6                  20971408.734 5 112143547.888 7 112143539.897 6                  87223146.818 5        42.700          40.600                          32.100
S27  39189584.031 5  39189583.336 6 205942643.384 5                        31.900          38.500
S36  38330861.516 6  38330849.801 6 201430025.793 6 150418561.486 6        41.100          41.800
> 2019 03 21 12 11 30.0000000  0 44
C05  39418129.234 6  39418120.109 6  39418124.395 6 205260538.540 6 166790964.732 6 158720451.974 6        36.900          40.400          39.700
C08  38962175.844 6  38962162.395 7  38962169.645 6 202886269.433 6 164861741.608 7 156884537.177 6        40.600          42.100          41.600
C10  40803016.281 6  40803005.051 5  40803014.184 5 212472004.960 6 172650866.580 5 164296824.767 5        36.800          34.500          35.100
C13  39139037.297 7  39139029.824 6  39139038.488 6 203807237.117 7 165610046.023 6 157596690.316 6        42.300          41.800          39.800
C14  24786558.555 7  24786547.949 7  24786556.402 7 129070121.152 7 104880047.163 7  99805186.108 7        42.000          44.300          43.500
C21  25414597.266 7  25414586.348 7                 132340471.454 7 107537423.867 7                        43.000          43.400
C26  23929196.977 7  23929189.746 7                 124605609.706 7 101252234.793 7                        44.900          45.500
C29  22954305.625 8  22954297.176 7                 119529095.187 8  97127144.845 7                        49.200          46.900
C30  23767419.898 7  23767414.273 7                 123763192.258 7 100567707.072 7                        46.700          45.200
E02  27658744.422 6  27658749.367 7  27658739.176 7  27658748.395 7  27658749.539 7 145347689.692 6 108538878.715 7 117976993.012 7 111370322.099 7 109954605.020 7        40.900          42.200          43.000          42.000          45.100
E03  25223885.992 7  25223889.938 7  25223879.074 8  25223889.574 7  25223890.520 8 132552415.275 7  98983959.570 7 107591212.873 8 101566149.450 7 100275057.613 8        47.600          46.200          49.000          45.900          49.000
E05  26541073.172 7  26541078.785 7  26541066.012 7  26541078.367 7  26541079.152 7 139474275.455 7 104152885.774 7 113209604.058 7 106869916.350 7 105511403.663 7        43.300          44.600          46.400          44.100          47.300
E08  25055196.805 7  25055199.359 7  25055191.398 7  25055198.945 7  25055199.637 7 131665945.476 7  98321972.287 7 106871682.308 7 100886892.144 7  99604431.813 7        44.000          42.700          44.500          42.600          45.300
E11  25449321.914 6  25449323.551 6  25449312.777 6  25449322.984 6  25449323.855 7 133737093.143 6  99868613.299 6 108552792.854 6 102473879.977 6 101171249.246 7        39.000          39.700          41.400          38.900          42.300
E12  23731031.242 7  23731032.250 7  23731021.500 7  23731032.188 7  23731032.676 7 124707408.725 7  93125662.965 7 101223505.352 7  95555027.785 7  94340345.474 7        42.100          43.200          45.600          43.200          46.500
E24  22129252.633 8  22129266.961 8  22129238.160 8  22129266.422 8  22129267.379 8 116290005.314 8  86839995.230 8  94391176.491 8  89105382.995 8  87972691.721 8        51.100          49.800          53.400          49.200          52.500
E25  23253563.266 8  23253566.594 8  23253555.129 9  23253566.434 8  23253567.152 8 122198299.875 8  91251990.152 8  99186895.719 9  93632475.413 8  92442235.387 8        49.700          49.800          54.100          49.600          52.600
E31  27785934.820 5  27785941.383 6                  27785940.820 6  27785941.832 7 146016071.548 5 109037976.341 6                 111882445.497 6 110460211.038 7        35.400          40.900                          40.200          43.600
E33  26760396.047 7  26760398.816 7  26760389.605 7  26760398.879 7  26760399.465 7 140626829.897 7 105013541.629 7 114145121.276 7 107753024.183 7 106383283.510 7        42.600          42.300          44.400          42.300          45.400
G01  25590939.328 5  25590946.637 2  25590947.129 5  25590945.285 6 134481218.838 5 104790644.618 2 104790624.634 5 100424346.689 6        35.000          15.600          35.100          40.200
G06  24688880.813 6  24688889.141 3  24688889.590 6  24688890.023 6 129740938.847 6 101096880.910 3 101096844.896 6  96884475.511 6        41.100          21.700          36.900          40.800
G10  24683538.555 6  24683545.773 3  24683545.578 6  24683543.953 6 129712863.468 6 101074987.966 3 101074989.971 6  96863524.628 6        39.500          21.800          38.200          40.300
G12  21154707.273 8  21154710.965 6  21154711.406 7                 111168737.954 8  86625007.113 6  86625008.110 7                        51.200          37.900          44.000
G13  24449389.391 6  24449394.754 3                                 128482397.846 6 100116173.907 3                                        40.100          19.600
G15  22907184.211 7  22907188.680 5  22907188.430 6                 120378059.422 7  93801103.037 5  93801105.034 6                        47.200          31.600          41.700
G17  22604753.164 7  22604756.953 5  22604756.770 7                 118788775.166 7  92562698.665 5  92562699.675 7                        47.800          34.500          42.400
G19  21068620.789 8  21068622.969 6                                 110716350.334 8  86272488.830 6                                        48.300          37.600
G24  20187567.188 8  20187573.434 7  20187573.785 8  20187573.887 9 106086381.784 8  82664737.521 7  82664739.525 8  79220375.536 9        51.600          44.500          49.600          55.400
G25  24395753.836 6  24395761.289 3  24395761.523 6  24395762.488 7 128200585.559 6  99896575.058 3  99896538.048 6  95734181.849 7        38.600          21.300          38.100          42.900
G32  25098826.016 6  25098833.059 3  25098833.742 6  25098831.770 7 131895250.263 6 102775518.433 3 102775490.480 6  98493188.504 7        37.400          18.300          36.100          42.000
I02  37587098.070 6 147499843.015 6        40.400
I03  40904264.961 6 160517121.726 6        39.100
I06  38231309.867 6 150027900.778 6        39.900
R04  22229207.234 7  22229206.770 6  22229210.352 7  22229210.313 7 119036387.970 7 119036384.968 6  92583854.738 7  92583669.750 7        44.800          41.700          42.700          42.000
R05  21299674.555 7  21299674.297 7  21299677.438 7  21299676.984 7 113858962.264 7 113859208.279 7  88557158.345 7  88557074.334 7        47.000          44.100          44.100          43.900
R06  23575225.977 5  23575224.285 5                                 125801931.986 5 125801943.977 5                                        34.500          34.000
R13  21965270.531 6  21965268.730 6  21965274.273 6  21965272.930 6 117293315.316 6 117293310.329 6  91228129.197 6  91228004.192 6        40.000          37.600          38.100          38.200
R14  19484519.656 8  19484518.469 7  19484522.230 7  19484521.965 7 103863447.503 8 103863450.499 7  80782683.546 7  80782775.542 7        50.800          46.600          46.200          46.200
R15  21226658.828 7  21226658.930 7  21226661.547 7  21226661.531 7 113428827.047 7 113428827.045 7  88222422.255 7  88222765.251 7        46.800          43.700          44.300          43.200
R17  23618226.500 6  23618224.895 6  23618228.684 6  23618230.203 6 126385912.413 6 126385908.414 6  98300149.184 6  98300161.193 6        40.800          39.200          37.200          36.400
R22  24440204.734 6  24440204.488 5  24440207.563 5  24440208.199 6 130463470.922 6 130463453.927 5 101471578.972 5 101471602.942 6        36.400          34.900          35.200          36.000
R23  20817004.602 8  20817003.219 7  20817007.652 6  20817009.031 6 111356936.804 8 111356931.808 7  86610947.694 6  86611035.690 6        48.900          44.600          40.000          39.400
R24  20954890.414 7  20954891.051 6  20954893.391 5  20954892.824 5 112055229.668 7 112055221.669 6                  87154454.921 5        42.600          40.800          32.900          32.600
S36  38330868.453 6  38330857.031 7 201430072.272 6 150418588.194 7        41.100          42.500
> 2019 03 21 12 12 00.0000000  0 48
C05  39417801.648 6  39417792.031 6  39417796.438 6 205258830.471 6 166789576.776 6 158719131.177 6        36.300          41.200          40.100
C08  38957146.516 6  38957133.148 7  38957140.492 7 202860080.568 6 164840461.026 7 156864286.314 7        40.000          42.900          42.600
C10  40807498.273 6  40807487.332 5  40807496.066 5 212495345.550 6 172669832.710 5 164314873.174 5        36.300          34.100          35.700
C13  39129987.891 7  39129980.609 7  39129989.324 6 203760115.560 7 165571755.933 7 157560252.980 6        42.000          42.200          40.600
C14  24791774.578 7  24791762.523 7  24791770.664 7 129097273.908 7 104902110.983 7  99826182.318 7        42.100          45.100          43.800
C21  25430728.977 7  25430718.469 7                 132424475.581 7 107605684.062 7                        42.400          44.100
C26  23914884.578 7  23914876.789 7                 124531079.000 7 101191672.514 7                        45.400          46.600
C29  22943446.406 8  22943437.855 8                 119472548.037 8  97081195.678 8                        49.500          49.100
C30  23774742.211 7  23774736.625 7                 123801321.466 7 100598690.185 7                        46.500          46.800
E02  27644876.508 6  27644881.402 7  27644871.465 7  27644881.203 7  27644881.828 7 145274814.681 6 108484459.145 7 117917841.279 7 111314482.890 7 109899475.615 7        40.600          42.500          43.400          43.600          46.600
E03  25229934.820 7  25229938.938 7  25229927.891 8  25229938.617 7  25229939.445 8 132584202.432 7  99007696.722 7 107617014.135 8 101590505.838 7 100299104.386 8        47.500          46.900          49.100          47.100          49.600
E05  26558121.398 7  26558126.949 7  26558114.414 7  26558126.691 7  26558127.508 8 139563864.838 7 104219786.893 7 113282322.673 7 106938562.716 7 105579177.411 8        43.100          45.100          46.200          44.900          48.700
E08  25046434.617 7  25046437.277 7  25046429.902 7  25046436.656 7  25046437.516 7 131619900.262 7  98287587.833 7 106834307.940 7 100851610.697 7  99569598.869 7        43.100          42.800          45.600          42.700          46.400
E11  25431635.391 6  25431637.063 6  25431626.758 6  25431636.578 6  25431637.629 7 133644151.965 6  99799209.298 6 108477353.664 6 102402665.426 6 101100939.958 7        39.800          40.100          41.600          39.300          43.400
E12  23723250.578 7  23723251.563 7  23723240.742 7  23723251.320 7  23723251.977 7 124666520.838 7  93095129.827 7 101190317.150 7  95523698.105 7  94309414.075 7        42.200          44.000          45.600          43.800          47.300
E24  22136545.406 8  22136559.625 8  22136531.016 8  22136559.297 8  22136560.129 8 116328328.930 8  86868613.514 8  94422283.322 8  89134747.849 8  88001683.290 8        50.800          50.200          53.500          50.500          52.900
E25  23247548.813 8  23247552.512 8  23247541.031 9  23247552.305 8  23247553.043 8 122166695.479 8  91228389.482 8  99161242.815 9  93608259.071 8  92418326.877 8        50.600          50.200          54.000          50.100          52.900
E31  27800013.313 6  27800019.406 6  27800006.234 6  27800018.941 6  27800019.918 7 146090052.139 6 109093221.533 6 118579558.666 6 111939131.913 6 110516176.823 7        37.800          41.300          40.200          41.400          44.800
E33  26767353.813 6  26767356.637 7  26767347.465 7  26767356.328 7  26767357.090 7 140663392.422 6 105040844.839 7 114174798.663 7 107781039.677 7 106410942.862 7        41.800          43.200          44.400          43.100          46.800
G01  25601637.813 5  25601646.426 2  25601645.078 5  25601645.215 6 134537444.686 5 104834456.868 2 104834436.964 5 100466333.446 6        32.000          14.800          31.800          38.900
G02  25670424.602 5                                                 134898977.345 5                                                        31.900
G06  24672009.195 6  24672017.789 3  24672018.152 6  24672018.688 6 129652279.102 6 101027795.436 3 101027759.451 6  96818268.633 6        41.200          21.800          36.400          41.700
G10  24692824.008 6  24692831.449 3  24692830.805 6  24692830.316 6 129761660.502 6 101113011.563 3 101113013.607 6  96899963.924 6        39.100          21.800          38.200          39.900
G12  21141835.359 8  21141839.313 6  21141839.598 7                 111101096.910 8  86572299.829 6  86572300.833 7                        51.300          37.900          45.600
G13  24471827.648 6  24471833.480 3                                 128600313.456 6 100208056.123 3                                        40.100          19.600
G15  22925952.938 7  22925957.727 5  22925957.461 6                 120476690.232 7  93877958.173 5  93877960.167 6                        47.200          31.300          41.800
G17  22616398.000 8  22616401.672 5  22616401.848 7                 118849969.441 8  92610382.512 5  92610383.508 7                        48.000          34.300          43.700
G19  21070515.094 7  21070516.996 6                                 110726304.478 7  86280245.317 6                                        47.900          38.300
G24  20186176.383 8  20186182.332 7  20186182.555 8  20186182.758 9 106079071.197 8  82659040.960 7  82659042.971 8  79214916.334 9        51.900          44.400          50.900          55.400
G25  24376319.086 6  24376327.617 3  24376327.703 6  24376328.305 7 128098459.464 6  99816996.319 3  99816959.367 6  95657918.950 7        39.000          20.100          38.600          42.800
G28  25547446.578 5                                                 134252722.288 5                                                        33.700
G32  25080115.453 6  25080122.598 2  25080122.480 5  25080121.273 6 131796927.423 6 102698903.128 2 102698875.170 5  98419765.572 6        38.700          17.800          34.800          41.100
I02  37589808.922 6 147510479.325 6        40.600
I03  40904387.047 6 160517601.848 6        38.400
I06  38231734.625 6 150029570.706 6        39.500
R04  22250470.063 7  22250469.770 7  22250473.793 7  22250473.313 7 119150250.138 7 119150247.154 7  92672414.161 7  92672229.158 7        44.500          42.800          43.000          42.700
R05  21303811.664 7  21303811.539 7  21303814.313 7  21303814.488 7 113881079.600 7 113881325.615 7  88574360.717 7  88574276.706 7        46.500          45.300          44.800          44.400
R06  23558644.320 5  23558642.668 5                                 125713446.645 5 125713458.647 5                                        35.800          33.800
R13  21981760.773 6  21981759.820 6  21981763.609 6  21981763.977 6 117381376.003 6 117381371.023 6  91296620.812 6  91296495.795 6        39.600          38.100          38.600          38.200
R14  19486131.008 8  19486130.160 8  19486134.043 8  19486133.652 7 103872038.223 8 103872041.227 8  80789365.225 8  80789457.214 7        50.500          48.900          48.200          47.500
R15  21211736.641 7  21211736.918 7  21211739.430 7  21211739.348 7 113349088.141 7 113349088.145 7  88160403.141 7  88160746.131 7        46.300          45.500          44.700          44.700
R17  23592467.211 6  23592465.980 6  23592471.551 6  23592471.270 6 126248070.791 6 126248066.804 6  98192939.145 6  98192951.143 6        39.700          38.900          38.100          37.800
R22  24462700.367 5  24462699.039 5  24462703.605 6  24462703.594 5 130583550.045 5 130583533.049 5 101564973.870 6 101564997.856 5        34.700          33.700          36.300          34.700
R23  20821369.219 8  20821368.234 7  20821373.477 6  20821373.918 6 111380285.996 8 111380281.008 7  86629108.184 6  86629196.180 6        48.500          47.000          40.600          39.500
R24  20938493.008 7  20938493.121 6  20938494.809 5  20938494.969 5 111967542.156 7 111967534.166 6  87085855.572 5  87086253.566 5        43.600          41.500          32.900          31.800
S27  39189689.156 5  39189682.887 6 205943208.28015                        31.000          37.800
S28  40855078.641 5  40855059.559 6 214694870.364 5                        31.900          38.600
S36  38330876.422 6  38330864.262 7 201430110.934 6 150418611.984 7        41.200          42.600
> 2019 03 21 12 12 30.0000000  0 45
C05  39417473.133 6  39417463.766 6  39417468.730 6 205257121.578 6 166788188.153 6 158717809.741 6        36.200          40.400          39.900
C08  38952152.969 6  38952140.168 6  38952147.461 6 202834081.014 6 164819334.267 6 156844181.835 6        40.800          41.800          41.600
C10  40811978.492 6  40811967.359 5  40811976.699 5 212518675.913 6 172688790.531 5 164332913.663 5        36.600          34.800          35.600
C13  39120965.406 7  39120958.445 6  39120967.047 6 203713135.163 7 165533580.535 6 157523924.800 6        42.200          40.900          40.400
C14  24797076.953 7  24797064.887 7  24797073.344 7 129124885.936 7 104924547.996 7  99847533.664 7        42.000          42.600          42.200
C21  25446890.867 7  25446880.078 7                 132508634.003 7 107674069.630 7                        43.200          42.600
C26  23900593.203 7  23900586.520 7                 124456664.975 7 101131205.046 7                        45.000          44.200
C29  22932669.289 8  22932661.172 7                 119416431.514 8  97035596.423 7                        49.400          45.800
C30  23782155.727 7  23782150.488 7                 123839927.418 7 100630060.684 7                        46.300          44.500
E02  27631016.820 7  27631021.762 6  27631011.918 7  27631020.801 6  27631021.895 7 145201980.485 7 108430070.069 6 117858722.687 7 111258674.960 6 109844377.111 7        42.000          41.900          43.400          41.700          44.100
E03  25236061.758 7  25236065.684 7  25236054.594 8  25236065.008 7  25236066.129 8 132616398.305 7  99031739.090 7 107643147.144 8 101615175.391 7 100323460.347 8        47.600          46.000          48.900          45.400          48.500
E05  26575191.188 7  26575196.730 7  26575184.039 7  26575196.035 7  26575197.086 7 139653565.900 7 104286771.396 7 113355131.935 7 107007294.644 7 105647035.617 7        43.600          43.600          46.200          43.600          46.200
E08  25037742.602 7  25037745.324 6  25037738.168 7  25037745.500 7  25037746.117 7 131574226.490 7  98253480.835 6 106797235.100 7 100816613.953 7  99535046.993 7        42.600          41.300          45.500          42.600          44.400
E11  25413961.805 6  25413963.777 6  25413952.980 6  25413963.059 6  25413963.973 7 133551276.971 6  99729854.709 6 108401968.191 6 102331501.562 6 101030680.736 7        39.900          39.400          41.500          39.700          42.400
E12  23715545.844 7  23715547.242 7  23715536.297 7  23715546.625 7  23715547.523 7 124626033.911 7  93064896.122 7 101157454.402 7  95492675.700 7  94278786.012 7        42.100          42.600          45.600          42.800          45.600
E24  22143868.430 8  22143882.793 8  22143853.934 8  22143882.000 8  22143883.207 8 116366812.135 8  86897350.964 8  94453519.691 8  89164234.971 8  88030795.571 8        50.400          49.800          53.300          49.100          52.500
E25  23241567.719 8  23241572.148 8  23241560.531 9  23241571.477 8  23241572.641 8 122135268.505 8  91204921.300 8  99135733.918 9  93584178.676 8  92394552.587 8        49.500          49.800          54.000          49.300          52.600
E31  27814093.211 5  27814099.410 6                  27814098.961 6  27814099.832 7 146164043.60915 109148474.11016                 111995825.83016 110572150.08217        32.900          40.600                          40.400          43.400
E33  26774389.734 7  26774392.684 7  26774383.328 7  26774391.984 6  26774393.043 7 140700366.867 7 105068455.633 7 114204810.394 7 107809370.727 6 106438913.781 7        43.000          42.600          44.000          41.800          44.900
G02  25654055.375 5  25654059.148 2                                 134812954.086 5 105049080.369 2                                        33.500          16.300
G06  24655166.219 6  24655173.977 3  24655173.855 6  24655175.027 6 129563764.822 6 100958823.299 3 100958787.311 6  96752170.358 6        40.800          22.000          37.100          40.400
G10  24702190.430 6  24702197.551 3  24702197.832 6  24702196.434 6 129810879.753 6 101151364.218 3 101151366.254 6  96936718.522 6        38.900          20.400          37.300          39.500
G12  21129031.133 8  21129035.086 6  21129035.109 7                 111033810.768 8  86519869.091 6  86519870.103 7                        50.800          38.300          43.600
G13  24494277.742 6  24494283.758 3                                 128718289.455 6 100299985.393 3                                        40.300          21.300
G15  22944767.742 7  22944772.223 5  22944772.227 6                 120575561.883 7  93955000.980 5  93955002.976 6                        47.000          32.000          41.300
G17  22628125.070 8  22628128.805 5  22628128.852 7                 118911595.834 8  92658403.065 5  92658404.076 7                        48.500          33.600          42.300
G19  21072536.852 8  21072538.695 6                                 110736928.312 8  86288523.637 6                                        48.300          38.100
G24  20184870.508 8  20184877.250 7  20184877.477 8  20184877.750 9 106072213.210 8  82653697.076 7  82653699.080 8  79209795.100 9        52.100          43.900          48.800          55.400
G25  24356910.109 6  24356918.078 3  24356918.066 6  24356919.129 7 127996463.755 6  99737519.209 3  99737482.222 6  95581753.375 7        38.600          20.400          38.100          42.900
G28  25564611.898 5                                                                                                                        31.600
G32  25061450.383 6  25061457.117 3  25061456.824 5  25061456.125 6 131698842.819 6 102622473.583 3 102622445.604 5  98346520.566 6        38.900          18.600          35.100          39.300
I02  37592524.320 6 147521136.489 6        40.100
I03  40904509.070 6 160518078.207 6        38.600
I06  38232161.023 6 150031244.326 6        40.600
R04  22271797.063 7  22271796.090 6  22271800.348 7  22271800.219 6 119264454.551 7 119264451.576 6  92761239.752 7  92761054.754 6        43.700          41.000          42.200          41.400
R05  21308103.258 7  21308100.738 7  21308104.766 7  21308103.855 7 113904008.539 7 113904254.540 7  88592194.315 7  88592110.311 7        47.500          42.600          43.700          42.500
R13  21998287.148 6  21998285.352 6  21998289.984 6  21998289.746 6 117469622.675 6 117469617.687 6  91365257.071 6  91365132.054 6        39.700          37.500          37.900          38.200
R14  19487815.109 8  19487814.125 7  19487817.855 7  19487817.582 7 103881014.599 8 103881017.592 7  80796346.844 7  80796438.835 7        50.700          45.600          45.300          44.800
R15  21196851.789 7  21196851.523 7  21196854.719 7  21196854.441 7 113269547.419 7 113269547.446 7  88098538.160 7  88098881.148 7        46.700          42.500          43.000          43.000
R17  23566715.344 6  23566713.734 6  23566718.723 6  23566719.082 6 126110266.203 6 126110262.193 6  98085757.930 6  98085769.939 6        39.200          37.400          38.600          37.800
R22  24485250.531 6  24485249.430 6  24485253.699 6  24485254.219 6 130703927.605 6 130703910.619 6 101658600.803 6 101658624.807 6        37.900          36.900          38.100          37.500
R23  20825892.461 8  20825889.961 7  20825895.063 6  20825895.992 6 111404476.832 8 111404471.837 7  86647923.282 6  86648011.278 6        48.300          43.200          39.500          39.100
R24  20922215.023 7  20922213.672 6  20922216.605 5  20922215.520 5 111880488.843 7 111880480.853 6  87018146.452 5  87018545.474 5        42.700          40.600          32.700          32.700
S28  40855088.688 5  40855074.695 6 214694919.589 5                        31.900          37.100
S36  38330883.391 6  38330871.852 7 201430150.788 6 150418638.437 7        41.300          42.000
> 2019 03 21 12 13 00.0000000  0 48
C05  39417144.703 6  39417135.605 6  39417140.691 6 205255412.776 6 166786799.604 6 158716488.375 6        36.400          40.900          39.700
C08  38947196.992 6  38947183.707 7  38947191.023 6 202808271.910 6 164798362.278 7 156824224.621 6        40.600          42.600          41.600
C10  40816457.219 6  40816446.453 5  40816455.398 6 212541996.949 6 172707740.772 5 164350946.951 6        36.600          34.800          36.200
C13  39111970.469 7  39111963.672 6  39111972.094 6 203666297.156 7 165495520.850 6 157487706.721 6        42.000          41.800          40.300
C14  24802467.969 7  24802455.816 7  24802463.859 7 129152957.003 7 104947358.028 7  99869239.971 7        42.800          44.100          43.500
C21  25463082.234 7  25463071.102 7                 132592945.135 7 107742579.299 7                        43.200          43.100
C26  23886325.852 7  23886318.680 7                 124382369.328 7 101070833.785 7                        45.000          45.100
C29  22921976.500 8  22921967.914 7                 119360748.233 8  96990349.218 7                        49.600          46.600
C30  23789661.516 7  23789655.918 7                 123879009.700 7 100661818.251 7                        46.600          44.900
E02  27617164.813 6  27617169.438 7  27617159.684 7  27617168.605 7  27617169.816 7 145129188.063 6 108375712.157 7 117799637.991 7 111202899.018 7 109789310.189 7        41.700          42.200          43.000          42.200          44.900
E03  25242266.094 7  25242270.063 7  25242258.910 8  25242269.656 7  25242270.582 8 132649002.916 7  99056086.675 7 107669611.921 8 101640158.139 7 100348125.511 8        47.600          46.000          49.000          45.500          48.500
E05  26592281.867 7  26592287.418 7  26592274.672 7  26592286.738 7  26592287.762 7 139743377.681 7 104353838.566 7 113428031.073 7 107076111.405 7 105714977.596 7        43.400          44.100          46.000          43.900          47.000
E08  25029122.461 7  25029125.434 7  25029117.906 7  25029124.453 7  25029125.801 7 131528926.398 7  98219652.835 7 106760465.573 7 100781903.487 7  99500777.771 7        43.300          42.900          45.600          42.800          45.700
E11  25396301.297 6  25396303.004 6  25396292.590 6  25396302.578 6  25396303.520 7 133458471.157 6  99660551.776 6 108326638.878 6 102260390.707 6 100960473.839 7        39.800          39.100          41.200          39.600          42.900
E12  23707918.555 7  23707919.348 7  23707908.660 7  23707919.211 7  23707919.805 7 124585950.092 7  93034963.416 7 101124918.854 7  95461962.134 7  94248462.882 7        42.300          43.700          45.400          43.400          46.200
E24  22151222.125 8  22151236.281 8  22151207.680 8  22151235.945 8  22151236.820 8 116405455.583 8  86926208.075 8  94484886.125 8  89193844.876 8  88060029.085 8        50.900          49.900          53.300          49.200          52.600
E25  23235622.195 8  23235625.586 8  23235614.207 9  23235625.434 8  23235626.250 8 122104019.981 8  91181586.382 8  99110369.877 9  93560235.019 8  92370913.301 8        50.200          49.900          54.000          49.400          52.700
E31  27828175.023 5  27828181.297 6  27828167.992 6  27828180.910 6  27828181.855 7 146238042.683 5 109203734.563 6 118699683.558 6 112052527.880 6 110628131.324 7        35.800          41.200          41.400          40.900          44.400
E33  26781504.156 7  26781506.824 7  26781497.930 7  26781506.465 7  26781507.441 7 140737753.097 7 105096373.903 7 114235156.364 7 107838017.315 7 106467196.213 7        42.700          43.000          43.900          43.200          46.000
G01  25623315.063 5                  25623322.430 5  25623321.777 7 134651363.351 5                 104923196.494 5 100551396.571 7        34.900                          35.600          42.200
G02  25637670.008 5  25637674.469 2                                 134726850.087 5 104981986.586 2                                        35.400          16.300
G06  24638350.313 6  24638358.422 3  24638358.754 6  24638359.473 6 129475399.998 6 100889967.654 3 100889931.680 6  96686183.687 6        40.600          22.200          36.800          40.500
G10  24711636.000 6  24711644.250 3  24711643.504 6  24711641.953 6 129860519.834 6 101190044.778 3 101190046.795 6  96973787.411 6        38.000          20.100          37.300          38.700
G12  21116294.820 8  21116298.961 6  21116299.180 7                 110966881.320 8  86467716.308 6  86467717.305 7                        50.700          38.600          44.100
G13  24516739.570 6  24516745.043 3                                 128836324.221 6 100391960.455 3                                        41.000          20.900
G15  22963627.570 7  22963632.387 5  22963632.566 7                 120674672.995 7  94032230.378 5  94032232.362 7                        46.900          31.200          42.000
G17  22639934.125 8  22639938.125 5  22639938.234 7                 118973653.316 8  92706759.546 5  92706760.544 7                        48.200          34.500          42.200
G19  21074686.258 8  21074688.039 6                                 110748222.873 8  86297324.604 6                                        48.300          38.700
G24  20183652.641 8  20183658.848 7  20183659.141 8  20183659.164 9 106065809.850 8  82648707.450 7  82648709.447 8  79205013.376 9        51.400          44.100          49.300          55.400
G25  24337526.688 6  24337534.121 3  24337534.887 6  24337535.156 7 127894600.309 6  99658145.205 3  99658108.217 6  95505686.633 7        39.900          21.800          38.500          42.400
G28  25581771.766 5                                                 134433103.88315                                                        32.300
G32  25042831.438 6  25042838.547 3  25042838.633 5  25042837.914 6 131601000.154 6 102546232.560 3 102546204.564 5  98273456.219 6        36.800          20.100          35.700          40.700
I02  37595245.672 6 147531816.394 6        39.800
I03  40904629.570 6 160518551.447 6        38.300
I06  38232589.023 6 150032922.386 6        39.800
R04  22293186.688 7  22293186.621 6  22293190.496 7  22293190.211 7 119378997.715 7 119378994.721 6  92850328.812 7  92850143.822 7        44.000          41.600          42.200          42.100
R05  21312542.672 7  21312542.305 7  21312545.242 7  21312544.730 7 113927748.308 7 113927994.316 7  88610658.568 7  88610574.571 7        47.400          43.900          44.100          43.900
R06  23525789.328 5  23525786.918 5                                 125538122.855 5 125538131.845 5                                        35.800          34.600
R13  22014847.813 6  22014845.793 6  22014850.742 6  22014850.191 6 117558054.695 6 117558049.690 6  91434037.468 6  91433912.460 6        39.000          37.200          38.100          37.700
R14  19489571.727 8  19489570.430 7  19489574.891 7  19489574.051 7 103890377.807 8 103890380.817 7  80803629.339 7  80803721.334 7        50.700          46.600          46.600          45.600
R15  21182002.898 7  21182004.172 7  21182007.063 7  21182007.188 7 113190207.033 7 113190207.038 7  88036828.984 7  88037171.988 7        47.100          43.700          44.300          44.000
R17  23540971.742 6  23540969.199 6  23540973.910 6  23540974.680 6 125972503.365 6 125972499.369 6  97978609.216 6  97978621.203 6        38.700          37.300          38.700          37.700
R22  24507856.492 6  24507855.859 6  24507860.246 6  24507859.902 6 130824600.154 6 130824583.171 6 101752457.243 6 101752481.246 6        38.700          37.500          36.900          36.400
R23  20830570.000 8  20830569.918 7  20830574.832 6  20830575.516 6 111429508.828 8 111429503.832 7  86667392.609 6  86667480.627 6        48.400          44.500          40.000          39.700
R24  20906054.117 7  20906053.844 6  20906054.410 5  20906055.340 5 111794075.011 7 111794067.028 6  86950934.784 5  86951334.774 5        43.500          41.100          33.100          32.200
S27  39189790.141 5  39189790.934 6 205943769.117 5                        30.500          37.700
S28  40855101.219 5  40855084.727 6 214694993.919 5                        31.800          37.500
S36  38330890.719 6  38330879.395 7 201430190.963 6 150418672.855 7        41.300          42.400
> 2019 03 21 12 13 30.0000000  0 46
C05  39416815.758 6  39416807.457 6  39416812.125 6 205253703.457 6 166785410.638 6 158715166.622 6        36.100          40.600          39.700
C08  38942277.383 6  38942263.953 6  38942270.824 6 202782652.847 6 164777544.701 6 156804414.346 6        40.700          41.800          41.100
C10  40820933.430 5  40820923.113 5  40820932.063 6 212565308.461 5 172726683.269 5 164368972.871 6        35.500          35.000          36.000
C13  39103002.859 7  39102996.324 6  39103004.477 6 203619601.367 7 165457576.716 6 157451598.595 6        42.600          41.200          39.600
C14  24807945.508 7  24807934.535 7  24807942.738 7 129181485.229 7 104970539.528 7  99891299.788 7        42.400          42.900          42.300
C21  25479301.758 7  25479291.113 7                 132677405.848 7 107811210.507 7                        42.300          42.700
C26  23872081.375 7  23872073.863 7                 124308192.427 7 101010558.993 7                        44.900          44.000
C29  22911366.516 8  22911357.945 7                 119305499.236 8  96945454.898 7                        49.600          46.200
C30  23797258.070 7  23797252.391 7                 123918566.541 7 100693961.423 7                        46.400          44.300
E02  27603320.898 6  27603325.344 6  27603315.641 7  27603324.766 7  27603325.680 7 145056437.081 6 108321385.235 6 117740586.937 7 111147154.852 7 109734274.648 7        41.900          41.600          42.700          42.700          44.700
E03  25248548.188 7  25248551.996 7  25248540.961 8  25248551.551 7  25248552.559 8 132682014.790 7  99080738.387 7 107696407.263 8 101665452.942 7 100373098.768 8        47.800          46.100          48.800          45.600          48.800
E05  26609392.914 7  26609398.563 7  26609386.012 7  26609398.055 7  26609399.008 7 139833297.605 7 104420986.498 7 113501017.967 7 107145011.015 7 105783001.356 7        42.600          43.800          46.000          43.300          46.700
E08  25020573.398 7  25020576.023 7  25020568.711 7  25020576.250 7  25020576.789 7 131484000.576 7  98186104.352 7 106723999.825 7 100747479.851 7  99466791.706 7        42.800          42.700          45.200          42.600          45.600
E11  25378654.688 6  25378656.262 6  25378645.770 6  25378655.578 6  25378656.547 6 133365736.003 6  99591301.588 6 108251366.901 6 102189333.977 6 100890320.392 6        39.100          39.200          41.300          39.100          41.900
E12  23700367.359 7  23700368.547 7  23700357.859 7  23700368.203 7  23700368.934 7 124546270.053 7  93005332.256 7 101092711.055 7  95431557.988 7  94218445.226 7        42.000          42.900          45.700          42.600          45.900
E24  22158606.000 8  22158620.344 8  22158591.609 8  22158619.863 8  22158620.746 8 116444258.367 8  86955184.171 8  94516381.893 8  89223576.875 8  88089383.129 8        50.700          49.700          53.300          49.400          52.400
E25  23229709.836 8  23229713.176 8  23229701.609 9  23229712.883 8  23229713.699 8 122072949.429 8  91158384.356 8  99085150.278 9  93536427.724 8  92347408.644 8        50.200          49.800          54.000          49.500          52.600
E31  27842259.148 5  27842265.457 6                  27842264.430 6  27842265.727 7 146312053.627 5 109259002.397 6                 112109237.510 6 110684120.053 7        31.800          40.600                          41.200          43.700
E33  26788696.805 7  26788699.375 7  26788690.313 7  26788698.922 7  26788699.852 7 140775549.468 7 105124598.483 7 114265835.237 7 107866978.182 7 106495788.941 7        42.400          42.700          43.800          42.100          45.400
G02  25621269.492 6  25621274.344 3                                 134640664.606 6 104914829.097 3                                        41.600          22.500
G06  24621563.555 6  24621572.367 3  24621573.031 6  24621573.340 6 129387187.287 6 100821230.509 3 100821194.510 6  96620310.632 6        40.800          22.800          37.600          40.900
G10  24721162.734 6  24721169.395 3  24721169.461 6  24721167.441 6 129910577.818 6 101229050.930 3 101229052.967 6  97011168.304 6        39.200          19.900          36.500          38.100
G12  21103626.430 8  21103630.406 6  21103630.531 7                 110900308.362 8  86415841.303 6  86415842.300 7                        50.500          37.100          43.900
G13  24539211.242 6  24539216.988 3                                 128954414.867 6 100483979.057 3                                        39.000          21.700
G15  22982532.969 7  22982537.789 5  22982537.805 6                 120774020.308 7  94109643.815 5  94109645.806 6                        46.300          31.100          41.400
G17  22651824.906 7  22651828.609 5  22651828.281 7                 119036139.349 7  92755449.957 5  92755450.952 7                        47.300          33.700          42.200
G19  21076962.719 7  21076964.602 6                                 110760186.674 7  86306647.065 6                                        47.800          37.900
G24  20182520.250 8  20182526.828 7  20182527.000 8  20182527.141 9 106059860.850 8  82644071.859 7  82644073.870 8  79200570.935 9        51.700          43.800          49.200          55.400
G25  24318167.547 6  24318175.363 3  24318175.750 6  24318175.992 7 127792869.603 6  99578874.636 3  99578837.630 6  95429719.008 7        39.600          21.100          38.400          42.600
G28  25598922.375 5  25598927.680 2                                 134523233.502 5 104823330.693 2                                        34.800          17.800
G32  25024259.547 6  25024265.699 3  25024265.430 6  25024265.313 6 131503401.349 6 102470181.555 3 102470153.568 6  98200574.041 6        37.100          19.000          36.000          40.700
I02  37597972.711 6 147542516.046 6        40.200
I03  40904749.969 6 160519021.203 6        39.400
I06  38233017.500 6 150034604.457 6        39.800
R04  22314639.023 7  22314638.910 6  22314643.816 7  22314642.914 6 119493874.730 7 119493871.738 6  92939677.545 7  92939492.555 6        43.600          41.300          42.000          41.200
R05  21317135.398 7  21317134.426 7  21317137.551 7  21317137.266 7 113952296.999 7 113952543.007 7  88629751.991 7  88629667.994 7        47.400          43.200          43.700          43.100
R06  23509516.188 5  23509515.539 5                                 125451291.992 5 125451300.996 5                                        35.900          34.400
R13  22031443.203 6  22031441.473 6  22031445.551 6  22031445.281 6 117646670.992 6 117646666.002 6  91502961.202 6  91502836.203 6        39.200          37.100          37.500          37.600
R14  19491400.023 8  19491399.508 7  19491403.023 7  19491403.094 7 103900127.381 8 103900130.383 7  80811212.341 7  80811304.337 7        50.700          46.200          45.300          45.100
R15  21167194.055 7  21167194.102 7  21167196.777 7  21167197.184 7 113111067.228 7 113111067.239 7  87975275.846 7  87975618.843 7        47.100          43.100          43.700          43.000
R17  23515233.859 6  23515233.527 6  23515238.910 6  23515238.973 6 125834785.838 6 125834781.877 6  97871495.710 6  97871507.700 6        38.800          37.100          39.400          38.100
R22  24530516.789 6  24530516.348 6  24530520.805 6  24530520.551 5 130945563.089 6 130945546.073 6 101846539.538 6 101846563.532 5        39.100          36.900          36.600          35.600
R23  20835407.141 8  20835406.016 7  20835410.707 6  20835412.000 6 111455380.419 8 111455375.430 7  86687514.962 6  86687602.980 6        49.000          44.100          39.600          38.900
R24  20890015.313 7  20890013.809 6  20890016.559 5  20890015.832 5 111708303.530 7 111708295.539 6                  86884623.663 5        43.200          39.900          32.200          31.400
S28  40855111.094 5  40855108.527 5 214695073.247 5                        31.500          34.700
S36  38330898.953 6  38330886.707 6 201430231.146 6 150418700.830 6        41.600          41.600
> 2019 03 21 12 14 00.0000000  0 44
C08  38937393.852 6  38937380.652 6  38937387.727 6 202757224.026 6 164756881.724 6 156784751.199 6        40.700          41.800          40.400
C10  40825408.578 5  40825398.125 5  40825406.977 6 212588610.247 5 172745617.861 5 164386991.258 6        35.100          35.500          36.200
C13  39094063.133 6  39094056.160 6  39094064.508 6 203573048.204 6 165419748.482 6 157415600.768 6        41.800          41.100          40.400
C14  24813513.148 7  24813500.215 7  24813508.809 7 129210469.476 7 104994091.586 7  99913712.218 7        42.500          42.800          42.700
C21  25495550.000 7  25495539.078 7                 132762013.683 7 107879961.254 7                        42.300          42.100
C26  23857859.281 7  23857851.703 7                 124234135.120 7 100950381.402 7                        44.800          44.900
C29  22900840.406 8  22900831.477 7                 119250686.226 8  96900914.860 7                        48.700          45.200
C30  23804945.445 7  23804939.633 7                 123958596.714 7 100726489.223 7                        46.200          44.300
E02  27589484.375 7  27589489.500 7  27589479.375 7  27589488.613 6  27589489.570 7 144983727.769 7 108267089.398 7 117681569.696 7 111091442.592 6 109679270.600 7        42.000          42.200          42.300          41.600          44.200
E03  25254907.648 7  25254911.328 7  25254900.266 8  25254910.984 7  25254911.879 8 132715433.088 7  99105693.604 7 107723532.499 8 101691059.164 7 100398379.485 8        47.000          45.700          48.800          44.900          48.500
E05  26626524.367 7  26626530.016 7  26626517.418 7  26626529.625 7  26626530.543 7 139923323.978 7 104488213.933 7 113574091.273 7 107213992.226 7 105851105.675 7        43.700          43.100          46.100          43.500          45.900
E08  25012096.102 7  25012098.879 7  25012091.070 7  25012098.059 7  25012099.102 7 131439450.394 7  98152836.398 7 106687838.979 7 100713344.012 7  99433089.808 7        44.100          42.100          44.800          42.300          44.800
E12  23692893.664 7  23692894.668 7  23692884.016 7  23692894.477 7  23692895.145 7 124506995.075 7  92976003.584 7 101060832.041 7  95401464.201 7  94188733.996 7        42.800          42.500          45.400          42.600          45.100
E24  22166020.305 8  22166034.234 8  22166005.918 8  22166034.234 8  22166034.973 8 116483220.286 8  86984279.115 8  94548006.822 8  89253430.811 8  88118857.572 8        50.300          49.600          53.200          49.100          52.400
E25  23223831.156 8  23223834.438 8  23223823.090 9  23223834.480 8  23223835.078 8 122042056.977 8  91135315.336 8  99060075.258 9  93512756.903 8  92324038.726 8        49.800          49.800          54.100          49.400          52.700
E33  26795967.422 7  26795969.758 6  26795960.703 7  26795969.324 6  26795970.156 7 140813755.084 7 105153128.643 6 114296846.290 7 107896252.618 6 106524691.233 7        43.000          41.900          43.900          41.800          44.500
G02  25604853.578 6  25604857.762 2                                 134554399.928 6 104847609.887 2                                        37.500          17.800
G06  24604807.141 6  24604815.281 3  24604815.723 6  24604816.008 6 129299129.943 6 100752614.469 3 100752578.491 6  96554553.596 6        40.500          22.000          37.500          40.400
G10  24730767.539 6  24730774.215 3  24730774.820 6  24730772.617 6 129961051.367 6 101268380.931 3 101268382.960 6  97048859.585 6        39.200          20.400          36.100          37.600
G12  21091026.383 8  21091030.133 6  21091030.426 7                 110834093.170 8  86364245.079 6  86364246.076 7                        50.500          38.400          43.200
G13  24561693.664 6  24561699.203 3                                 129072559.186 6 100576039.488 3                                        39.700          20.400
G15  23001482.695 7  23001487.363 5  23001487.258 6                 120873601.079 7  94187239.182 5  94187241.179 6                        46.800          31.800          41.300
G17  22663796.805 8  22663800.684 5  22663800.840 7                 119099051.422 8  92804472.354 5  92804473.354 7                        48.000          34.000          42.200
G19  21079366.641 8  21079368.633 6                                 110772819.014 8  86316490.463 6                                        48.200          37.500
G24  20181475.164 8  20181481.242 7  20181481.531 8  20181481.730 9 106054367.094 8  82639791.015 7  82639793.013 8  79196468.452 9        51.200          43.800          48.800          55.400
G25  24298833.750 6  24298842.328 3  24298842.750 6  24298842.883 7 127691272.731 6  99499708.353 3  99499671.380 6  95353851.367 7        39.200          22.800          39.300          42.700
G28  25616065.055 5  25616070.070 2                                 134613319.882 5 104893527.818 2                                        34.000          15.600
G32  25005733.344 6  25005740.621 3  25005740.625 6  25005740.215 6 131406049.294 6 102394322.838 3 102394294.859 6  98127876.089 6        38.600          21.100          36.400          40.400
I02  37600704.398 6 147553236.796 6        40.100
I03  40904868.523 6 160519487.503 6        38.700
I06  38233447.727 6 150036290.581 6        40.600
R04  22336154.109 7  22336153.484 6  22336157.570 7  22336156.977 6 119609080.810 7 119609077.820 6  93029282.214 7  93029097.225 6        43.700          41.000          42.100          41.200
R05  21321878.461 7  21321878.004 7  21321880.766 7  21321880.637 7 113977653.241 7 113977899.257 7  88649473.515 7  88649389.518 7        47.400          42.600          42.600          43.100
R06  23493348.547 5  23493347.031 5                                 125365019.819 5 125365028.81115                                        34.900          34.400
R13  22048073.719 6  22048070.625 6  22048076.000 6  22048074.863 6 117735471.386 6 117735466.361 6  91572028.118 6  91571903.132 6        39.900          36.600          38.100          37.400
R14  19493301.438 8  19493301.188 7  19493304.766 7  19493304.527 7 103910263.618 8 103910266.614 7  80819096.075 7  80819188.078 7        51.800          45.600          44.700          44.600
R15  21152421.898 7  21152422.367 7  21152424.883 7  21152425.121 7 113032129.474 7 113032129.485 7  87913879.829 7  87914222.834 7        46.900          42.300          43.400          42.800
R17  23489507.766 6  23489507.145 6  23489511.992 6  23489512.297 6 125697117.618 6 125697113.630 6  97764420.533 6  97764432.539 6        39.600          38.100          39.200          38.900
R22  24553231.094 6  24553230.027 6  24553232.676 5  24553234.516 6 131066812.310 6 131066795.308 6 101940844.45915 101940868.492 6        39.200          37.500          35.900          36.000
R23  20840400.414 8  20840399.684 7  20840404.160 6  20840405.082 6 111482090.003 8 111482085.001 7  86708289.098 6  86708377.108 6        48.500          43.200          40.200          38.800
R24  20874095.977 7  20874095.453 6                  20874096.906 5 111623178.469 7 111623170.478 6                  86818415.305 5        43.400          40.100                          32.800
S27  39189893.984 5  39189890.133 5 205944276.703 5                        31.300          34.500
S28  40855127.359 5  40855109.289 6 214695110.797 5                        32.200          36.800
S36  38330906.250 6  38330894.117 6 201430266.107 6 150418732.203 6        41.300          41.300
> 2019 03 21 12 14 30.0000000  0 47
C05  39416159.727 6  39416150.793 6  39416155.699 6 205250283.638 6 166782631.737 6 158712522.172 6        36.200          40.500          39.600
C08  38932547.133 6  38932533.711 7  38932541.035 6 202731985.435 6 164736373.309 7 156765235.126 6        41.000          42.200          41.300
C10  40829882.367 5  40829871.211 5  40829879.750 6 212611902.548 5 172764544.758 5 164405002.339 6        34.900          34.700          36.200
C13  39085150.703 7  39085143.438 7  39085152.215 6 203526637.951 7 165382036.352 7 157379713.425 6        42.300          42.000          40.100
C14  24819166.195 7  24819153.867 7  24819162.164 7 129239908.202 7 105018012.937 7  99936476.073 7        42.600          43.200          42.600
C21  25511826.086 6  25511814.793 6                 132846765.931 6 107948829.352 6                        41.600          41.700
C26  23843660.398 7  23843652.906 7                 124160198.087 7 100890301.515 7                        44.900          44.600
C29  22890397.633 8  22890389.250 7                 119196310.581 8  96856730.210 7                        49.900          45.400
C30  23812723.063 7  23812717.727 7                 123999098.637 7 100759400.352 7                        46.100          44.700
E02  27575656.602 7  27575660.746 6  27575651.031 7  27575660.340 6  27575661.215 7 144911060.001 7 108212824.596 6 117622586.171 7 111035762.189 6 109624297.990 7        42.400          41.900          42.000          41.900          44.400
E03  25261343.898 7  25261347.844 7  25261336.781 8  25261347.480 7  25261348.336 8 132749256.663 7  99130951.469 7 107750986.691 8 101716975.934 7 100423966.800 8        47.400          45.700          48.800          45.200          48.400
E05  26643675.734 7  26643681.387 7  26643668.988 7  26643681.094 7  26643681.914 7 140013454.641 7 104555519.214 7 113647249.230 7 107283053.290 7 105919288.854 7        43.300          43.400          46.200          43.500          46.000
E08  25003690.125 7  25003692.660 7  25003684.930 7  25003692.023 6  25003693.078 7 131395276.727 7  98119849.578 7 106651983.718 7 100679496.664 6  99399672.724 7        43.900          42.200          44.600          41.800          44.800
E11  25343402.273 6  25343404.090 6  25343393.418 6  25343403.625 6  25343404.477 7 133180486.696 6  99452965.475 6 108100998.498 6 102047389.091 6 100750179.877 7        39.300          39.100          41.100          39.400          42.400
E12  23685496.938 7  23685498.273 7  23685487.504 7  23685497.844 7  23685498.609 7 124468126.119 7  92946978.091 7 101029282.589 7  95371681.535 7  94159329.918 7        42.600          42.900          45.400          42.800          45.100
E18  28476172.953 5  28476179.410 5  28476167.906 5  28476178.348 5  28476179.863 6 149643304.267 5 111746653.913 5 121463694.166 5 114661778.339 5 113204219.734 6        31.800          34.700          34.300          34.900          38.700
E24  22173464.461 8  22173478.719 8  22173450.305 8  22173478.715 8  22173479.395 8 116522340.788 8  87013492.455 8  94579760.466 8  89283406.247 8  88148451.961 8        51.000          49.500          53.100          49.100          52.400
E25  23217986.398 8  23217989.801 8  23217978.379 8  23217989.609 8  23217990.320 8 122011342.511 8  91112379.234 8  99035144.693 8  93489222.462 8  92300803.449 8        50.200          49.800          53.900          49.400          52.700
E31  27870432.016 5  27870438.691 6  27870425.477 7  27870438.129 6  27870439.043 7 146460104.620 5 109369559.779 6 118879929.474 7 112222679.005 6 110796119.500 7        33.900          40.500          42.400          40.900          43.600
E33  26803314.688 7  26803317.699 7  26803308.332 7  26803317.297 7  26803318.082 7 140852368.615 7 105181963.417 7 114328188.437 7 107925839.595 7 106553902.107 7        43.100          42.100          43.700          42.400          44.800
G02  25588424.141 6  25588427.992 3                                 134468058.662 6 104780330.935 3                                        40.100          21.700
G06  24588079.898 6  24588088.848 3  24588089.590 6  24588090.000 6 129211230.863 6 100684121.771 3 100684085.783 6  96488914.762 6        40.100          21.700          38.400          41.400
G10  24740450.406 6  24740457.641 3  24740457.418 5  24740456.242 6 130011937.874 6 101308032.768 3 101308034.767 5  97086859.213 6        39.600          20.100          35.700          38.600
G12  21078494.406 8  21078497.832 6  21078498.074 7                 110768235.780 8  86312927.655 6  86312928.659 7                        49.700          38.000          44.300
G13  24584185.766 6  24584191.316 3                                 129190754.430 6 100668139.600 3                                        38.500          20.600
G15  23020475.711 7  23020480.621 5  23020480.723 6                 120973412.154 7  94265013.992 5  94265015.995 6                        46.200          31.400          41.200
G17  22675849.078 7  22675853.121 5  22675853.137 7                 119162387.531 7  92853825.153 5  92853826.153 7                        47.500          34.300          42.000
G19  21081897.883 8  21081899.363 6                                 110786119.068 8  86326854.143 6                                        48.100          37.500
G24  20180516.445 8  20180522.660 7  20180522.879 8  20180522.891 9 106049328.747 8  82635865.025 7  82635867.030 8  79192706.059 9        50.700          43.600          48.800          55.400
G25  24279526.617 6  24279534.262 3  24279535.023 6  24279535.164 7 127589810.463 6  99420646.985 3  99420609.984 6  95278084.236 7        39.800          22.200          39.100          43.000
G28  25633199.578 6  25633204.707 3                                 134703362.627 6 104963690.997 3                                        39.500          21.500
G32  24987255.422 6  24987262.375 3  24987262.766 6  24987261.285 6 131308946.323 6 102318658.201 3 102318630.204 6  98055364.149 6        39.400          22.200          38.700          40.600
I02  37603441.539 6 147563979.008 6        39.800
I03  40904985.938 6 160519950.213 6        39.200
I06  38233877.820 6 150037980.524 6        40.100
R04  22357728.648 7  22357727.719 6  22357731.852 6  22357731.551 6 119724611.522 7 119724608.543 6  93119139.379 6  93118954.383 6        44.000          41.300          41.700          41.300
R05  21326772.258 7  21326771.641 7  21326775.184 7  21326774.875 7 114003815.391 7 114004061.421 7  88669821.850 7  88669737.846 7        46.900          43.200          43.600          43.300
R06  23477288.555 6  23477286.012 6                                 125279310.048 6 125279319.042 6                                        37.700          36.000
R13  22064735.633 6  22064734.551 6  22064739.754 6  22064738.449 6 117824454.197 6 117824449.194 6  91641236.935 6  91641111.934 6        38.900          37.500          37.400          37.200
R14  19495275.398 8  19495275.309 7  19495279.160 7  19495278.648 7 103920786.236 8 103920789.231 7  80827280.336 7  80827372.333 7        50.500          45.500          45.000          45.100
R15  21137688.203 7  21137688.035 7  21137690.676 7  21137690.711 7 112953394.133 7 112953394.153 7  87852641.276 7  87852984.265 7        47.000          42.800          43.500          42.800
R17  23463791.930 6  23463789.773 6  23463795.094 6  23463795.570 6 125559502.643 6 125559498.629 6  97657386.770 6  97657398.771 6        39.900          38.300          39.700          39.400
R22  24575998.617 6  24575997.055 6  24575999.090 5  24576001.023 5 131188343.435 6 131188326.440 6 102035368.713 5 102035392.764 5        37.000          36.000          31.200          31.200
R23  20845550.508 8  20845548.695 7  20845553.727 6  20845554.574 6 111509636.062 8 111509631.059 7  86729713.823 6  86729801.818 6        49.200          43.900          39.700          38.500
R24  20858298.836 7  20858297.859 6  20858299.297 5  20858299.496 5 111538703.796 7 111538695.813 6  86752308.814 5  86752712.820 5        43.600          39.900          32.900          32.900
S27  39189945.141 5  39189941.328 6 205944552.624 5                        31.500          38.200
S36  38330914.938 6  38330901.902 6 201430302.199 6 150418762.929 6        41.300          41.700
> 2019 03 21 12 15 00.0000000  0 47
C05  39415831.250 6  39415822.281 6  39415827.148 6 205248573.221 6 166781241.873 6 158711199.560 6        36.300          40.600          39.600
C08  38927736.281 6  38927723.414 7  38927730.934 6 202706937.561 6 164716019.872 7 156745866.534 6        41.000          42.000          41.100
C10  40834353.031 5  40834342.473 5  40834351.512 6 212635185.753 5 172783464.243 5 164423006.362 6        34.400          34.900          36.100
C13  39076264.852 6  39076258.480 6  39076267.102 6 203480371.423 6 165344441.021 6 157343937.233 6        41.400          41.200          40.100
C14  24824906.414 7  24824894.570 7  24824902.891 7 129269800.581 7 105042302.920 7  99959590.730 7        42.600          42.700          42.500
C21  25528129.188 6  25528118.020 6                 132931660.333 6 108017812.960 6                        41.600          41.100
C26  23829484.977 7  23829477.441 7                 124086382.523 7 100830320.355 7                        44.900          44.500
C29  22880040.219 8  22880031.320 7                 119142374.278 8  96812902.569 7                        49.100          45.500
C30  23820591.859 7  23820586.027 7                 124040071.453 7 100792694.119 7                        46.600          44.300
E02  27561836.586 7  27561840.484 6  27561830.770 7  27561839.672 6  27561840.926 7 144838434.273 7 108158591.173 6 117563636.770 7 110980113.960 6 109569357.176 7        42.300          41.400          42.500          41.900          44.200
E03  25267857.273 7  25267861.219 7  25267849.988 8  25267860.578 7  25267861.723 8 132783484.942 7  99156511.511 7 107778769.377 8 101743202.772 7 100449860.244 8        47.000          45.700          48.700          44.900          48.500
E05  26660846.648 7  26660852.340 7  26660839.719 7  26660851.785 7  26660852.777 7 140103688.048 7 104622901.242 7 113720490.589 7 107352193.129 7 105987549.802 7        42.800          43.100          46.200          43.200          45.700
E08  24995356.500 7  24995358.703 6  24995351.109 7  24995358.156 7  24995359.004 7 131351481.313 7  98087145.213 6 106616435.491 7 100645939.139 7  99366541.779 7        43.400          41.400          45.100          42.100          44.200
E11  25325798.102 5  25325799.887 6                  25325799.270 6  25325800.137 6 133087976.77715  99383882.70716                 101976504.15316 100680196.03316        34.900          39.100                          38.900          41.900
E12  23678178.289 7  23678179.172 7  23678168.379 7  23678178.813 7  23678179.586 7 124429664.726 7  92918256.965 7 100998063.952 7  95342211.157 7  94130234.157 7        42.300          42.700          45.500          42.700          45.600
E18  28442493.219 4  28442500.172 5                  28442498.742 5  28442500.172 6 149466319.11114 111614489.02215                 114526165.63515 113070330.91716        29.000          34.800                          35.000          38.500
E24  22180939.508 8  22180953.387 8  22180924.809 8  22180952.918 8  22180953.918 8 116561619.939 8  87042824.286 8  94611642.884 8  89313503.256 8  88178166.375 8        50.200          49.500          53.200          49.100          52.400
E25  23212175.727 8  23212178.988 8  23212167.543 8  23212178.395 8  23212179.457 8 121980806.514 8  91089576.396 8  99010358.990 8  93465824.758 8  92277703.186 8        50.000          49.800          53.900          49.400          52.700
E31  27884521.922 5  27884528.035 6                  27884527.313 6  27884528.363 7 146534147.51215 109424849.217 6                 112279410.782 6 110852130.103 7        30.400          41.100                          40.900          43.900
E33  26810740.367 7  26810743.055 7  26810733.891 7  26810742.641 6  26810743.492 7 140891389.358 7 105211102.266 7 114359861.114 7 107955738.588 6 106583421.032 7        42.900          42.400          43.800          41.900          44.800
G02  25571978.688 6  25571984.383 3                                 134381643.537 6 104712994.416 3                                        39.300          21.500
G06  24571384.625 6  24571392.684 3  24571393.508 6  24571393.539 6 129123493.558 6 100615755.126 3 100615719.153 6  96423396.765 6        38.900          22.600          38.800          41.300
G10  24750212.992 6  24750219.281 3  24750218.266 5  24750218.313 6 130063235.302 6 101348004.776 3 101348006.788 5  97125165.693 6        40.500          19.300          35.000          38.900
G12  21066030.383 8  21066033.953 6  21066034.102 7                 110702737.635 8  86261890.169 6  86261891.165 7                        49.300          37.300          43.600
G13  24606687.398 6  24606692.742 3                                 129308998.862 6 100760278.000 3                                        39.000          20.400
G15  23039512.750 7  23039517.832 5  23039517.699 6                 121073451.482 7  94342966.668 5  94342968.672 6                        46.200          31.400          41.400
G17  22687981.867 8  22687985.629 5  22687986.047 7                 119226145.883 8  92903506.977 5  92903507.977 7                        48.300          34.000          42.100
G19  21084555.352 8  21084557.273 6                                 110800086.569 8  86337737.920 6                                        48.600          37.700
G24  20179644.539 8  20179650.902 7  20179650.871 8  20179651.172 9 106044747.404 8  82632295.146 7  82632297.150 8  79189284.923 9        50.400          43.600          48.900          55.400
G25  24260244.016 6  24260252.289 3  24260253.035 6  24260253.305 7 127488484.230 6  99341691.589 3  99341654.592 6  95202418.685 7        40.700          22.500          38.800          43.200
G28  25650325.938 6  25650330.191 3                                 134793361.373 6 105033819.902 3                                        39.800          19.900
G32  24968825.008 6  24968832.285 3  24968833.055 6  24968831.301 6 131212095.462 6 102243190.064 3 102243162.067 6  97983040.492 6        39.800          23.000          38.300          41.400
I02  37606184.977 6 147574743.111 6        40.100
I03  40905103.203 6 160520409.565 6        38.800
I06  38234309.367 6 150039674.635 6        40.000
R04  22379362.156 7  22379362.184 6  22379366.473 6  22379365.793 6 119840462.443 7 119840459.449 6  93209245.571 6  93209060.590 6        43.400          40.800          41.700          41.200
R05  21331816.578 7  21331815.957 7  21331819.914 7  21331819.473 7 114030782.013 7 114031028.021 7  88690795.859 7  88690711.870 7        46.300          42.700          43.300          42.500
R06  23461329.500 6  23461328.730 5                                 125194165.835 6 125194174.834 5                                        36.700          34.700
R13  22081434.063 6  22081432.008 6  22081436.250 6  22081436.316 6 117913619.716 6 117913614.700 6  91710587.842 6  91710462.853 6        39.700          37.000          37.900          36.900
R14  19497322.375 8  19497321.613 7  19497325.563 7  19497325.258 7 103931696.060 8 103931699.060 7  80835765.761 7  80835857.750 7        50.500          45.500          45.000          44.100
R15  21122991.766 7  21122991.715 7  21122994.043 7  21122994.672 7 112874862.937 7 112874862.949 7  87791561.469 7  87791904.465 7        47.000          42.300          43.200          43.200
R17  23438084.539 6  23438084.313 6  23438088.848 6  23438089.406 6 125421945.063 6 125421941.060 6  97550397.660 6  97550409.648 6        40.900          38.400          39.800          39.300
R23  20850855.336 8  20850854.160 7  20850859.012 6  20850860.031 6 111538017.859 8 111538012.870 7  86751788.557 6  86751876.554 6        48.400          43.300          39.400          39.000
R24  20842622.922 7  20842623.230 6  20842625.270 5  20842624.570 5 111454883.144 7 111454875.154 6  86687115.991 5  86687519.013 5        43.500          39.900          33.200          32.700
S27  39189996.734 5  39189998.984 5 205944822.478 5                        32.800          35.900
S28  40855149.953 5  40855134.418 6 214695243.282 5                        32.600          37.300
S36  38330920.859 6  38330909.570 6 201430343.314 6 150418789.168 6        40.900          41.500
> 2019 03 21 12 15 30.0000000  0 47
C05  39415502.945 6  39415493.715 6  39415498.496 6 205246862.324 6 166779851.615 6 158709876.566 6        36.500          40.500          39.000
C08  38922963.461 6  38922949.813 7  38922957.574 6 202682080.177 6 164695821.213 7 156726645.236 6        40.900          42.700          41.400
C10  40838823.039 5  40838811.777 5  40838820.848 6 212658459.691 5 172802376.209 5 164441003.227 6        35.000          35.900          37.000
C13  39067408.445 7  39067400.840 6  39067409.859 6 203434248.571 7 165306962.427 6 157308272.122 6        42.000          40.900          39.700
C14  24830733.586 7  24830721.625 7  24830730.160 7 129300144.910 7 105066960.146 7  99983054.860 7        42.300          44.100          42.600
C21  25544458.313 6  25544447.926 6                 133016694.115 6 108086909.818 6                        41.500          41.800
C26  23815333.016 7  23815325.340 7                 124012689.026 7 100770438.370 7                        44.500          45.200
C29  22869766.914 8  22869757.938 7                 119088878.560 8  96769432.931 7                        49.800          46.200
C30  23828550.172 7  23828544.512 7                 124081513.424 7 100826369.114 7                        46.300          44.700
E02  27548024.141 7  27548028.434 7  27548018.426 7  27548027.477 6  27548028.672 7 144765850.468 7 108104389.060 7 117504721.374 7 110924497.877 6 109514448.073 7        42.700          42.400          42.400          41.400          44.400
E03  25274447.992 7  25274451.453 7  25274440.352 8  25274451.008 7  25274451.957 8 132818116.684 7  99182372.879 7 107806879.546 8 101769738.771 7 100476058.931 8        46.900          46.000          48.800          45.400          48.500
E05  26678036.555 7  26678042.430 7  26678029.789 7  26678041.820 7  26678042.840 7 140194022.047 7 104690358.398 7 113793813.589 7 107421410.037 7 106055886.825 7        43.500          43.000          46.000          43.400          45.900
E08  24987093.703 7  24987096.563 7  24987089.172 7  24987096.324 7  24987097.145 7 131308064.878 7  98054723.865 7 106581194.898 7 100612672.011 7  99333697.539 7        43.200          42.100          45.400          42.600          45.100
E11  25308208.906 5  25308210.543 6                  25308210.078 6  25308210.840 7 132995544.602 5  99314858.716 6                 101905679.530 6 100610271.729 7        34.900          39.400                          39.100          42.300
E12  23670936.852 7  23670938.188 7  23670927.211 7  23670937.656 7  23670938.316 7 124391611.789 7  92889840.847 7 100967176.855 7  95313053.747 7  94101447.400 7        42.800          43.400          45.400          42.700          45.100
E24  22188444.109 8  22188458.113 8  22188429.480 8  22188457.594 8  22188458.605 8 116601057.186 8  87072274.165 8  94643653.622 8  89343721.392 8  88208000.385 8        50.600          49.500          53.000          49.000          52.300
E25  23206398.992 8  23206402.113 8  23206390.598 8  23206401.410 8  23206402.586 8 121950448.752 8  91066906.650 8  98985717.955 8  93442563.629 8  92254737.744 8        50.200          49.800          53.900          49.400          52.700
E31  27898612.813 5  27898619.039 6                  27898618.719 6  27898619.523 7 146608198.66115 109480145.564 6                 112336149.647 6 110908147.713 7        31.300          40.900                          41.100          43.900
E33  26818243.414 7  26818245.660 7  26818236.691 7  26818245.055 7  26818246.141 7 140930815.960 7 105240544.205 7 114391863.218 7 107985948.583 7 106613247.007 7        42.400          42.600          43.800          42.100          45.300
G02  25555522.773 6  25555526.184 3                                 134295157.178 6 104645602.500 3                                        40.400          23.000
G06  24554719.977 6  24554728.148 3  24554728.734 6  24554729.445 7 129035920.972 6 100547516.867 3 100547480.896 6  96358001.786 7        38.300          22.600          39.500          42.300
G10  24760051.633 6  24760058.203 3  24760058.266 6  24760056.777 6 130114940.852 6 101388294.810 3 101388296.815 6  97163776.959 6        40.600          19.900          36.200          38.900
G12  21053635.031 8  21053638.453 6  21053638.582 7                 110637599.228 8  86211132.992 6  86211134.004 7                        49.800          37.900          44.200
G13  24629197.227 6  24629203.020 3                                 129427289.197 6 100852452.201 3                                        37.700          19.600
G15  23058592.523 7  23058597.441 5  23058597.535 6                 121173715.592 7  94421094.500 5  94421096.509 6                        46.400          31.600          41.300
G17  22700194.836 7  22700198.641 5  22700198.625 7                 119290323.871 7  92953515.800 5  92953516.800 7                        47.600          33.700          42.200
G19  21087339.922 8  21087342.117 6                                 110814720.397 8  86349140.918 6                                        48.200          37.400
G24  20178859.695 8  20178865.934 7  20178866.105 8  20178866.273 9 106040622.954 8  82629081.283 7  82629083.295 8  79186204.978 9        51.400          43.600          48.800          55.400
G25  24240988.430 6  24240996.422 3  24240996.813 6  24240997.328 7 127387294.658 6  99262842.718 3  99262805.733 6  95126855.223 7        40.000          23.800          39.300          43.200
G28  25667444.406 6  25667447.977 3                                 134883315.481 6 105103913.958 3                                        39.400          19.600
G32  24950444.188 6  24950450.672 3  24950450.457 6  24950449.816 6 131115499.071 6 102167920.171 3 102167892.178 6  97910906.870 6        41.100          23.600          38.100          41.700
I02  37608933.141 6 147585528.726 6        40.600
I03  40905219.836 6 160520865.384 6        38.800
I06  38234742.594 6 150041372.702 6        40.400
R04  22401054.805 7  22401055.559 6  22401059.766 7  22401059.148 6 119956628.539 7 119956625.567 6  93299596.934 7  93299411.930 6        44.000          41.300          42.100          41.600
R05  21337011.227 7  21337010.941 7  21337014.879 7  21337014.375 7 114058551.274 7 114058797.283 7  88712394.191 7  88712310.171 7        46.500          43.000          44.100          43.200
R06  23445481.844 6  23445480.875 6                                 125109590.886 6 125109599.884 6                                        37.500          36.600
R13  22098165.578 6  22098163.883 6  22098167.918 6  22098168.031 6 118002966.662 6 118002961.666 6  91780079.855 6  91779954.874 6        39.400          37.100          37.900          37.900
R14  19499441.859 8  19499440.918 7  19499444.988 7  19499444.387 7 103942992.579 8 103942995.581 7  80844551.944 7  80844643.933 7        50.700          45.600          45.500          45.700
R15  21108333.672 7  21108334.180 7  21108336.598 7  21108337.066 7 112796536.406 7 112796536.425 7  87730640.854 7  87730983.851 7        47.100          43.200          43.400          43.000
R17  23412389.273 7  23412389.789 6  23412394.551 6  23412394.879 6 125284448.824 7 125284444.834 6  97443456.216 6  97443468.229 6        42.000          39.400          39.600          39.500
R22  24621687.602 6  24621687.477 5  24621691.613 5  24621691.363 5 131432236.613 6 131432220.634 5 102225063.180 5 102225088.164 5        36.300          35.300          35.000          34.000
R23  20856316.867 7  20856315.477 7  20856320.414 6  20856321.871 6 111567233.578 7 111567228.589 7  86774511.900 6  86774599.896 6        47.900          44.000          39.800          39.000
R24  20827071.164 7  20827071.469 6  20827074.348 5  20827072.949 5 111371720.718 7 111371712.720 6  86622434.145 5  86622837.161 5        43.400          40.400          33.600          32.100
S27  39190048.516 5  39190046.141 6 205945063.398 5                        32.500          38.300
S28  40855163.813 5  40855146.773 6 214695306.120 5                        33.100          37.900
S36  38330929.422 6  38330917.289 7 201430383.683 6 150418823.759 7        41.600          42.200
> 2019 03 21 12 16 00.0000000  0 48
C05  39415174.742 6  39415165.133 6  39415170.059 6 205245151.396 6 166778461.332 6 158708553.549 6        36.300          40.400          39.400
C08  38918226.164 6  38918212.984 7  38918220.102 6 202657414.014 6 164675777.956 7 156707571.809 6        40.300          42.100          41.000
C10  40843291.438 5  40843279.957 5  40843288.902 6 212681724.748 5 172821280.962 5 164458993.236 6        34.300          35.800          36.600
C13  39058578.578 7  39058571.336 6  39058579.914 6 203388270.205 7 165269601.248 6 157272718.738 6        42.300          41.100          39.900
C14  24836647.961 7  24836635.684 7  24836644.102 7 129330940.219 7 105091983.843 7 100006867.723 7        42.100          43.600          42.200
C21  25560814.633 7  25560803.938 7                 133101865.063 7 108156118.146 7                        42.200          42.400
C26  23801204.531 7  23801196.730 7                 123939118.730 7 100710656.506 7                        44.500          45.300
C29  22859578.336 8  22859569.672 7                 119035825.412 8  96726322.925 7                        49.800          45.900
C30  23836598.305 7  23836592.930 7                 124123423.605 7 100860424.569 7                        46.500          44.700
E02  27534219.969 7  27534224.082 6  27534214.719 7  27534223.707 7  27534224.316 7 144693308.995 7 108050218.541 6 117445840.355 7 110868914.195 7 109459570.966 7        42.300          41.800          42.800          42.000          44.600
E03  25281114.164 7  25281118.305 7  25281107.207 8  25281118.133 7  25281118.840 8 132853151.218 7  99208535.017 7 107835316.658 8 101796583.407 7 100502562.318 8        47.400          45.900          48.700          45.300          48.300
E05  26695245.664 7  26695251.125 7  26695238.664 7  26695250.898 7  26695251.715 7 140284455.049 7 104757889.439 7 113867216.944 7 107490702.771 7 106124298.706 7        43.900          43.200          46.300          43.200          45.900
E08  24978904.609 7  24978907.230 7  24978899.500 7  24978907.395 7  24978907.742 7 131265029.009 7  98022586.699 7 106546263.206 7 100579696.484 7  99301141.198 7        44.000          42.700          45.200          43.500          45.600
E11  25290634.984 5  25290636.484 6                  25290636.215 6  25290637.000 7 132903193.500 5  99245895.291 6                 101834917.055 6 100540408.773 7        35.300          39.600                          39.700          42.700
E12  23663773.727 7  23663774.672 7  23663763.980 7  23663774.512 7  23663775.078 7 124353968.778 7  92861730.855 7 100936622.489 7  95284210.423 7  94072970.745 7        43.000          43.200          45.600          43.100          45.700
E18  28374957.922 5  28374964.734 5                  28374963.824 5  28374965.055 6 149111415.010 5 111349467.114 5                 114254230.076 5 112801852.189 6        33.300          35.600                          34.000          39.200
E24  22195978.719 8  22195992.703 8  22195964.242 8  22195992.785 8  22195993.367 8 116640652.502 8  87101842.080 8  94675792.678 8  89374060.639 8  88237953.968 8        50.500          49.600          53.000          49.200          52.400
E25  23200655.633 8  23200659.117 8  23200647.742 9  23200658.969 8  23200659.691 8 121920269.713 8  91044370.370 8  98961221.996 9  93419439.444 8  92231907.509 8        50.100          49.900          54.000          49.600          52.800
E31  27912705.359 5  27912712.113 6                  27912711.473 6  27912712.414 7 146682257.23215 109535448.975 6                 112392895.760 6 110964172.474 7        33.300          40.800                          40.800          43.900
E33  26825822.586 7  26825825.215 7  26825816.246 7  26825825.004 7  26825825.910 7 140970647.655 7 105270288.652 7 114424194.141 7 108016468.952 7 106643379.414 7        43.200          42.700          43.700          42.900          45.200
G02  25539050.953 6  25539055.086 3                                 134208601.752 6 104578156.732 3                                        37.300          19.900
G06  24538086.977 6  24538095.605 3  24538096.168 6  24538096.215 7 128948516.577 6 100479409.670 3 100479373.667 6  96292732.397 7        38.500          22.200          38.700          42.500
G10  24769968.102 6  24769975.066 3  24769974.715 5  24769973.273 6 130167052.539 6 101428901.274 3 101428903.261 5  97202691.500 6        41.200          20.400          35.400          39.400
G12  21041308.094 8  21041311.672 6  21041311.906 7                 110572821.431 8  86160656.809 6  86160657.827 7                        49.700          38.300          44.100
G13  24651714.688 6  24651720.828 3                                 129545623.265 6 100944660.460 3                                        37.200          19.600
G15  23077714.516 7  23077719.492 5  23077719.668 6                 121274202.717 7  94499396.103 5  94499398.110 6                        46.900          32.100          41.300
G17  22712486.906 8  22712490.695 5  22712490.777 7                 119354920.257 8  93003850.643 5  93003851.648 7                        48.100          33.400          42.300
G19  21090251.430 8  21090253.590 6                                 110830020.261 8  86361062.903 6                                        48.400          37.800
G24  20178162.109 8  20178168.375 7  20178168.516 8  20178168.660 9 106036956.847 8  82626224.582 7  82626226.586 8  79183467.291 9        51.200          43.700          48.900          55.400
G25  24221759.148 6  24221766.973 3  24221767.629 6  24221767.668 7 127286243.163 6  99184101.421 3  99184064.439 6  95051394.830 7        40.100          23.000          39.900          43.800
G28  25684552.727 6  25684557.324 3                                 134973224.588 6 105173973.027 3                                        38.300          19.000
G32  24932110.758 6  24932117.910 3  24932118.137 6  24932117.129 6 131019160.184 6 102092850.907 3 102092822.917 6  97838965.521 6        39.600          21.700          37.900          41.300
I02  37611687.320 6 147596335.363 6        39.700
I03  40905335.109 6 160521317.931 6        39.200
I06  38235176.484 6 150043074.947 6        39.900
R04  22422807.617 7  22422806.914 6  22422811.129 7  22422810.609 6 120073105.800 7 120073102.805 6  93390190.286 7  93390005.297 6        43.200          40.800          42.000          41.800
R05  21342357.227 7  21342356.086 7  21342358.820 7  21342359.055 7 114087121.859 7 114087367.866 7  88734615.732 7  88734531.728 7        46.400          43.600          43.500          43.500
R06  23429739.586 6  23429738.613 5                                 125025589.231 6 125025598.264 5                                        37.500          35.400
R13  22114931.063 6  22114929.703 6  22114934.133 6  22114934.012 6 118092494.986 6 118092489.999 6  91849712.971 6  91849587.973 6        39.500          37.300          37.100          37.200
R14  19501633.813 8  19501632.930 7  19501636.586 7  19501636.422 7 103954676.605 8 103954679.608 7  80853639.522 7  80853731.518 7        51.000          46.000          45.400          45.300
R15  21093714.672 7  21093715.059 7  21093717.586 7  21093717.664 7 112718416.029 7 112718416.040 7  87669880.588 7  87670223.585 7        47.200          43.400          43.800          43.600
R17  23386708.727 6  23386707.617 6  23386711.762 6  23386712.578 6 125147018.283 6 125147014.284 6  97336565.925 6  97336577.916 6        41.800          40.000          39.800          38.700
R22  24644610.586 6  24644607.758 5  24644612.539 5  24644612.137 5 131554590.614 6 131554575.612 5 102320228.251 5 102320252.253 5        37.000          35.500          33.200          32.400
R23  20861934.289 8  20861933.461 7  20861938.328 6  20861939.129 6 111597282.124 8 111597277.127 7  86797882.994 6  86797970.998 6        48.200          43.900          39.600          39.100
R24  20811644.242 7  20811643.191 6  20811644.574 5  20811644.875 5 111289220.406 7 111289212.415 6  86558267.327 5  86558670.290 5        43.900          41.000          33.500          33.000
S27  39190100.672 5  39190095.852 6 205945346.844 5                        31.800          37.800
S28  40855175.656 5  40855159.273 6 214695371.704 5                        33.000          38.300
S36  38330936.234 6  38330924.980 6 201430427.052 6 150418855.168 6        41.200          41.900
> 2019 03 21 12 16 30.0000000  0 45
C05  39414845.258 6  39414836.313 6  39414841.527 6 205243440.089 6 166777070.747 6 158707230.252 6        36.100          39.900          40.000
C08  38913525.891 6  38913512.902 7  38913520.125 6 202632938.659 6 164655889.741 7 156688645.933 6        40.500          42.000          41.200
C10  40847756.742 5  40847745.883 5  40847754.621 6                                                        34.500          35.600          36.200
C13  39049776.516 7  39049769.582 6  39049778.406 6 203342436.514 7 165232357.626 6 157237277.230 6        42.000          40.900          40.100
C14  24842647.898 7  24842635.938 7  24842644.219 7 129362185.003 7 105117372.758 7 100031028.141 7        42.000          43.400          42.800
C21  25577197.039 6  25577186.113 6                 133187170.442 6 108225435.723 6                        41.000          41.600
C26  23787099.750 7  23787092.418 7                 123865672.305 7 100650975.289 7                        45.000          44.600
C29  22849475.180 8  22849466.703 7                 118983216.087 8  96683573.560 7                        49.100          46.000
C30  23844737.000 7  23844731.055 7                 124165800.292 7 100894859.105 7                        45.900          44.700
E02  27520423.711 7  27520427.621 6  27520418.160 7  27520426.883 6  27520428.184 7 144620809.853 7 107996079.638 6 117386993.689 7 110813362.936 6 109404725.896 7        42.100          41.600          42.600          41.100          44.500
E03  25287857.992 7  25287861.770 7  25287850.559 8  25287861.258 7  25287862.195 8 132888587.378 7  99234997.064 7 107864079.772 8 101823735.777 7 100529369.519 8        47.300          45.700          48.600          45.100          48.400
E05  26712472.914 7  26712478.801 7  26712466.207 7  26712478.242 7  26712479.086 7 140374984.945 7 104825492.881 7 113940698.961 7 107560069.801 7 106192783.946 7        43.700          43.400          46.200          43.200          45.600
E08  24970788.047 7  24970790.910 7  24970783.094 7  24970789.805 7  24970791.063 7 131222374.646 7  97990734.427 7 106511641.165 7 100547013.285 7  99268873.464 7        43.700          43.400          45.500          43.000          44.900
E12  23656688.906 7  23656689.621 7  23656678.984 7  23656689.395 7  23656690.047 7 124316736.551 7  92833927.595 7 100906401.548 7  95255681.876 7  94044804.834 7        42.600          43.000          45.500          42.800          45.400
E18  28341102.820 5  28341109.633 5                  28341108.832 5  28341110.074 6                 111216612.32115                 114117909.55815 112667264.53916        32.800          34.000                          32.200          36.500
E24  22203543.570 8  22203557.637 8  22203529.020 8  22203557.164 8  22203558.152 8 116680405.429 8  87131527.709 8  94708059.657 8  89404520.678 8  88268026.795 8        50.300          49.400          53.000          49.000          52.300
E25  23194947.164 8  23194950.336 8  23194938.711 8  23194949.707 8  23194950.820 8 121890269.186 8  91021967.406 8  98936870.932 8  93396452.052 8  92209212.333 8        50.000          49.900          53.900          49.400          52.700
E33  26833479.188 7  26833481.781 7  26833473.023 7  26833481.313 7  26833482.516 7 141010883.146 7 105300334.629 7 114456852.810 7 108047298.745 7 106673817.292 7        42.600          42.600          43.800          42.100          45.100
G02  25522567.727 6  25522571.852 3                                 134121979.862 6 104510659.203 3                                        39.600          22.600
G06  24521487.336 6  24521495.320 3  24521496.148 6  24521496.898 7 128861283.148 6 100411435.680 3 100411399.687 6  96227590.677 7        38.300          22.800          39.400          42.700
G10  24779961.750 6  24779968.336 3  24779968.250 5  24779967.289 6 130219567.582 6 101469822.110 3 101469824.099 5  97241907.280 6        40.200          19.900          35.200          40.000
G12  21029049.961 8  21029053.625 6  21029053.844 7                 110508404.782 8  86110462.051 6  86110463.040 7                        49.500          38.000          44.200
G13  24674241.219 5  24674247.336 3                                 129663998.850 5 101036901.075 3                                        35.600          18.600
G15  23096878.477 7  23096883.473 5  23096883.113 6                 121374909.445 7  94577868.833 5  94577870.830 6                        47.300          31.600          41.400
G17  22724858.430 8  22724862.211 5  22724862.430 6                 119419932.003 8  93054509.144 5  93054510.137 6                        48.300          34.400          41.900
G19  21093289.305 8  21093291.461 6                                 110845985.138 8  86373503.072 6                                        48.500          37.200
G24  20177551.367 8  20177557.863 7  20177557.852 8  20177558.227 9 106033748.885 8  82623724.871 7  82623726.883 8  79181071.746 9        50.600          43.300          48.700          55.400
G25  24202555.945 6  24202564.113 3  24202564.836 6  24202564.688 7 127185330.458 6  99105468.261 3  99105431.269 6  94976038.082 7        39.900          22.600          39.800          43.800
G28  25701652.375 5  25701657.645 2                                 135063087.847 5 105243996.382 2                                        34.800          16.300
G32  24913827.523 6  24913834.848 3  24913834.797 6  24913833.637 6 130923081.099 6 102017984.125 3 102017956.126 6  97767218.182 6        38.600          21.300          37.100          39.500
I02  37614446.805 6 147607164.520 6        40.000
I03  40905449.844 6 160521766.953 6        38.300
I06  38235610.633 6 150044781.224 6        39.900
R04  22444614.820 7  22444615.129 6  22444619.355 7  22444619.246 6 120189889.420 7 120189886.438 6  93481021.939 7  93480836.930 6        43.600          41.100          42.100          41.500
R05  21347850.000 7  21347850.121 7  21347853.406 7  21347853.203 7 114116491.817 7 114116737.845 7  88757459.028 7  88757375.024 7        46.800          42.900          43.200          42.900
R06  23414106.328 6  23414104.980 6                                 124942163.775 6 124942172.791 6                                        39.100          36.700
R13  22131731.047 6  22131729.262 6  22131735.289 6  22131733.609 6 118182203.321 6 118182198.347 6  91919486.095 6  91919361.077 6        38.900          37.900          37.700          36.700
R14  19503898.172 8  19503897.559 7  19503901.059 7  19503900.934 7 103966747.863 8 103966750.859 7  80863028.283 7  80863120.278 7        50.500          45.700          45.300          44.900
R15  21079134.133 7  21079134.594 7  21079137.555 7  21079137.305 7 112640502.721 7 112640502.732 7  87609281.363 7  87609624.359 7        47.200          43.000          43.100          43.700
R17  23361039.383 7  23361037.781 6  23361043.309 6  23361043.332 6 125009656.894 7 125009652.879 6  97229729.382 6  97229741.389 6        42.500          40.200          39.100          39.100
R23  20867707.336 8  20867705.508 7  20867709.996 6  20867711.836 6 111628161.499 8 111628156.503 7  86821900.298 6  86821988.294 6        48.300          43.400          40.100          39.000
R24  20796339.141 7  20796339.527 6  20796340.773 5  20796341.516 5 111207385.649 7 111207377.658 6  86494618.07715  86495021.070 5        43.800          40.400          33.700          33.400
S27  39190150.797 5  39190147.016 6 205945600.110 5                        32.200          38.000
S28  40855188.734 5  40855171.719 6 214695436.852 5                        32.800          37.300
S36  38330944.219 7  38330932.871 7 201430472.871 7 150418886.537 7        42.300          42.100
> 2019 03 21 12 17 00.0000000  0 45
C05  39414516.977 6  39414507.914 6  39414512.500 6 205241728.558 6 166775679.974 6 158705906.770 6        36.300          40.400          39.200
C08  38908862.344 6  38908849.289 6  38908856.598 6 202608654.488 6 164636156.870 6 156669867.889 6        41.100          41.900          41.100
C10  40852221.344 5  40852210.406 6  40852219.047 6                                                        33.700          36.000          36.600
C13  39041002.492 7  39040995.617 6  39041004.336 6 203296748.068 7 165195232.033 6 157201948.036 6        42.300          40.900          39.900
C14  24848734.023 7  24848722.223 7  24848730.469 7 129393877.980 7 105143125.873 7 100055535.128 7        42.600          43.100          42.000
C21  25593604.094 6  25593593.656 6                 133272607.733 6 108294860.463 6                        40.800          41.400
C26  23773019.578 7  23773011.699 7                 123792350.760 7 100591395.549 7                        45.800          43.800
C29  22839458.430 8  22839448.988 7                 118931052.270 8  96641186.206 7                        49.800          45.500
C30  23852964.406 7  23852958.281 7                 124208642.363 7 100929671.796 7                        46.200          44.000
E02  27506635.797 6  27506639.398 6  27506629.867 7  27506638.922 6  27506640.004 7 144548353.256 6 107941972.466 6 117328181.543 7 110757844.275 6 109349912.979 7        41.500          41.400          42.200          40.800          43.700
E03  25294677.578 7  25294681.035 7  25294670.152 8  25294681.063 7  25294681.691 8 132924424.290 7  99261758.385 7 107893168.164 8 101851195.216 7 100556479.906 8        47.000          45.700          48.600          44.900          48.300
E05  26729718.531 7  26729723.961 7  26729711.438 7  26729723.777 7  26729724.422 7 140465609.958 7 104893167.331 7 114014258.180 7 107629509.664 7 106261341.105 7        43.200          42.600          46.200          42.800          45.400
E08  24962744.063 7  24962746.211 7  24962738.879 7  24962746.289 7  24962746.934 7 131180103.061 7  97959167.976 7 106477329.820 7 100514623.384 7  99236895.284 7        43.100          42.300          45.400          42.300          44.900
E11  25255535.039 5  25255536.348 6                  25255536.133 6  25255536.941 7 132718742.04815  99108155.644 6                 101693584.176 6 100400872.513 7        35.800          39.000                          39.400          42.200
E12  23649682.414 7  23649682.895 7  23649672.234 7  23649682.969 7  23649683.336 7 124279916.444 7  92806432.092 7 100876515.126 7  95227469.086 7  94016950.687 7        42.600          42.600          45.500          42.600          45.100
E24  22211138.695 8  22211152.035 8  22211123.691 8  22211152.262 8  22211152.789 8 116720315.746 8  87161330.853 8  94740454.390 8  89435101.298 8  88298218.678 8        50.500          49.300          52.900          48.900          52.200
E25  23189272.578 8  23189275.145 8  23189263.785 9  23189275.395 8  23189275.867 8 121860447.446 8  90999697.921 8  98912664.977 9  93373601.637 8  92186652.380 8        50.600          49.900          54.100          49.400          52.800
E31  27940897.508 5  27940902.891 6                  27940902.508 6  27940903.469 7 146830400.48515 109646076.071 6                 112506408.790 6 111076242.533 7        34.100          39.700                          39.900          42.600
E33  26841212.914 7  26841215.426 7  26841206.215 7  26841214.965 7  26841215.691 7 141051521.391 7 105330681.348 7 114489838.388 7 108078437.125 7 106704559.841 7        42.800          42.500          43.800          42.200          44.900
G02  25506071.102 5  25506075.770 3                                 134035293.848 5 104443111.841 3                                        35.400          21.100
G06  24504920.547 6  24504928.262 3  24504929.004 6  24504929.531 7 128774224.065 6 100343597.523 3 100343561.544 6  96162579.146 7        38.400          22.600          39.200          42.800
G10  24790031.016 6  24790038.016 3  24790038.199 6  24790036.645 6 130272483.706 6 101511055.387 3 101511057.411 6  97281422.515 6        41.100          20.600          36.200          40.400
G12  21016861.188 8  21016864.520 6  21016864.352 7                 110444350.067 8  86060549.309 6  86060550.306 7                        50.000          37.800          43.500
G13  24696775.086 5  24696780.633 3                                 129782413.787 5 101129172.385 3                                        35.600          18.300
G15  23116084.211 7  23116088.648 5  23116088.613 6                 121475833.542 7  94656510.939 5  94656512.950 6                        47.000          31.800          41.100
G17  22737308.750 8  22737312.012 5  22737312.031 7                 119485357.176 8  93105489.798 5  93105490.808 7                        48.200          34.200          42.400
G19  21096454.305 8  21096455.934 6                                 110862614.149 8  86386460.754 6                                        48.200          37.300
G24  20177028.875 8  20177034.902 7  20177034.855 8  20177035.016 9 106031000.081 8  82621582.948 7  82621584.953 8  79179019.065 9        50.900          43.500          48.700          55.400
G25  24183379.414 6  24183387.352 4  24183388.074 6  24183387.750 7 127084557.685 6  99026944.139 4  99026907.157 6  94900785.808 7        39.400          24.500          40.300          43.900
G28  25718744.461 6  25718749.535 2                                 135152904.665 6 105313983.435 2                                        36.600          17.400
G32  24895594.625 6  24895601.227 3  24895601.043 6  24895600.410 6 130827264.648 6 101943322.001 3 101943293.997 6  97695666.977 6        39.400          21.100          36.500          39.400
I02  37617210.742 6 147618013.933 6        39.900
I03  40905563.055 6 160522212.644 6        38.500
I06  38236047.719 6 150046491.546 6        40.000
R04  22466479.836 7  22466480.469 6  22466484.824 6  22466484.121 6 120306975.152 7 120306972.161 6  93572088.535 6  93571903.543 6        42.800          40.100          41.200          41.300
R05  21353493.906 7  21353493.715 7  21353497.109 7  21353496.727 7 114146659.430 7 114146905.438 7  88780922.704 7  88780838.707 7        46.800          42.200          42.800          42.400
R06  23398581.156 6  23398580.086 6                                 124859318.447 6 124859327.461 6                                        38.900          36.400
R13  22148565.328 6  22148562.707 6  22148567.086 6  22148566.648 6 118272091.823 6 118272086.813 6  91989399.305 6  91989274.315 6        40.100          36.600          37.900          36.800
R14  19506235.727 8  19506234.473 7  19506238.828 7  19506238.129 7 103979206.544 8 103979209.533 7  80872718.361 7  80872810.365 7        50.900          45.600          45.200          44.000
R15  21064593.258 7  21064593.340 7  21064595.949 7  21064595.875 7 112562797.562 7 112562797.574 7  87548844.035 7  87549187.032 7        47.200          42.400          43.100          42.200
R17  23335383.664 7  23335382.906 6  23335387.105 6  23335387.555 6 124872369.203 7 124872365.194 6  97122950.172 6  97122962.182 6        42.700          39.700          39.100          38.700
R23  20873633.961 8  20873633.719 7  20873638.441 6  20873639.328 6 111659870.656 8 111659865.653 7  86846562.973 6  86846650.977 6        48.500          42.800          39.400          38.800
R24  20781160.367 7  20781161.535 6  20781164.730 5  20781162.996 5 111126220.372 7 111126212.404 6  86431489.556 5  86431892.549 5        43.200          40.100          33.800          33.000
S28  40855200.781 5  40855201.992 4 214695493.483 5                        32.500          27.400
S36  38330952.859 7  38330940.738 6 201430514.938 7 150418911.913 6        42.000          41.400
> 2019 03 21 12 17 30.0000000  0 48
C05  39414188.000 6  39414179.148 6  39414183.855 6 205240016.527 6 166774288.789 6 158704582.897 6        36.900          40.900          40.000
C08  38904235.820 6  38904222.453 7  38904229.727 6 202584561.294 6 164616579.201 7 156651237.520 6        40.600          42.500          41.600
C10  40856683.602 5  40856672.984 6  40856682.223 6                                                        33.700          36.300          36.900
C13  39032256.438 7  39032249.387 6  39032258.277 6 203251204.840 7 165158224.435 6 157166731.135 6        42.500          41.100          40.300
C14  24854906.258 6  24854894.535 7  24854902.875 7 129426017.502 6 105169241.846 7 100080387.422 7        41.800          43.900          42.700
C18  41191740.281 6                                                                                        36.700
C21  25610036.367 6  25610025.898 6                 133358174.217 6 108364390.180 6                        41.100          40.800
C26  23758962.531 7  23758955.129 7                 123719154.675 7 100531917.743 7                        45.200          45.100
C29  22829525.734 8  22829517.375 7                 118879335.180 8  96599161.854 7                        49.700          46.400
C30  23861280.680 7  23861274.848 7                 124251948.063 7 100964861.231 7                        46.400          45.000
E02  27492855.609 7  27492859.797 6  27492850.121 7  27492859.598 6  27492860.023 7 144475939.097 7 107887897.025 6 117269403.861 7 110702358.159 6 109295132.197 7        42.100          41.300          42.600          41.800          44.400
E03  25301572.797 7  25301576.680 7  25301565.625 8  25301576.570 7  25301577.234 8 132960660.645 7  99288817.994 7 107922580.776 8 101878960.726 7 100583892.462 8        47.000          45.900          48.600          45.300          48.700
E05  26746981.453 7  26746987.004 7  26746974.699 7  26746986.734 7  26746987.523 7 140556327.899 7 104960911.195 7 114087892.829 7 107699020.762 7 106329968.583 7        43.800          42.800          46.100          42.800          45.400
E08  24954772.977 7  24954775.336 7  24954767.563 7  24954774.973 7  24954775.891 7 131138215.086 7  97927888.046 7 106443329.857 7 100482527.432 7  99205207.346 7        43.700          43.000          45.000          42.600          45.100
E11  25238009.430 5  25238011.289 6                  25238010.969 6  25238011.473 6 132626644.56215  99039382.30616                 101623016.79216 100331202.14816        34.200          39.400                          38.700          41.800
E12  23642753.984 7  23642754.762 7  23642744.086 7  23642754.906 7  23642755.266 7 124243509.274 7  92779244.959 7 100846963.880 7  95199572.724 7  93989408.949 7        43.000          43.300          45.500          42.900          46.100
E18  28273219.664 5  28273225.660 5                                  28273225.648 5 148576773.53315 110950221.19315                                 112397398.69315        33.000          31.500                                          34.600
E24  22218762.563 8  22218776.613 8  22218748.137 8  22218776.852 8  22218777.297 8 116760382.943 8  87191251.171 8  94772976.463 8  89465802.140 8  88328529.261 8        50.300          49.300          52.900          49.000          52.200
E25  23183630.766 8  23183634.367 8  23183622.707 9  23183634.406 8  23183634.941 8 121830804.277 8  90977561.804 8  98888603.974 9  93350888.043 8  92164227.524 8        50.400          49.900          54.000          49.500          52.800
E31  27954994.469 6  27955000.836 6  27954988.176 7  27955000.953 6  27955001.492 7 146904487.71916 109701399.350 6 119240625.85117 112563175.310 6 111132287.433 7        38.700          40.300          42.000          40.600          43.200
E33  26849022.008 7  26849024.551 7  26849015.516 7  26849024.582 7  26849025.262 7 141092561.011 7 105361327.797 7 114523149.753 7 108109883.059 7 106735606.026 7        42.800          42.700          43.800          42.600          45.700
G02  25489564.242 6  25489568.012 3                                 133948546.120 6 104375516.400 3                                        37.700          19.600
G06  24488387.547 6  24488395.293 3  24488396.320 6  24488396.441 7 128687342.096 6 100275897.384 3 100275861.369 6  96097699.842 7        39.000          22.500          39.900          43.000
G10  24800176.086 6  24800183.078 3  24800183.227 5  24800182.383 6 130325798.120 6 101552599.085 3 101552601.070 5  97321235.200 6        41.300          21.700          35.600          40.500
G12  21004740.156 8  21004744.207 6  21004744.516 7                 110380657.809 8  86010919.000 6  86010920.009 7                        50.200          38.600          43.900
G13  24719315.961 5  24719321.117 2                                 129900865.008 5 101221471.845 2                                        35.500          17.400
G15  23135329.891 7  23135334.496 5  23135334.680 6                 121576971.775 7  94735319.894 5  94735321.894 6                        47.200          31.100          41.600
G17  22749836.344 8  22749840.441 5  22749840.438 7                 119551193.990 8  93156791.202 5  93156792.197 7                        48.000          34.000          42.500
G19  21099744.328 7  21099746.414 6                                 110879906.360 7  86399935.213 6                                        47.800          37.600
G24  20176592.664 8  20176599.016 7  20176599.348 8  20176599.457 9 106028710.623 8  82619798.956 7  82619800.968 8  79177309.412 9        51.000          43.600          48.800          55.400
G25  24164229.641 6  24164237.785 4  24164238.480 6  24164238.223 7 126983925.484 6  98948529.534 4  98948492.544 6  94825638.508 7        41.000          25.600          40.300          44.500
G28  25735827.406 5  25735831.703 2                                 135242673.847 5 105383933.428 2                                        32.900          16.300
G32  24877411.109 6  24877418.445 3  24877418.703 6  24877417.594 6 130731713.170 6 101868866.337 3 101868838.340 6  97624313.623 6        37.900          19.900          36.700          39.600
I02  37619981.031 6 147628884.187 6        40.400
I03  40905674.977 6 160522654.660 6        38.700
I06  38236483.555 6 150048205.702 6        39.500
R04  22488401.180 7  22488400.711 6  22488404.871 7  22488404.582 6 120424357.957 7 120424354.971 6  93663386.197 7  93663201.208 6        43.800          40.800          42.400          41.900
R05  21359286.781 7  21359286.145 7  21359289.973 7  21359289.227 7 114177622.713 7 114177868.728 7  88805005.253 7  88804921.248 7        46.700          43.400          44.100          43.200
R06  23383164.516 6  23383162.484 6                                 124777056.419 6 124777065.402 6                                        37.200          36.000
R13  22165430.258 6  22165429.277 6  22165432.449 6  22165433.430 6 118362158.881 6 118362153.890 6  92059451.431 6  92059326.435 6        39.900          37.700          37.200          36.800
R14  19508645.891 8  19508644.402 7  19508648.066 7  19508648.012 7 103992052.683 8 103992055.693 7  80882709.823 7  80882801.812 7        50.700          45.700          46.300          45.100
R15  21050090.078 7  21050090.898 7  21050092.934 7  21050093.559 7 112485301.270 7 112485301.275 7  87488569.162 7  87488912.166 7        47.100          43.800          43.900          44.000
R17  23309741.844 7  23309741.211 6  23309745.457 6  23309746.547 6 124735158.817 7 124735154.825 6  97016231.112 6  97016243.096 6        42.600          40.600          39.200          39.200
R23  20879717.766 7  20879716.008 7  20879720.262 6  20879721.598 6 111692407.378 7 111692402.383 7  86871869.331 6  86871957.327 6        47.700          44.200          40.300          38.800
R24  20766109.063 7  20766108.879 6  20766112.406 5  20766110.508 5 111045728.078 7 111045720.080 6  86368884.475 5  86369287.484 5        43.200          40.800          34.000          33.800
S27  39190253.938 5  39190249.363 6 205946154.321 5                        31.500          38.800
S28  40855213.484 5  40855203.582 6 214695559.762 5                        31.900          36.200
S36  38330960.219 6  38330948.660 7 201430556.048 6 150418944.548 7        41.700          42.100
> 2019 03 21 12 18 00.0000000  0 46
C05  39413859.117 6  39413850.539 6  39413855.305 6 205238304.875 6 166772897.916 6 158703259.322 6        36.600          40.400          39.200
C08  38899645.531 6  38899632.238 6  38899639.656 6 202560660.016 6 164597157.468 6 156632755.563 6        40.700          40.900          40.700
C10  40861144.680 5  40861134.418 6  40861142.977 6                                                        33.000          36.200          36.700
C13  39023538.398 7  39023531.461 6  39023539.902 6 203205808.026 7 165121335.822 6 157131627.455 6        42.200          40.900          40.000
C14  24861163.469 7  24861152.188 7  24861160.641 7 129458602.987 7 105195720.198 7 100105584.552 7        42.600          42.900          42.200
C18  41196410.422 6  41196404.609 6                 214520520.200 6 174315470.074 6                        36.600          37.000
C21  25626493.609 7  25626482.277 6                 133443868.112 7 108434023.443 6                        42.000          40.200
C26  23744930.500 7  23744922.891 7                 123646085.743 7 100472543.273 7                        44.800          44.100
C29  22819680.633 8  22819671.734 7                 118828067.086 8  96557502.349 7                        49.700          45.900
C30  23869686.055 7  23869680.043 7                 124295716.753 7 101000426.882 7                        46.400          43.900
E02  27479083.656 6  27479088.145 6  27479078.145 7  27479087.090 6  27479088.313 7 144403568.269 6 107833853.891 6 117210661.312 7 110646905.217 6 109240384.151 7        41.900          41.000          42.500          40.900          43.500
E03  25308544.453 7  25308548.301 7  25308537.164 8  25308547.691 7  25308548.770 8 132997296.231 7  99316175.705 7 107952317.445 8 101907032.119 7 100611607.012 8        47.500          45.700          48.700          45.100          48.500
E05  26764262.117 7  26764267.773 7  26764255.262 7  26764267.102 7  26764268.078 7 140647137.647 7 105028723.603 7 114161601.994 7 107768602.202 7 106398665.510 7        43.200          42.800          46.200          42.200          45.400
E08  24946875.125 7  24946877.945 7  24946870.438 7  24946876.754 7  24946878.168 7 131096712.709 7  97896896.000 7 106409642.868 7 100450726.894 7  99173811.054 7        43.300          42.700          46.000          42.200          45.100
E11  25220501.352 5  25220502.820 6                  25220502.332 6  25220503.207 7 132534637.78315  98970675.98316                 101552518.12316 100261599.64617        34.700          39.000                          38.700          42.000
E12  23635904.703 7  23635905.715 7  23635894.910 7  23635905.273 7  23635906.105 7 124207516.910 7  92752367.583 7 100817749.333 7  95171994.187 7  93962180.989 7        42.700          43.200          45.600          42.400          45.500
E18  28239191.547 6  28239196.676 5  28239185.629 5  28239196.699 5  28239197.520 5 148397954.634 6 110816687.538 5 120452860.016 5 113707550.906 5 112262123.341 5        39.500          31.700          35.500          32.100          34.900
E24  22226417.414 8  22226431.270 8  22226402.613 8  22226430.746 8  22226431.758 8 116800607.437 8  87221288.920 8  94805626.214 8  89496623.484 8  88358958.806 8        50.100          49.300          52.800          49.000          52.200
E25  23178024.297 8  23178027.668 8  23178016.105 9  23178027.188 8  23178028.172 8 121801340.557 8  90955559.671 8  98864688.632 9  93328311.947 8  92141938.410 8        49.800          49.900          54.100          49.700          52.800
E31  27969094.586 6  27969100.965 6  27969087.695 6  27969099.832 6  27969101.207 6 146978581.302 6 109756729.657 6 119300768.459 6 112619949.016 6 111188339.450 6        38.500          39.400          41.400          39.000          41.900
E33  26856908.422 7  26856910.910 7  26856901.859 7  26856909.949 7  26856911.164 7 141134001.632 7 105392273.683 7 114556786.614 7 108141636.228 7 106766955.557 7        42.700          42.100          44.200          42.100          44.900
G02  25473044.367 5  25473048.855 2                                 133861739.828 5 104307875.375 2                                        33.400          17.800
G06  24471888.672 6  24471896.930 3  24471897.082 6  24471897.910 7 128600641.368 6 100208338.437 3 100208302.457 6  96032955.867 7        39.100          22.200          39.300          43.400
G10  24810397.938 6  24810404.352 3  24810403.863 6  24810403.609 6 130379509.076 6 101594451.767 3 101594453.760 6  97361343.990 6        40.900          21.500          36.100          39.900
G12  20992689.492 8  20992693.152 6  20992693.449 7                 110317329.524 8  85961572.322 6  85961573.311 7                        50.400          38.100          43.900
G13  24741861.938 5  24741868.211 2                                 130019351.287 5 101313798.725 2                                        35.200          17.400
G15  23154616.445 7  23154621.004 5  23154621.309 6                 121678322.075 7  94814294.121 5  94814296.108 6                        47.200          32.400          41.100
G17  22762443.086 8  22762446.703 5  22762446.641 6                 119617440.119 8  93208411.549 5  93208412.548 6                        48.400          34.400          41.600
G19  21103161.250 8  21103163.254 6                                 110897861.613 8  86413926.332 6                                        48.200          37.500
G24  20176244.914 8  20176251.176 7  20176251.137 8  20176251.559 9 106026882.103 8  82618374.149 7  82618376.146 8  79175943.960 9        51.500          43.400          48.900          55.400
G25  24145106.922 6  24145114.750 4  24145115.125 6  24145115.855 7 126883435.809 6  98870225.974 4  98870188.978 6  94750597.622 7        41.300          25.100          40.000          44.500
G28  25752900.961 5                                                 135332395.836 5                                                        33.400
G32  24859279.109 6  24859286.957 3  24859286.238 5  24859285.613 6 130636430.171 6 101794619.911 3 101794591.903 5  97553160.826 6        36.200          19.900          35.600          39.900
I02  37622757.852 6 147639776.394 6        39.900
I03  40905787.016 6 160523093.773 6        38.800
I06  38236921.531 6 150049924.433 6        40.100
R04  22510375.258 7  22510375.469 6  22510379.391 6  22510379.785 6 120542033.796 7 120542030.801 6  93754911.785 6  93754726.792 6        43.200          40.200          41.800          40.900
R05  21365227.563 7  21365226.961 7  21365229.727 7  21365230.043 7 114209380.515 7 114209626.515 7  88829705.751 7  88829621.761 7        47.200          42.400          42.500          42.600
R06  23367859.500 6  23367857.078 6                                 124695381.836 6 124695390.837 6                                        38.700          36.000
R13  22182331.203 6  22182329.461 6  22182333.984 6  22182333.738 6 118452405.009 6 118452400.026 6  92129642.834 6  92129517.830 6        39.900          37.100          37.100          37.100
R14  19511127.844 8  19511127.207 7  19511131.113 7  19511130.723 7 104005287.039 8 104005290.040 7  80893003.210 7  80893095.207 7        50.400          46.100          45.000          43.900
R15  21035627.664 7  21035627.844 7  21035629.617 7  21035630.293 7 112408015.698 7 112408015.709 7  87428458.200 7  87428801.196 7        47.800          43.200          42.400          42.000
R17  23284116.344 7  23284115.063 6  23284120.699 6  23284120.398 6 124598030.451 7 124598026.455 6  96909575.790 6  96909587.815 6        42.400          39.600          38.900          37.700
R23  20885953.391 8  20885952.332 7  20885957.555 6  20885958.461 6 111725770.969 8 111725765.980 7  86897818.788 6  86897906.799 6        48.600          43.500          39.400          38.700
R24  20751183.313 7  20751183.020 6                  20751184.645 5 110965913.188 7 110965905.211 6                  86307209.275 5        43.900          39.500                          33.000
S36  38330969.453 7  38330956.891 6 201430592.887 7 150418979.875 6        42.000          40.600
