     3.04           OBSERVATION DATA    G                   RINEX VERSION / TYPE
cnvtToRINEX 3.08.0  convertToRINEX OPR  30-Jul-19 16:30 UTC PGM / RUN BY / DATE 
gfzrnx-1.11-7513    FILE MERGE          20190804 162906 UTC COMMENT             
JABO                                                        MARKER NAME         
  4035867.2105  1285295.8164  4753016.7024                  APPROX POSITION XYZ 
JABO                                                        MARKER NUMBER       
----------------------------------------------------------- COMMENT             
        0.2830        0.0000        0.0000                  ANTENNA: DELTA H/E/N
DBHZ                                                        SIGNAL STRENGTH UNIT
GKU                 GKU                                     OBSERVER / AGENCY   
    18                                                      LEAP SECONDS        
40932194            TRM55971.00     NONE                    ANT # / TYPE        
     0                                                      RCV CLOCK OFFS APPL 
G L2X -0.25000                                              SYS / PHASE SHIFT   
5207K82278          TRIMBLE NETR9       5.37                REC # / TYPE / VERS 
GEODETIC                                                    MARKER TYPE         
G   12 C1C C2W C2X C5X L1C L2W L2X L5X S1C S2W S2X S5X      SYS / # / OBS TYPES 
  2019     3    21    12     0    0.0000000     GPS         TIME OF FIRST OBS   
  2019     3    21    12    15    0.0000000     GPS         TIME OF LAST OBS    
                                                            END OF HEADER      
> 2019 03 21 12 00 00.0000000  0 13
G01  25371162.852 6  25371169.711 3  25371169.203 5  25371168.785 7 133326395.983 6 103890700.679 3 103890682.691 5  99561902.730 7        40.700          18.600          31.700          44.900
G06  25083297.117 6  25083305.758 4  25083306.164 6  25083306.133 6 131813681.019 6 102711948.435 4 102711918.460 6  98432255.786 6        39.900          24.500          39.800          41.500
G10  24493076.672 7  24493082.996 4  24493082.180 6  24493081.770 7 128711924.194 7 100295081.531 4 100295005.558 6  96116085.943 7        44.600          27.100          40.400          45.500
G12  21469055.203 8  21469058.141 6  21469058.684 7                 112820696.773 8  87912255.054 6  87912224.049 7                        49.500          37.300          44.500
G13  23937663.242 6  23937667.773 3                                 125793220.737 6  98020721.947 3                                        41.400          22.500
G15  22489433.195 8  22489437.730 6  22489437.840 7                 118182770.270 8  92090490.628 6  92090479.634 7                        49.000          36.000          43.600
G17  22360508.453 8  22360512.430 6  22360512.043 7                 117505333.932 8  91562619.938 6  91562594.931 7                        50.200          36.600          45.700
G19  21060467.477 8  21060469.633 6                                 110673619.404 8  86239167.526 6                                        48.000          38.600
G20  25141370.586 6  25141376.727 3                                 132118859.159 6 102949733.321 3                                        37.900          20.100
G24  20243007.469 8  20243013.637 7  20243013.813 8  20243014.043 9 106377734.694 8  82891788.043 7  82891746.044 8  79437936.159 9        51.900          45.500          51.800          56.200
G25  24849152.484 6  24849159.133 3  24849160.707 6  24849162.102 7 130583171.256 6 101753157.314 3 101753135.349 6  97513411.402 7        37.700          20.400          37.100          44.900
G28  25133408.313 6  25133413.059 2                                 132076969.722 6 102917115.392 2                                        38.000          15.600
G32  25540445.359 6  25540448.754 3  25540448.980 4  25540450.871 8 134215980.491 6 104583875.663 3 104583857.739 4 100226196.857 8        41.800          19.600          29.300          48.500
> 2019 03 21 12 00 30.0000000  0 13
G01  25379633.336 6  25379640.414 3  25379639.961 6  25379639.297 7 133370908.563 6 103925385.802 3 103925367.808 6  99595142.590 7        40.300          21.700          36.700          45.000
G06  25065951.406 7  25065960.066 4  25065959.859 6  25065960.520 7 131722526.923 7 102640919.347 4 102640889.343 6  98364186.070 7        42.700          27.400          39.600          43.400
G10  24500394.359 7  24500401.598 3  24500399.953 6  24500398.590 7 128750382.312 7 100325048.848 3 100324972.867 6  96144804.633 7        43.200          23.600          39.600          43.500
G12  21454671.023 8  21454675.340 6  21454675.164 7                 112745108.030 8  87853354.762 6  87853323.757 7                        50.500          38.600          45.200
G13  23959707.742 7  23959711.992 3                                 125909064.007 7  98110989.389 3                                        42.100          22.900
G15  22507003.445 8  22507007.586 5  22507007.813 7                 118275100.294 8  92162436.069 5  92162425.065 7                        49.100          35.300          43.800
G17  22370153.594 8  22370157.547 6  22370157.586 7                 117556018.954 8  91602114.763 6  91602089.766 7                        49.600          37.300          45.200
G19  21059408.281 7  21059409.805 6                                 110668049.610 7  86234827.425 6                                        47.600          38.600
G20  25155464.969 6  25155470.254 3                                 132192920.015 6 103007443.008 3                                        36.700          19.600
G24  20239673.391 8  20239679.219 7  20239679.340 8  20239679.641 9 106360212.821 8  82878134.645 7  82878092.662 8  79424851.667 9        52.000          45.100          51.500          56.000
G25  24829198.523 6  24829206.891 3  24829207.691 6  24829207.875 7 130478319.942 6 101671455.041 3 101671433.103 6  97435113.401 7        36.600          19.600          38.100          42.800
G28  25150722.016 5  25150727.238 2                                 132167958.070 5 102988015.431 2                                        35.900          16.300
G32  25520826.016 6                  25520832.496 5  25520831.844 6 134112880.016 6                 104503518.177 5 100149211.041 6        39.200                          35.400          36.300
> 2019 03 21 12 01 00.0000000  0 13
G01  25388204.836 6  25388211.742 3  25388211.586 6  25388210.141 7 133415949.400 6 103960482.521 3 103960464.545 6  99628776.977 7        38.600          22.300          39.200          42.100
G06  25048618.484 6  25048626.930 3  25048627.258 6  25048629.199 7 131631447.137 6 102569948.102 3 102569918.124 6  98296172.051 7        39.700          20.900          36.900          46.000
G10  24507802.445 7  24507808.289 3  24507807.082 6  24507806.027 6 128789313.444 7 100355384.802 3 100355308.860 6  96173876.576 6        42.500          22.500          38.000          41.900
G12  21440350.742 8  21440355.164 6  21440354.930 7                 112669855.255 8  87794716.276 6  87794685.286 7                        48.500          38.400          45.600
G13  23981773.625 6  23981777.992 3                                 126025024.417 6  98201348.031 3                                        41.600          20.600
G15  22524630.578 8  22524635.113 5  22524635.691 7                 118367734.038 8  92234618.158 5  92234607.146 7                        49.100          34.800          43.600
G17  22379889.578 8  22379893.426 6  22379893.137 7                 117607182.162 8  91641982.203 6  91641957.203 7                        49.100          37.900          45.600
G19  21058476.789 7  21058478.602 6                                 110663156.061 7  86231014.282 6                                        47.000          38.800
G20  25169597.320 5  25169602.801 2                                 132267189.603 5 103065315.448 2                                        34.700          15.600
G24  20236421.680 8  20236427.805 7  20236428.020 8  20236428.145 9 106343126.131 8  82864820.348 7  82864778.349 8  79412092.118 9        50.500          45.000          51.800          56.100
G25  24809267.195 6  24809275.066 3  24809275.074 6  24809273.520 6 130373575.832 6 101589836.295 3 101589814.296 6  97356895.323 6        38.800          20.100          37.800          40.200
G28  25168033.313 6  25168038.063 2                                 132258923.354 6 103058897.403 2                                        37.200          15.600
G32  25501242.109 7  25501247.973 4  25501248.730 6  25501248.840 7 134009965.281 7 104423348.947 4 104423324.935 6 100072342.707 7        43.500          27.900          41.100          43.000
> 2019 03 21 12 01 30.0000000  0 12
G01  25396873.586 5  25396883.195 2  25396882.594 6  25396882.492 7 133461517.088 5 103995989.716 2 103995971.712 6  99662804.737 7        31.200          17.400          37.000          44.100
G06  25031301.875 6  25031310.285 4  25031310.602 6  25031311.875 7 131540444.988 6 102499037.399 4 102499007.427 6  98228216.029 7        41.000          24.600          39.200          44.600
G10  24515298.648 6  24515307.070 3  24515305.992 6  24515305.383 7 128828715.718 6 100386087.846 3 100386011.856 6  96203300.328 7        39.400          21.100          38.300          42.300
G12  21426094.914 8  21426098.516 6  21426098.809 7                 112594939.392 8  87736340.310 6  87736309.303 7                        49.300          38.500          45.300
G13  24003861.328 6  24003865.797 3                                 126141099.612 6  98291796.242 3                                        40.600          19.000
G15  22542315.844 8  22542319.953 5  22542320.148 7                 118460668.771 8  92307034.781 5  92307023.765 7                        49.500          34.600          43.300
G17  22389716.203 8  22389720.090 6  22389719.922 7                 117658821.686 8  91682220.793 6  91682195.802 7                        49.000          36.500          45.900
G19  21057673.859 8  21057675.992 6                                 110658939.043 8  86227728.297 6                                        48.100          37.800
G20  25183769.805 6                                                 132341664.692 6                                                        36.500
G24  20233252.977 8  20233259.238 7  20233259.215 8  20233259.664 9 106326475.414 8  82851845.767 7  82851803.789 8  79399658.170 9        50.600          45.400          51.800          56.100
G25  24789354.188 5  24789363.051 3  24789364.430 6  24789364.773 7 130268939.948 5 101508301.807 3 101508279.829 6  97278758.179 7        35.500          19.600          38.900          44.200
G28  25185339.813 6  25185342.773 2                                 132349865.020 6 103129761.044 2                                        37.300          15.600
> 2019 03 21 12 02 00.0000000  0 13
G01  25405646.734 5  25405654.652 3  25405654.141 6  25405653.320 7 133507610.125 5 104031906.405 3 104031888.405 6  99697224.831 7        34.600          20.900          40.900          44.100
G06  25014000.773 6  25014008.637 4  25014009.359 6  25014009.215 7 131449523.871 6 102428189.898 4 102428159.922 6  98160320.438 7        40.300          25.600          39.600          42.800
G10  24522886.063 6  24522894.930 3  24522893.863 6  24522893.547 7 128868587.378 6 100417156.598 3 100417080.633 6  96233074.552 7        37.200          21.300          40.200          43.800
G12  21411903.266 8  21411907.027 6  21411907.180 7                 112520362.362 8  87678228.354 6  87678197.342 7                        50.000          38.800          45.400
G13  24025971.430 6  24025976.547 3                                 126257287.694 6  98382332.383 3                                        38.900          19.600
G15  22560057.383 8  22560061.645 5  22560061.863 7                 118553902.086 8  92379684.089 5  92379673.087 7                        49.700          35.500          43.600
G17  22399633.586 8  22399637.285 6  22399636.809 7                 117710936.527 8  91722829.760 6  91722804.766 7                        49.000          36.000          45.100
G19  21057000.602 7  21057002.414 6                                 110655399.322 7  86224970.078 6                                        47.800          38.100
G20  25197980.492 6  25197983.820 3                                 132416342.470 6 103181529.399 3                                        39.100          19.000
G24  20230167.766 8  20230173.973 7  20230173.859 8  20230174.391 9 106310262.271 8  82839212.157 7  82839170.165 8  79387550.948 9        50.900          45.100          51.200          56.200
G25  24769464.766 6  24769473.684 3  24769473.906 6  24769471.977 6 130164413.677 6 101426852.884 3 101426830.875 6  97200702.948 6        38.100          22.200          39.400          41.700
G28  25202639.742 6  25202643.902 2                                 132440782.636 6 103200605.869 2                                        36.200          14.800
G32  25462177.727 7  25462186.230 3  25462184.660 6  25462185.625 7 133804685.741 7 104263394.260 3 104263364.293 6  99919048.461 7        42.700          22.300          36.400          42.700
> 2019 03 21 12 02 30.0000000  0 13
G01  25414515.742 5  25414525.211 2  25414524.766 6  25414523.531 6 133554226.287 5 104068230.548 2 104068212.569 6  99732035.430 6        31.900          17.400          38.900          38.800
G06  24996713.883 6  24996722.391 3  24996723.051 6  24996724.094 7 131358685.977 6 102357407.240 3 102357377.272 6  98092487.038 7        41.000          23.900          39.500          45.100
G10  24530563.555 7  24530570.582 3  24530569.875 6  24530569.195 7 128908925.527 7 100448588.862 3 100448512.855 6  96263197.106 7        42.200          23.600          39.600          44.700
G12  21397775.859 8  21397780.137 6  21397779.395 7                 112446123.361 8  87620379.808 6  87620348.817 7                        49.900          38.200          45.500
G13  24048102.438 6  24048107.730 3                                 126373585.187 6  98472953.717 3                                        39.500          21.500
G15  22577855.438 8  22577859.719 5  22577859.441 7                 118647430.618 8  92452563.426 5  92452552.411 7                        49.900          35.000          42.400
G17  22409640.156 8  22409644.352 5  22409644.027 7                 117763523.727 8  91763806.791 5  91763781.800 7                        49.100          35.700          44.700
G19  21056455.695 8  21056457.363 6                                 110652535.678 8  86222738.683 6                                        48.300          37.500
G20  25212228.328 5  25212233.242 2                                 132491219.43515 103239875.02412                                        33.500          16.300
G24  20227166.188 8  20227171.984 7  20227172.113 8  20227172.344 9 106294486.519 8  82826919.369 7  82826877.370 8  79375770.367 9        51.300          45.100          52.000          56.200
G25  24749594.773 5  24749603.035 3  24749602.406 6  24749602.785 6 130059997.180 5 101345489.359 3 101345467.437 6  97122729.595 6        35.800          18.600          36.300          41.700
G28  25219935.828 5  25219940.063 2                                 132531674.280 5 103271430.466 2                                        34.100          13.900
G32  25442699.500 5  25442706.625 3  25442706.105 7  25442706.000 6 133702323.844 5 104183631.753 3 104183601.793 7  99842609.044 6        33.100          22.300          42.200          41.700
> 2019 03 21 12 03 00.0000000  0 13
G01  25423487.289 5  25423495.371 3  25423495.168 6                 133601364.008 5 104104961.195 3 104104943.220 6                        34.500          18.300          38.500
G06  24979445.445 7  24979452.512 4  24979452.863 6  24979455.215 7 131267934.759 7 102286692.072 4 102286662.045 6  98024718.427 7        42.200          24.500          38.400          46.600
G10  24538329.195 7  24538336.117 4  24538334.516 6  24538332.176 7 128949728.435 7 100480383.305 4 100480307.303 6  96293666.794 7        43.300          26.100          40.100          43.100
G12  21383713.344 8  21383716.961 6  21383717.309 7                 112372223.845 8  87562795.814 6  87562764.800 7                        48.900          38.600          45.500
G13  24070254.180 6  24070259.910 3                                 126489990.178 6  98563658.820 3                                        40.600          22.600
G15  22595709.344 8  22595713.066 5  22595712.984 7                 118741252.222 8  92525671.141 5  92525660.127 7                        49.400          34.500          42.800
G17  22419736.914 8  22419740.574 5  22419741.082 7                 117816581.370 8  91805150.403 5  91805125.409 7                        49.000          35.500          44.500
G19  21056039.766 8  21056041.195 6                                 110650348.476 8  86221034.376 6                                        48.700          37.600
G20  25226515.547 5                                                 132566284.449 5                                                        35.400
G24  20224247.359 8  20224253.266 7  20224253.281 8  20224253.578 9 106279148.799 8  82814967.896 7  82814925.898 8  79364316.870 9        50.400          44.800          51.800          56.200
G25  24729745.547 6  24729754.816 3  24729754.852 6  24729755.203 7 129955691.929 6 101264212.641 3 101264190.655 6  97044839.411 7        37.700          21.300          38.300          44.500
G28  25237228.523 6  25237230.996 2                                 132622539.585 6 103342234.599 2                                        37.800          14.800
G32  25423256.633 6  25423262.945 3  25423262.270 5  25423263.711 7 133600150.889 6 104104016.776 3 104103986.750 5  99766311.362 7        41.200          19.300          34.200          46.500
> 2019 03 21 12 03 30.0000000  0 13
G01  25432554.781 5  25432564.270 2  25432562.301 5  25432562.730 7 133649021.037 5 104142096.776 2 104142078.686 5  99802819.918 7        34.900          14.800          30.300          42.300
G06  24962192.867 6  24962200.844 4  24962201.508 6  24962201.652 7 131177272.412 6 102216046.212 4 102216016.219 6  97957016.145 7        41.300          25.900          40.500          43.300
G10  24546181.734 7  24546186.848 4  24546186.066 6  24546186.082 7 128990993.209 7 100512537.671 4 100512461.681 6  96324481.386 7        43.400          24.800          38.300          43.200
G12  21369715.242 8  21369718.566 6  21369719.098 7                 112298663.897 8  87505476.396 6  87505445.398 7                        49.700          38.700          44.800
G13  24092424.984 6  24092430.738 3                                 126606499.009 6  98654444.849 3                                        40.900          22.300
G15  22613617.469 8  22613621.730 5  22613621.711 7                 118835363.111 8  92599004.270 5  92598993.276 7                        49.500          34.000          43.100
G17  22429922.523 8  22429926.184 5  22429926.199 7                 117870107.068 8  91846858.735 5  91846833.744 7                        49.000          35.800          44.100
G19  21055751.656 8  21055753.402 6                                 110648837.148 8  86219856.734 6                                        49.400          37.900
G20  25240838.266 6                                                 132641550.667 6                                                        38.600
G24  20221412.039 8  20221418.105 7  20221418.086 8  20221418.273 9 106264249.792 8  82803358.285 7  82803316.286 8  79353190.988 9        51.400          45.600          52.100          56.400
G25  24709919.141 6  24709926.609 3  24709927.254 6  24709925.664 7 129851498.153 6 101183022.771 3 101183000.761 6  96967032.498 7        36.500          20.900          37.200          42.300
G28  25254513.008 6  25254517.762 2                                 132713376.790 6 103413016.754 2                                        38.800          17.800
G32  25403849.938 6  25403856.832 3  25403855.719 5  25403856.965 7 133498169.358 6 104024550.336 3 104024520.404 5  99690156.335 7        39.200          18.300          34.600          43.700
> 2019 03 21 12 04 00.0000000  0 13
G01  25441721.781 5  25441731.332 2  25441730.191 6  25441728.492 6 133697196.476 5 104179636.028 2 104179618.012 6  99838795.078 6        34.100          16.300          36.200          38.500
G06  24944957.102 7  24944965.934 4  24944966.484 6  24944967.133 7 131086702.942 7 102145472.718 4 102145442.731 6  97889383.183 7        42.000          26.400          39.900          45.400
G10  24554121.242 6  24554127.477 3  24554126.555 6  24554125.371 7 129032718.696 6 100545051.052 3 100544975.117 6  96355639.989 7        40.400          22.600          36.700          43.600
G12  21355782.289 8  21355785.910 6  21355785.742 7                 112225445.260 8  87448422.941 6  87448391.937 7                        49.200          38.300          45.100
G13  24114615.984 6  24114621.297 3                                 126723110.307 6  98745310.700 3                                        40.800          22.900
G15  22631581.313 8  22631585.395 5  22631585.602 7                 118929761.444 8  92672561.396 5  92672550.377 7                        48.300          33.600          42.900
G17  22440197.266 8  22440200.758 6  22440200.727 7                 117924099.596 8  91888930.825 6  91888905.819 7                        49.200          36.300          44.300
G19  21055593.016 8  21055594.605 6                                 110648002.175 8  86219206.125 6                                        49.200          38.200
G20  25255195.867 5  25255200.727 2                                 132717007.710 5 103415820.909 2                                        35.200          16.900
G24  20218660.523 8  20218666.645 7  20218666.770 8  20218666.969 9 106249791.198 8  82792091.847 7  82792049.863 8  79342393.993 9        51.200          45.300          51.800          56.100
G25  24690112.195 6  24690120.582 3  24690120.078 6  24690120.043 7 129747417.697 6 101101921.189 3 101101899.219 6  96889310.141 7        37.800          19.300          36.300          42.200
G28  25271795.266 6  25271798.965 2                                 132804185.827 6 103483776.976 2                                        38.300          17.800
G32  25384480.000 5  25384487.703 3  25384487.602 6  25384483.992 5                                 103945205.818 6  99614146.352 5        33.400          18.600          39.600          34.900
> 2019 03 21 12 04 30.0000000  0 13
G01  25450988.523 5  25450995.965 2  25450994.027 4  25450995.410 6 133745887.919 5 104217577.379 2 104217559.58814  99875155.715 6        34.200          13.900          28.100          41.400
G06  24927740.789 6  24927748.996 4  24927749.188 6  24927750.699 7 130996228.853 6 102074973.469 4 102074943.462 6  97821821.474 7        41.700          25.300          40.400          45.900
G10  24562147.305 6  24562154.426 3  24562154.371 6  24562152.918 7 129074902.280 6 100577921.306 3 100577845.324 6  96387140.642 7        41.000          22.300          38.900          42.200
G12  21341914.172 8  21341917.801 6  21341917.910 7                 112152568.546 8  87391635.914 6  87391604.930 7                        50.100          38.600          45.400
G13  24136824.414 6  24136829.668 3                                 126839821.062 6  98836254.070 3                                        38.600          18.600
G15  22649598.703 8  22649603.754 5  22649604.117 7                 119024444.195 8  92746340.118 5  92746329.124 7                        48.800          35.000          43.700
G17  22450559.664 8  22450563.418 6  22450563.344 7                 117978556.338 8  91931364.640 6  91931339.639 7                        49.500          36.100          44.300
G19  21055563.031 8  21055564.223 6                                 110647842.821 8  86219081.973 6                                        49.000          38.500
G20  25269591.375 5                                                 132792656.099 5                                                        34.600
G24  20215993.289 8  20215999.117 7  20215999.191 8  20215999.418 9 106235772.910 8  82781168.508 7  82781126.524 8  79331925.795 9        51.900          45.500          51.600          56.600
G25  24670328.297 6  24670337.242 3  24670337.246 6  24670337.492 7 129643451.169 6 101020908.373 3 101020886.361 6  96811672.892 7        37.100          21.700          38.700          45.400
G28  25289067.688 6  25289073.539 2                                 132894965.472 6 103554514.312 2                                        37.300          16.900
G32  25365148.664 7  25365155.387 3  25365155.426 6  25365154.156 7 133294791.459 7 103866074.353 3 103866044.359 6  99538283.208 7        42.500          23.900          37.800          42.400
> 2019 03 21 12 05 00.0000000  0 13
G01  25460354.313 5  25460362.648 2  25460361.172 5  25460359.477 7 133795094.262 5 104255928.341 2 104255902.369 5  99911900.807 7        31.200          15.600          35.600          45.600
G06  24910542.359 6  24910551.617 4  24910551.664 6  24910552.016 7 130905853.861 6 102004551.489 4 102004521.517 6  97754333.789 7        39.700          24.300          40.400          44.200
G10  24570261.852 6  24570267.883 3  24570268.895 6  24570267.578 7 129117542.374 6 100611147.304 3 100611071.316 6  96418982.242 7        40.800          22.500          38.300          43.200
G12  21328111.828 8  21328114.953 6  21328115.383 7                 112080035.177 8  87335116.436 6  87335085.432 7                        50.100          38.200          44.400
G13  24159052.523 6  24159057.082 3                                 126956629.563 6  98927273.580 3                                        38.200          20.400
G15  22667670.156 8  22667675.223 5  22667675.074 7                 119119409.182 8  92820338.759 5  92820327.755 7                        49.600          35.200          44.300
G17  22461011.055 8  22461014.539 6  22461014.242 7                 118033476.329 8  91974159.446 6  91974134.441 7                        49.500          36.800          44.500
G19  21055661.273 8  21055662.387 6                                 110648359.467 8  86219484.565 6                                        49.600          38.300
G20  25284020.352 6  25284027.238 2                                 132868484.871 6 103533863.637 2                                        39.300          16.900
G24  20213409.891 8  20213415.633 7  20213415.871 8  20213415.867 9 106222196.248 8  82770589.300 7  82770547.309 8  79321787.384 9        52.500          45.300          52.000          56.100
G25  24650565.563 5  24650574.480 3  24650574.879 6  24650574.754 7 129539600.079 5 100939985.627 3 100939963.653 6  96734121.996 7        35.800          19.600          38.700          43.200
G28  25306338.023 6  25306342.285 3                                 132985715.510 6 103625228.606 3                                        39.200          18.300
G32  25345854.328 6  25345861.637 2  25345859.387 5  25345860.680 7 133193400.555 6 103787068.379 2 103787038.420 5  99462569.270 7        36.800          16.900          33.100          43.900
> 2019 03 21 12 05 30.0000000  0 13
G01  25469814.914 6  25469821.449 4  25469821.730 6  25469820.852 7 133844809.335 6 104294658.916 4 104294644.927 6  99949029.200 7        40.200          25.600          40.400          46.100
G06  24893363.367 6  24893372.875 4  24893373.500 6  24893372.707 7 130815581.158 6 101934209.188 4 101934179.199 6  97686922.383 7        40.600          24.300          40.100          43.700
G10  24578463.844 6  24578469.445 4  24578469.035 6  24578469.922 7 129160636.845 6 100644727.368 4 100644651.391 6  96451163.115 7        41.400          24.300          38.800          44.700
G12  21314374.820 8  21314377.930 6  21314377.855 7                 112007845.816 8  87278865.006 6  87278834.007 7                        50.500          38.400          45.100
G13  24181298.773 6  24181302.512 2                                 127073533.019 6  99018367.162 2                                        39.800          16.900
G15  22685794.883 8  22685799.914 6  22685799.941 7                 119214653.796 8  92894555.303 6  92894544.299 7                        49.800          36.200          44.500
G17  22471549.750 8  22471553.164 6  22471552.824 7                 118088857.474 8  92017313.584 6  92017288.595 7                        50.000          36.700          43.900
G19  21055888.367 8  21055889.387 6                                 110649552.294 8  86220414.070 6                                        48.800          38.400
G20  25298483.852 5  25298490.539 2                                 132944495.569 5 103593093.187 2                                        32.000          13.900
G24  20210910.398 8  20210916.379 7  20210916.324 8  20210916.539 9 106209062.699 8  82760355.367 7  82760313.376 8  79311979.858 9        51.300          45.100          51.900          56.100
G25  24630825.766 6  24630833.531 3  24630833.805 6  24630834.012 7 129435865.569 6 100859153.604 3 100859131.668 6  96656657.979 7        36.900          20.400          37.700          42.600
G28  25323601.469 6  25323605.090 3                                 133076435.166 6 103695919.185 3                                        39.400          18.300
G32  25326598.781 6  25326606.227 3  25326606.406 6  25326605.367 6 133092211.912 6 103708220.095 3 103708190.104 6  99387006.391 6        39.100          22.300          40.600          40.900
> 2019 03 21 12 06 00.0000000  0 12
G01  25479373.672 6  25479379.961 3  25479379.836 6  25479380.051 7 133895040.508 6 104333800.032 3 104333786.022 6  99986539.476 7        39.200          20.600          36.200          43.700
G06  24876205.641 6  24876214.539 4  24876214.527 6  24876215.191 7 130725413.588 6 101863948.804 4 101863918.841 6  97619589.538 7        39.600          24.200          39.300          44.400
G10  24586748.758 6  24586754.922 3  24586756.156 6  24586755.207 6 129204183.428 6 100678659.738 3 100678583.733 6  96483681.639 6        40.200          20.100          37.800          41.900
G12  21300703.172 8  21300706.918 6  21300706.676 7                 111936001.453 8  87222882.407 6  87222851.396 7                        50.500          39.000          46.200
G13  24203562.516 6  24203568.125 3                                 127190529.205 6  99109532.937 3                                        39.800          20.400
G15  22703972.172 8  22703976.594 5  22703976.559 7                 119310175.227 8  92968987.547 5  92968976.551 7                        49.800          35.600          43.900
G17  22482175.695 8  22482179.313 6  22482178.988 7                 118144697.787 8  92060825.518 6  92060800.517 7                        49.200          36.200          44.200
G19  21056243.563 8  21056245.070 6                                 110651421.009 8  86221870.229 6                                        48.400          38.400
G24  20208495.430 8  20208501.461 7  20208501.324 8  20208501.809 9 106196372.669 8  82750467.032 7  82750425.034 8  79302503.541 9        51.000          45.300          51.800          56.200
G25  24611107.234 5  24611116.160 3  24611117.004 6  24611117.078 7 129332248.465 5 100778413.163 3 100778391.174 6  96579281.778 7        35.500          19.600          38.700          43.300
G28  25340859.234 6  25340863.039 2                                 133167123.661 6 103766585.548 2                                        39.700          16.900
G32  25307381.438 6  25307391.270 4  25307389.703 6  25307387.207 6 132991228.119 6 103629531.441 4 103629501.481 6  99311596.331 6        39.000          24.200          40.100          40.900
> 2019 03 21 12 06 30.0000000  0 13
G01  25489028.563 6  25489036.508 3  25489036.145 6  25489034.898 6 133945781.502 6 104373338.475 3 104373324.487 6 100024430.424 6        39.400          23.400          38.300          41.400
G06  24859068.117 6  24859076.063 3  24859076.535 6  24859077.578 7 130635354.553 6 101793772.941 3 101793742.958 6  97552337.687 7        39.200          22.500          39.000          44.100
G10  24595121.336 6  24595126.969 3  24595127.941 6  24595126.051 6 129248180.292 6 100712942.959 3 100712866.996 6  96516536.369 6        40.200          20.900          37.300          41.700
G12  21287097.063 8  21287101.164 6  21287100.617 7                 111864502.771 8  87167169.179 6  87167138.174 7                        50.200          38.600          45.300
G13  24225843.586 6  24225848.316 3                                 127307615.896 6  99200769.247 3                                        40.200          22.000
G15  22722201.125 8  22722205.582 5  22722205.719 7                 119405970.963 8  93043633.531 5  93043622.529 7                        48.800          34.800          43.300
G17  22492888.914 8  22492892.176 6  22492891.984 7                 118200995.693 8  92104694.008 6  92104669.014 7                        49.200          36.300          43.700
G19  21056727.641 7  21056729.105 6                                 110653965.545 7  86223853.002 6                                        47.900          38.400
G20  25327515.508 6  25327520.902 3                                 133097051.889 6 103711959.041 3                                        38.100          20.400
G24  20206165.094 8  20206171.184 7  20206171.391 8  20206171.379 9 106184126.720 8  82740924.724 7  82740882.733 8  79293358.844 9        51.200          45.200          51.400          56.100
G25  24591414.266 6  24591420.645 3  24591421.480 6  24591419.984 6 129228750.078 6 100697765.236 3 100697743.255 6  96501994.159 6        38.200          21.700          37.400          41.500
G28  25358110.445 6  25358114.594 2                                 133257780.280 6 103837227.093 2                                        39.000          17.400
G32  25288203.461 5  25288213.781 2  25288212.523 6  25288209.578 6 132890451.854 5 103551004.537 2 103550974.594 6  99236341.400 6        35.100          16.900          38.700          41.600
> 2019 03 21 12 07 00.0000000  0 13
G01  25498781.188 5  25498789.707 3  25498789.480 5  25498786.332 5 133997030.613 5 104413272.865 3 104413258.874 5 100062701.124 5        35.600          18.300          35.600          32.600
G06  24841951.961 6  24841959.797 3  24841959.684 6  24841960.883 7 130545407.221 6 101723684.146 3 101723654.159 6  97485169.269 7        40.000          23.600          39.000          43.400
G10  24603579.609 6  24603585.672 3  24603585.559 6  24603584.527 7 129292625.058 6 100747575.200 3 100747499.207 6  96549725.631 7        41.400          23.000          38.400          43.200
G12  21273557.438 8  21273561.066 6  21273560.848 7                 111793350.814 8  87111726.130 6  87111695.148 7                        51.200          38.900          45.700
G13  24248141.563 6  24248146.664 3                                 127424790.265 6  99292073.868 3                                        40.100          22.300
G15  22740482.109 8  22740486.684 5  22740486.195 7                 119502038.250 8  93118491.130 5  93118480.128 7                        48.200          33.900          43.000
G17  22503688.375 8  22503691.813 5  22503692.043 7                 118257748.918 8  92148917.293 5  92148892.292 7                        49.100          35.900          44.300
G19  21057340.445 7  21057342.352 6                                 110657185.495 7  86226362.076 6                                        47.500          38.100
G20  25342081.195 6  25342085.527 2                                 133173590.482 6 103771599.492 2                                        38.000          15.600
G24  20203919.563 8  20203925.645 7  20203925.637 8  20203925.797 9 106172326.057 8  82731729.405 7  82731687.406 8  79284546.655 9        51.400          45.200          51.700          56.500
G25  24571739.227 5  24571746.648 2  24571748.578 6  24571748.273 7 129125371.390 5 100617210.451 2 100617188.472 6  96424795.883 7        34.800          17.800          36.300          42.500
G28  25375355.250 6  25375359.191 2                                 133348404.552 6 103907843.327 2                                        39.700          17.800
G32  25269066.914 6  25269076.512 3  25269074.570 6  25269071.730 6 132789885.944 6 103472641.528 3 103472611.545 6  99161243.544 6        38.900          22.500          39.400          40.000
> 2019 03 21 12 07 30.0000000  0 12
G01  25508629.539 5                                  25508637.047 7                                                 100101349.559 7        31.300                                          43.200
G06  24824858.000 6  24824865.207 3  24824865.402 6  24824866.406 7 130455574.472 6 101653684.645 3 101653654.656 6  97418086.393 7        39.400          22.300          38.900          44.000
G10  24612121.461 6  24612127.941 3  24612128.461 6  24612126.738 7 129337515.436 6 100782554.692 3 100782478.704 6  96583247.611 7        37.700          22.000          37.900          43.000
G12  21260084.023 8  21260087.250 6  21260087.500 7                 111722546.427 8  87056553.897 6  87056522.898 7                        52.000          38.600          45.500
G13  24270454.047 6  24270460.023 3                                 127542049.875 6  99383444.876 3                                        38.800          19.600
G15  22758814.375 7  22758818.691 5  22758818.371 7                 119598374.189 7  93193558.055 5  93193547.043 7                        46.800          34.000          42.600
G17  22514574.586 7  22514577.801 5  22514577.973 7                 118314954.907 7  92193493.390 5  92193468.393 7                        47.900          34.800          43.500
G19  21058081.781 7  21058082.965 6                                 110661080.275 7  86229396.985 6                                        47.500          38.000
G24  20201758.844 8  20201764.852 7  20201765.094 8  20201765.020 9 106160971.485 8  82722881.679 7  82722839.688 8  79276067.591 9        52.500          45.000          51.600          56.100
G25  24552092.273 6  24552099.277 3  24552100.125 6  24552101.469 7 129022113.264 6 100536749.728 3 100536727.746 6  96347687.673 7        38.100          22.200          38.100          44.700
G28  25392594.047 6  25392598.152 3                                 133438995.357 6 103978433.608 3                                        40.700          19.300
G32  25249970.000 6  25249979.844 3  25249979.793 6  25249975.258 6 132689532.538 6 103394444.163 3 103394414.197 6  99086304.346 6        36.500          21.100          39.600          40.600
> 2019 03 21 12 08 00.0000000  0 12
G01  25518574.078 5  25518581.988 3  25518581.410 6  25518581.191 7 134101046.153 5 104494322.297 3 104494285.325 6 100140374.251 7        34.800          18.300          37.800          45.300
G06  24807784.938 6  24807793.352 3  24807793.457 6  24807794.395 7 130365859.036 6 101583776.512 3 101583746.521 6  97351091.135 7        40.400          22.300          40.000          44.100
G10  24620747.430 6  24620755.391 3  24620755.211 6  24620755.191 7 129382848.869 6 100817879.403 3 100817803.425 6  96617100.460 7        38.800          22.600          39.100          43.900
G12  21246676.438 8  21246680.199 6  21246679.941 7                 111652089.877 8  87001652.719 6  87001621.721 7                        51.000          38.500          45.700
G13  24292785.133 6  24292789.656 3                                 127659392.071 6  99474880.248 3                                        39.900          20.900
G15  22777197.297 8  22777201.344 5  22777201.441 7                 119694975.969 8  93268832.135 5  93268821.128 7                        48.700          33.500          42.500
G17  22525545.453 8  22525549.297 5  22525549.594 7                 118372611.774 8  92238420.810 5  92238395.816 7                        48.700          35.200          43.800
G19  21058951.320 7  21058952.641 6                                 110665649.509 7  86232957.443 6                                        47.800          38.800
G24  20199683.086 8  20199688.992 7  20199688.957 8  20199689.270 9 106150062.902 8  82714381.488 7  82714339.504 8  79267921.574 9        52.300          45.000          51.600          56.200
G25  24532464.148 5  24532472.648 3  24532473.016 6  24532473.582 7 128918976.382 5 100456383.477 3 100456361.515 6  96270670.023 7        34.700          18.600          36.100          42.600
G28  25409826.266 6  25409830.977 2                                 133529551.294 6 104048996.654 2                                        37.600          17.800
G32  25230916.148 6  25230923.793 3  25230922.207 6  25230920.805 7 132589394.151 6 103316414.195 3 103316384.224 6  99011525.693 7        41.100          21.500          36.600          42.300
> 2019 03 21 12 08 30.0000000  0 13
G01  25528614.531 6  25528621.109 3  25528621.215 6  25528620.258 7 134153807.476 6 104535432.902 3 104535397.919 6 100179773.827 7        39.400          20.900          38.300          42.000
G06  24790735.406 6  24790743.781 3  24790744.883 6  24790744.930 7 130276264.244 6 101513962.387 3 101513932.398 6  97284185.925 7        39.000          23.900          40.500          43.000
G10  24629458.281 6  24629465.289 3  24629466.035 6  24629464.867 7 129428623.168 6 100853547.617 3 100853471.585 6  96651282.504 7        39.400          20.900          38.900          43.900
G12  21233335.461 8  21233338.711 6  21233338.902 7                 111581982.580 8  86947023.681 6  86946992.697 7                        50.300          38.600          45.400
G13  24315129.234 6  24315134.547 3                                 127776814.344 6  99566378.016 3                                        39.400          18.300
G15  22795630.086 7  22795634.012 5  22795634.520 7                 119791840.786 7  93344311.172 5  93344300.170 7                        47.900          33.200          42.600
G17  22536603.000 8  22536606.754 5  22536606.512 7                 118430717.514 8  92283698.013 5  92283672.993 7                        49.300          35.200          42.900
G19  21059949.273 7  21059950.766 6                                 110670892.847 7  86237043.189 6                                        47.900          38.600
G20  25385966.602 6  25385971.273 3                                 133404210.787 6 103951304.113 3                                        37.500          21.700
G24  20197692.516 8  20197698.328 7  20197698.328 8  20197698.723 9 106139601.927 8  82706230.087 7  82706188.082 8  79260109.800 9        51.700          45.300          51.600          56.700
G25  24512862.391 6  24512868.484 3  24512869.789 6  24512871.438 7 128815961.878 6 100376112.376 3 100376090.394 6  96193743.595 7        38.400          22.300          37.900          43.700
G28  25427052.328 6  25427056.191 2                                 133620071.894 6 104119532.157 2                                        39.700          17.400
G32  25211900.133 6  25211909.125 3  25211908.301 6  25211904.844 6 132489473.211 6 103238553.780 3 103238523.848 6  98936909.491 6        36.400          20.400          40.600          38.100
> 2019 03 21 12 09 00.0000000  0 13
G01  25538750.047 6  25538756.445 3  25538755.859 5  25538756.047 6 134207068.932 6 104576935.450 3 104576900.417 5 100219547.156 6        39.400          19.000          34.600          41.300
G06  24773709.750 6  24773718.242 3  24773718.336 6  24773719.320 7 130186793.383 6 101444244.923 3 101444214.906 6  97217373.336 7        40.500          22.900          39.700          44.300
G10  24638253.133 6  24638258.965 3  24638259.723 6  24638259.793 7 129474836.346 6 100889557.817 3 100889481.835 6  96685792.257 7        40.400          20.600          36.300          43.300
G12  21220060.570 8  21220064.016 6  21220064.461 7                 111512224.606 8  86892666.849 6  86892635.844 7                        51.400          38.400          45.000
G13  24337489.547 6  24337492.980 3                                 127894314.340 6  99657936.400 3                                        40.000          19.000
G15  22814112.758 8  22814116.285 5  22814116.199 7                 119888966.095 8  93419993.210 5  93419982.181 7                        49.000          33.600          42.900
G17  22547745.891 8  22547749.047 5  22547748.813 7                 118489270.181 8  92329323.465 5  92329298.464 7                        49.000          35.300          42.300
G19  21061075.172 8  21061076.574 6                                 110676810.028 8  86241653.986 6                                        48.400          38.600
G20  25400657.563 5  25400661.746 2                                 133481410.528 5 104011459.646 2                                        34.100          15.600
G24  20195786.945 8  20195792.918 7  20195793.051 8  20195793.316 9 106129589.092 8  82698427.874 7  82698385.868 8  79252632.694 9        52.500          44.900          51.100          56.300
G25  24493282.305 6  24493290.480 3  24493291.430 6  24493292.594 7 128713070.865 6 100295937.650 3 100295915.689 6  96116909.515 7        36.400          21.500          40.200          46.100
G28  25444270.484 6  25444274.227 2                                 133710556.740 6 104190039.874 2                                        38.000          17.400
G32  25192929.391 7  25192937.223 3  25192936.469 6  25192934.938 7 132389772.809 7 103160865.168 3 103160835.195 6  98862457.756 7        42.600          22.600          38.100          44.300
> 2019 03 21 12 09 30.0000000  0 12
G01  25548980.422 5  25548987.438 2  25548987.074 5  25548986.602 7 134260829.286 5 104618826.656 2 104618791.736 5 100259692.896 7        30.700          15.600          33.700          42.000
G06  24756708.578 6  24756716.418 3  24756717.164 6  24756717.668 7 130097449.778 6 101374626.563 3 101374596.561 6  97150655.798 7        39.400          22.500          39.900          43.500
G10  24647130.750 6  24647135.145 3  24647135.711 5  24647137.000 6 129521486.192 6 100925908.390 3 100925832.403 5  96720628.145 6        41.900          22.500          35.300          41.600
G12  21206853.039 8  21206856.695 6  21206856.738 7                 111442817.078 8  86838583.083 6  86838552.084 7                        50.500          39.200          45.900
G13  24359863.008 6  24359867.996 3                                 128011889.736 6  99749553.494 3                                        39.700          19.900
G15  22832643.797 7  22832648.238 5  22832648.371 7                 119986349.562 7  93495876.381 5  93495865.394 7                        47.900          33.600          43.500
G17  22558972.344 8  22558975.949 6  22558976.324 7                 118548268.427 8  92375296.121 6  92375271.132 7                        49.300          36.200          43.000
G19  21062329.258 8  21062330.840 6                                 110683400.933 8  86246789.773 6                                        48.200          38.800
G24  20193967.070 8  20193972.965 7  20193972.918 8  20193973.313 9 106120025.311 8  82690975.577 7  82690933.586 8  79245490.909 9        51.200          45.200          51.900          56.400
G25  24473726.914 6  24473733.234 3  24473733.500 5  24473735.328 7 128610304.609 6 100215860.154 3 100215838.155 5  96040168.581 7        38.800          19.600          35.000          42.900
G28  25461481.648 6  25461486.617 3                                 133801005.229 6 104260519.215 3                                        40.000          19.300
G32  25173997.836 6  25174004.324 2  25174004.008 5  25174005.414 7 132290295.483 6 103083350.276 2 103083320.303 5  98788172.804 7        38.600          16.900          34.700          44.700
> 2019 03 21 12 10 00.0000000  0 12
G06  24739730.727 6  24739739.988 3  24739739.965 6  24739739.988 7 130008235.944 6 101305109.386 3 101305079.376 6  97084035.175 7        38.800          22.500          39.500          43.200
G10  24656090.398 6  24656096.594 4  24656097.109 6  24656094.762 6 129568569.940 6 100962597.043 4 100962521.052 6  96755788.151 6        40.600          24.800          38.200          40.200
G12  21193711.945 8  21193715.785 6  21193715.578 7                 111373760.762 8  86784772.996 6  86784741.984 7                        51.400          38.800          46.200
G13  24382250.367 6  24382254.906 3                                 128129537.891 6  99841227.360 3                                        39.400          20.600
G15  22851223.352 7  22851228.313 5  22851228.133 7                 120083988.049 7  93571958.276 5  93571947.282 7                        47.500          33.000          42.700
G17  22570283.906 8  22570287.148 5  22570286.633 7                 118607709.260 8  92421613.654 5  92421588.634 7                        50.600          35.700          43.000
G19  21063711.242 8  21063712.965 6                                 110690664.447 8  86252449.662 6                                        48.900          38.900
G20  25430128.672 6  25430132.242 2                                 133636256.261 6 104132136.999 2                                        37.200          16.300
G24  20192232.547 8  20192238.406 7  20192238.676 8  20192238.922 9 106110910.509 8  82683873.136 7  82683831.159 8  79238684.406 9        52.300          45.300          52.300          56.600
G25  24454193.148 6  24454201.223 3  24454203.074 6  24454203.699 7 128507663.744 6 100135880.190 3 100135858.172 6  95963521.099 7        36.400          19.900          39.200          43.400
G28  25478686.281 6  25478691.094 3                                 133891415.873 6 104330969.108 3                                        40.500          18.300
G32  25155110.922 6  25155117.824 3  25155118.512 6  25155115.016 6 132191043.336 6 103006011.046 3 103005981.054 6  98714055.982 6        38.700          21.500          39.800          37.300
> 2019 03 21 12 10 30.0000000  0 13
G01  25569723.047 5  25569731.199 3  25569731.227 6  25569729.754 6 134369824.253 5 104703772.417 3 104703733.422 6 100341095.310 6        34.800          20.100          39.500          39.200
G06  24722780.906 6  24722787.746 3  24722788.105 6  24722789.141 7 129919155.524 6 101235696.134 3 101235666.141 6  97017514.138 7        39.200          21.500          37.100          43.700
G10  24665130.344 6  24665140.273 3  24665139.703 6  24665138.801 7 129616085.890 6 100999622.395 3 100999546.392 6  96791270.795 7        37.600          23.500          40.700          42.400
G12  21180637.984 8  21180641.441 6  21180641.840 7                 111305056.684 8  86731237.365 6  86731206.373 7                        51.000          39.500          45.300
G13  24404651.414 6  24404657.156 3                                 128247256.845 6  99932956.312 3                                        38.100          20.900
G15  22869851.258 7  22869856.137 5  22869856.297 7                 120181878.737 7  93648236.682 5  93648225.662 7                        47.300          32.800          42.500
G17  22581678.977 8  22581682.160 5  22581682.766 7                 118667591.184 8  92468274.892 5  92468249.896 7                        49.500          34.600          42.500
G19  21065221.336 8  21065222.914 6                                 110698600.675 8  86258633.747 6                                        48.700          37.600
G20  25444907.109 6  25444911.574 3                                 133713921.253 6 104192655.183 3                                        37.100          20.100
G24  20190583.617 8  20190589.605 7  20190589.637 8  20190590.207 9 106102246.128 8  82677121.673 7  82677079.674 8  79232214.243 9        52.100          45.500          51.400          56.300
G25  24434687.234 6  24434694.957 3  24434695.625 6  24434696.668 7 128405149.367 6 100055999.033 3 100055977.032 6  95886968.345 7        38.700          23.000          38.000          45.600
G28  25495883.633 6  25495888.457 3                                 133981788.642 6 104401389.425 3                                        37.700          18.300
G32  25136267.609 6  25136274.305 3  25136274.145 6  25136273.305 7 132092019.585 6 102928849.706 3 102928819.748 6  98640109.608 7        40.500          20.600          36.800          42.700
> 2019 03 21 12 11 00.0000000  0 13
G01  25580233.805 4  25580245.582 2  25580247.035 5  25580242.918 7 134425069.44714 104746820.10712 104746781.160 5 100382349.271 7        29.600          13.900          30.500          42.600
G06  24705853.359 6  24705862.164 3  24705862.660 6  24705864.023 7 129830212.029 6 101166389.567 3 101166359.545 6  96951095.399 7        37.900          21.800          38.100          44.500
G10  24674255.180 6  24674263.836 4  24674263.199 6  24674262.777 7 129664032.000 6 101036982.925 4 101036906.930 6  96827074.650 7        39.100          24.300          40.600          45.000
G12  21167631.125 8  21167634.496 6  21167634.926 7                 111236706.014 8  86677977.140 6  86677946.135 7                        51.200          38.900          46.100
G13  24427065.539 6  24427071.469 3                                 128365044.408 6 100024738.737 3                                        38.000          20.400
G15  22888527.586 8  22888531.656 5  22888532.059 7                 120280019.658 8  93724710.082 5  93724699.087 7                        48.100          32.400          42.300
G17  22593157.523 8  22593161.191 5  22593161.418 7                 118727912.327 8  92515278.364 5  92515253.371 7                        50.300          35.400          42.900
G19  21066859.305 8  21066861.113 6                                 110707209.458 8  86265341.903 6                                        48.100          37.900
G20  25459715.188 5  25459719.289 2                                 133791735.66615 104253289.59712                                        30.500          14.800
G24  20189021.031 8  20189026.758 7  20189026.973 8  20189027.434 9 106094033.263 8  82670722.045 7  82670680.053 8  79226081.275 9        52.600          45.400          51.600          56.600
G25  24415203.195 6  24415208.656 3  24415210.344 5  24415210.363 6 128302763.446 6  99976217.693 3  99976195.710 5  95810511.288 6        38.600          20.400          34.100          41.400
G28  25513073.805 6  25513078.910 2                                 134072123.095 6 104471779.890 2                                        39.600          16.900
G32  25117467.203 6  25117473.750 2  25117474.609 6  25117474.109 7 131993227.197 6 102851868.608 2 102851838.618 6  98566336.189 7        36.000          17.800          36.100          43.900
> 2019 03 21 12 11 30.0000000  0 13
G01  25590843.164 7  25590850.844 4  25590850.270 6  25590849.219 7 134480805.580 7 104790250.586 4 104790211.572 6 100423970.205 7        42.400          27.300          40.900          45.800
G06  24688956.313 7  24688963.680 4  24688964.395 6  24688965.027 7 129741408.160 7 101097191.841 4 101097161.845 6  96884780.905 7        42.500          24.700          39.500          45.000
G10  24683460.758 6  24683469.527 3  24683467.465 6  24683469.219 7 129712405.466 6 101074676.508 3 101074600.518 6  96863197.621 7        39.800          23.200          39.800          45.500
G12  21154691.773 8  21154695.453 6  21154695.320 7                 111168709.334 8  86624992.736 6  86624961.729 7                        51.200          38.800          46.500
G13  24449491.523 6  24449497.469 3                                 128482897.606 6 100116572.289 3                                        38.200          19.600
G15  22907249.859 8  22907254.387 5  22907254.188 6                 120378407.612 8  93801375.998 5  93801364.993 6                        48.200          33.500          41.800
G17  22604719.617 8  22604723.035 5  22604723.008 7                 118788670.438 8  92562622.349 5  92562597.338 7                        50.700          35.800          42.100
G19  21068625.742 8  21068627.234 6                                 110716490.064 8  86272573.549 6                                        48.800          38.800
G20  25474549.922 5                                                 133869696.456 5                                                        31.900
G24  20187544.164 8  20187549.941 7  20187550.246 8  20187550.512 9 106086272.110 8  82664674.389 7  82664632.397 8  79220285.594 9        52.200          45.300          52.300          56.300
G25  24395744.109 6  24395751.449 3  24395753.145 6  24395754.609 7 128200506.071 6  99896536.760 3  99896514.771 6  95734150.337 7        38.500          22.200          39.700          45.000
G28  25530257.188 6  25530261.191 2                                 134162418.155 6 104542139.643 2                                        37.600          16.900
G32  25098713.578 6  25098719.684 3  25098720.574 6  25098716.469 6 131894668.364 6 102775069.523 3 102775039.535 6  98492737.111 6        38.400          22.500          40.000          40.600
> 2019 03 21 12 12 00.0000000  0 12
G01  25601542.828 6  25601549.492 4  25601548.758 6  25601547.836 7 134537030.346 6 104834062.126 4 104834023.129 6 100465956.250 7        40.600          25.100          38.800          43.000
G06  24672082.984 6  24672091.816 3  24672092.074 6  24672093.453 7 129652746.921 6 101028105.220 3 101028075.232 6  96818572.873 7        39.000          22.300          38.000          44.400
G10  24692746.820 6  24692753.234 3  24692753.039 6  24692752.973 7 129761203.870 6 101112701.207 3 101112625.199 6  96899637.922 7        40.200          22.500          36.200          43.400
G12  21141819.727 8  21141823.422 6  21141823.617 7                 111101066.804 8  86572284.298 6  86572253.307 7                        51.000          38.800          46.000
G13  24471931.344 6  24471936.871 3                                 128600813.790 6 100208454.968 3                                        38.600          20.400
G15  22926019.273 8  22926023.602 5  22926023.598 7                 120477039.891 8  93878232.286 5  93878221.289 7                        48.100          32.600          42.600
G17  22616364.133 8  22616367.563 5  22616367.598 7                 118849863.085 8  92610304.915 5  92610279.909 7                        50.600          35.300          42.300
G19  21070519.398 7  21070520.844 6                                 110726441.796 7  86280328.151 6                                        47.900          38.500
G24  20186153.555 8  20186159.137 7  20186159.359 8  20186159.723 9 106078963.506 8  82658979.380 7  82658937.389 8  79214827.881 9        52.700          45.400          51.600          56.400
G25  24376310.469 6  24376318.086 3  24376318.281 6  24376320.102 7 128098378.498 6  99816956.871 3  99816934.911 6  95657886.302 7        39.600          22.500          37.900          45.100
G28  25547430.961 6  25547436.406 2                                 134252673.075 6 104612468.142 2                                        39.200          17.800
G32  25080003.570 6  25080010.332 3  25080009.797 6  25080005.336 6 131796345.556 6 102698454.423 3 102698424.461 6  98419314.139 6        38.900          20.900          38.600          39.500
> 2019 03 21 12 12 30.0000000  0 13
G01  25612334.250 5  25612341.379 2  25612341.340 5  25612338.699 5 134593742.457 5 104878253.369 2 104878214.378 5 100508306.277 5        35.000          14.800          32.600          32.200
G02  25654161.430 6  25654165.098 3                                 134813507.784 6 105049514.602 3                                        38.500          20.900
G06  24655240.781 7  24655247.457 4  24655248.379 6  24655249.234 7 129564231.729 7 100959132.414 4 100959102.443 6  96752473.996 7        42.400          25.600          38.300          44.900
G10  24702113.883 6  24702119.230 3  24702119.152 6  24702121.406 6 129810425.162 6 101151055.555 3 101150979.566 6  96936394.110 6        40.500          21.700          37.300          41.100
G12  21129015.539 8  21129018.852 6  21129018.855 7                 111033779.935 8  86519853.005 6  86519822.000 7                        50.900          38.900          46.300
G13  24494381.320 6  24494386.742 3                                 128718791.117 6 100300385.230 3                                        38.400          19.900
G15  22944834.680 7  22944839.289 5  22944839.441 7                 120575913.771 7  93955276.833 5  93955265.833 7                        47.500          33.400          43.400
G17  22628090.969 8  22628094.668 5  22628094.211 7                 118911488.606 8  92658324.797 5  92658299.784 7                        50.200          35.700          42.200
G19  21072540.844 8  21072542.246 6                                 110737063.992 8  86288605.193 6                                        48.700          38.300
G24  20184848.914 8  20184854.668 7  20184854.813 8  20184855.211 9 106072108.248 8  82653637.619 7  82653595.627 8  79209708.699 9        51.800          45.600          52.000          56.400
G25  24356899.508 6  24356906.410 3  24356907.594 6  24356908.152 6 127996381.853 6  99737479.034 3  99737457.061 6  95581720.096 6        38.200          19.000          36.900          41.900
G28  25564598.914 6  25564604.020 2                                 134342887.250 6 104682764.849 2                                        36.200          15.600
G32  25061338.867 6  25061344.141 3  25061342.770 5  25061342.613 7 131698261.791 6 102622025.506 3 102621995.495 5  98346069.832 7        40.400          19.000          32.600          43.400
> 2019 03 21 12 13 00.0000000  0 13
G01  25623219.641 6                                  25623224.809 7 134650938.995 6                                 100551018.611 7        36.800                                          44.300
G02  25637776.547 4  25637780.086 2                                 134727403.232 4 104982420.307 2                                        29.400          15.600
G06  24638423.828 6  24638433.371 3  24638433.191 6  24638433.520 7 129475865.461 6 100890275.604 3 100890245.609 6  96686486.217 7        40.400          23.900          40.800          44.700
G10  24711557.742 5  24711564.633 2  24711567.148 6  24711562.137 6 129860066.581 5 101189737.152 2 101189661.148 6  96973464.052 6        33.600          16.900          38.600          38.100
G12  21116278.953 8  21116282.027 6  21116282.703 7                 110966849.036 8  86467699.082 6  86467668.077 7                        51.000          38.600          45.800
G13  24516842.961 6  24516848.543 3                                 128836826.511 6 100392360.812 3                                        38.700          19.300
G15  22963694.602 8  22963699.957 5  22963700.191 7                 120675026.358 8  94032507.376 5  94032496.374 7                        48.200          33.500          43.700
G17  22639899.617 8  22639903.262 5  22639903.422 6                 118973544.481 8  92706680.027 5  92706655.029 6                        50.500          35.100          41.800
G19  21074689.484 8  21074691.121 6                                 110748356.191 8  86297404.322 6                                        48.200          37.800
G24  20183630.523 8  20183636.625 7  20183636.918 8  20183637.051 9 106065706.906 8  82648649.556 7  82648607.579 8  79204928.479 9        52.200          45.100          52.100          56.600
G25  24337516.883 6  24337524.410 3  24337525.418 6  24337526.172 7 127894516.914 6  99658103.845 3  99658081.861 6  95505652.170 7        40.500          22.200          40.200          45.400
G28  25581757.766 6  25581762.953 2                                 134433060.553 6 104753029.812 2                                        36.600          14.800
G32  25042720.438 6  25042725.809 4  25042726.648 6  25042722.309 6 131600419.259 6 102545784.561 4 102545754.579 6  98273005.677 6        41.600          25.000          38.700          41.200
> 2019 03 21 12 13 30.0000000  0 13
G01  25634194.258 6  25634201.465 3  25634200.844 6  25634201.645 7 134708619.046 6 104967767.360 3 104967726.364 6 100594091.420 7        37.700          22.300          38.000          46.000
G02  25621374.938 6  25621379.297 3                                 134641217.174 6 104915262.709 3                                        38.700          22.800
G06  24621637.813 6  24621646.582 3  24621646.273 6  24621646.645 7 129387651.288 6 100821537.438 3 100821507.472 6  96620612.142 7        39.400          23.500          39.400          44.000
G10  24721086.477 6  24721092.703 3  24721093.730 6  24721092.961 7 129910126.257 6 101228744.523 3 101228668.553 6  97010846.175 7        36.900          22.000          39.200          43.100
G12  21103610.438 8  21103613.723 6  21103614.313 7                 110900274.802 8  86415823.085 6  86415792.087 7                        51.600          39.900          45.700
G13  24539315.430 6  24539320.605 3                                 128954917.943 6 100484380.007 3                                        37.900          19.000
G15  22982599.883 7  22982605.531 5  22982605.375 7                 120774375.323 7  94109922.097 5  94109911.099 7                        47.900          33.300          43.300
G17  22651789.969 8  22651793.891 5  22651793.793 6                 119036029.124 8  92755369.356 5  92755344.362 6                        49.800          34.600          41.800
G19  21076965.484 7  21076967.223 6                                 110760317.822 7  86306725.081 6                                        47.900          38.300
G24  20182499.047 8  20182505.008 7  20182505.004 8  20182505.316 9 106059760.127 8  82644015.707 7  82643973.715 8  79200487.696 9        52.200          45.500          51.700          56.600
G25  24318156.078 6  24318164.895 3  24318165.148 6  24318167.199 7 127792784.778 6  99578832.207 3  99578810.213 6  95429683.553 7        38.000          19.300          37.100          44.800
G28  25598909.711 6  25598914.164 3                                 134523191.408 6 104823261.606 3                                        38.100          19.000
G32  25024147.023 6  25024154.387 3  25024154.801 6  25024150.277 6 131502820.829 6 102469733.920 3 102469703.954 6  98200123.735 6        37.800          21.500          39.400          39.000
> 2019 03 21 12 14 00.0000000  0 13
G01  25645262.203 5  25645269.246 2  25645269.367 6  25645268.297 6 134766779.553 5 105013087.134 2 105013046.146 6 100637522.947 6        30.700          14.800          36.000          36.900
G02  25604960.008 6  25604963.250 2                                 134554951.803 6 104848042.733 2                                        39.200          13.900
G06  24604881.063 6  24604887.887 3  24604888.465 6  24604889.836 7 129299592.297 6 100752920.037 3 100752890.066 6  96554853.843 7        40.700          23.400          38.200          45.400
G10  24730691.672 7  24730700.156 4  24730698.617 6  24730696.496 7 129960600.982 7 101268075.435 4 101267999.448 6  97048538.286 7        42.100          27.000          41.700          43.800
G12  21091009.680 8  21091013.164 6  21091013.281 7                 110834058.004 8  86364225.594 6  86364194.611 7                        51.000          39.100          45.600
G13  24561798.063 6  24561803.145 3                                 129073062.644 6 100576440.761 3                                        38.000          19.600
G15  23001549.805 7  23001555.125 5  23001555.023 7                 120873957.407 7  94187518.467 5  94187507.456 7                        47.500          33.100          42.800
G17  22663761.578 8  22663764.918 5  22663765.035 7                 119098939.466 8  92804390.404 5  92804365.402 7                        49.800          35.000          42.200
G19  21079368.914 8  21079370.543 6                                 110772947.622 8  86316566.495 6                                        48.000          38.400
G24  20181454.180 8  20181459.910 7  20181459.980 8  20181460.262 9 106054268.223 8  82639736.298 7  82639694.308 8  79196386.605 9        52.300          45.200          52.100          56.300
G25  24298823.852 6  24298829.691 3  24298830.934 6  24298832.496 7 127691186.214 6  99499664.511 3  99499642.489 6  95353814.597 7        40.800          21.800          38.100          43.700
G28  25616052.586 5  25616057.070 2                                 134613278.767 5 104893459.528 2                                        35.500          15.600
G32  25005621.883 6  25005626.996 3  25005627.191 5  25005626.805 7 131405468.761 6 102393875.160 3 102393845.213 5  98127425.738 7        40.800          21.500          34.300          42.900
> 2019 03 21 12 14 30.0000000  0 13
G01  25656419.789 5                  25656428.203 5  25656428.066 5 134825411.45315                 105058739.515 5 100681312.405 5        33.200                          33.900          35.500
G02  25588529.508 4  25588533.723 2                                                                                                        29.900          16.300
G06  24588152.797 6  24588161.988 3  24588162.277 6  24588162.715 7 129211691.523 6 100684426.061 3 100684396.043 6  96489213.781 7        38.500          22.900          39.900          45.300
G10  24740375.375 6  24740381.680 3  24740382.129 5  24740381.063 7 130011488.696 6 101307728.185 3 101307652.217 5  97086538.820 7        41.900          22.900          35.900          44.500
G12  21078476.898 8  21078480.512 6  21078480.309 7                 110768199.059 8  86312906.969 6  86312875.970 7                        49.800          39.400          45.800
G13  24584289.273 6  24584295.891 3                                 129191258.427 6 100668541.225 3                                        37.700          20.100
G15  23020543.672 7  23020548.605 5  23020548.430 7                 120973769.823 7  94265294.335 5  94265283.333 7                        47.600          33.100          42.600
G17  22675813.813 8  22675817.297 5  22675816.805 6                 119162273.892 8  92853741.906 5  92853716.905 6                        50.900          34.700          41.700
G19  21081899.453 7  21081901.074 6                                 110786245.226 7  86326928.270 6                                        47.500          37.800
G24  20180495.430 8  20180501.617 7  20180501.555 8  20180501.910 9 106049231.826 8  82635811.834 7  82635769.841 8  79192625.653 9        50.900          44.700          50.700          56.600
G25  24279514.602 6  24279524.395 3  24279524.316 6  24279525.875 7 127589722.256 6  99420601.887 3  99420579.884 6  95278046.201 7        37.300          21.800          40.000          45.400
G28  25633188.344 6  25633191.875 2                                 134703322.513 6 104963623.497 2                                        38.300          16.900
G32  24987143.578 6  24987147.332 3  24987150.207 5  24987149.500 7 131308365.885 6 102318210.476 3 102318180.533 5  98054913.893 7        38.200          20.600          35.000          43.700
> 2019 03 21 12 15 00.0000000  0 13
G01  25667670.813 5                                  25667677.039 4 134884528.351 5                                 100725458.239 4        31.800                                          28.600
G02  25572084.570 6  25572089.219 4                                 134382193.962 6 104713429.251 4                                        38.900          24.600
G06  24571458.602 6  24571466.164 4  24571465.953 6  24571466.496 7 129123952.694 6 100616058.254 4 100616028.241 6  96423694.635 7        40.900          26.400          40.100          45.100
G10  24750135.602 6  24750143.824 3  24750141.480 5  24750144.336 7 130062787.507 6 101347701.316 3 101347625.369 5  97124846.301 7        38.300          18.600          35.900          43.000
G12  21066013.203 8  21066016.500 6  21066016.801 7                 110702699.524 8  86261868.386 6  86261837.380 7                        50.800          39.900          46.100
G13  24606790.305 6  24606796.746 3                                 129309503.401 6 100760680.123 3                                        37.600          19.600
G15  23039581.195 8  23039585.688 5  23039585.621 6                 121073810.644 8  94343248.178 5  94343237.184 6                        48.300          32.600          41.900
G17  22687945.945 8  22687949.719 5  22687949.516 7                 119226030.758 8  92903422.583 5  92903397.585 7                        49.200          34.000          42.100
G19  21084556.805 8  21084558.512 6                                 110800210.447 8  86337810.279 6                                        48.100          37.800
G24  20179624.188 8  20179630.129 7  20179630.316 8  20179630.543 9 106044652.561 8  82632243.571 7  82632201.579 8  79189206.071 9        51.100          45.000          51.700          56.300
G25  24260234.266 6  24260240.160 3  24260241.184 6  24260243.457 7 127488394.496 6  99341645.324 3  99341623.288 6  95202379.568 7        41.800          22.200          36.100          45.100
G28  25650314.133 6  25650318.867 2                                 134793322.459 6 105033753.351 2                                        37.200          16.900
G32  24968713.055 6  24968717.520 3  24968720.453 6  24968719.242 7 131211515.127 6 102242742.564 3 102242712.590 6  97982590.404 7        36.600          20.100          36.000          42.200
