     3.03           OBSERVATION DATA    M: Mixed            RINEX VERSION / TYPE
RTKCONV demo5 b34b                      20210513 164625 UTC PGM / RUN BY / DATE             
TEST                                                        MARKER NAME         
                                                            MARKER NUMBER       
GEODETIC                                                    MARKER TYPE         
                                                            OBSERVER / AGENCY   
                                                            REC # / TYPE / VERS 
                                                            ANT # / TYPE        
        0.0000        0.0000        0.0000                  APPROX POSITION XYZ 
        0.0000        0.0000        0.0000                  ANTENNA: DELTA H/E/N
G    8 C1C L1C D1C S1C C2X L2X D2X S2X                      SYS / # / OBS TYPES 
  2021    05    13    15    16   40.9920000     GPS         TIME OF FIRST OBS   
  2021    05    13    16    08   12.9930000     GPS         TIME OF LAST OBS    
G L1C                                                       SYS / PHASE SHIFT   
G L2X  0.00000                                              SYS / PHASE SHIFT   
  0                                                         GLONASS SLOT / FRQ #
 C1C    0.000 C1P    0.000 C2C    0.000 C2P    0.000        GLONASS COD/PHS/BIS 
                                                            END OF HEADER       
> 2021 05 13 15 16 40.9920000  0 10                     
G07  22420161.790 4 117818720.45917     -1834.468          27.000    22420107.373 8                     -1429.573          25.000  
G21  21119486.391 1 110983651.36113      2187.902          37.000                                                                  
G23  19362824.161 9                     -2098.989          14.000                                                                  
G10  18724036.047 8  98395596.65937       268.304          30.000                                                                  
G16  20080092.891 1 105521602.66111     -3620.061          45.000                                                                  
G08  19077551.324 8 100253208.17437      1721.585          30.000    19077532.564 1  78119280.48112      1340.107          39.000  
G15  22206715.864 9                     -1656.578          24.000                                                                  
G27  17879578.454 2  93957761.11815      -472.020          33.000    17879549.179 2  73213753.46014      -367.900          33.000  
G26  21936318.772 9                     -4160.030          22.000                                                                  
G30  22954183.671 1 120624994.69512      -208.125          40.000    22954157.737 1  93993431.86113      -162.006          36.000  
> 2021 05 13 15 16 41.9920000  0  9                     
G07  22420511.499 4 117820554.949 7     -1834.235          27.000    22420456.986 8                     -1430.586          25.000  
G21  21119070.000 1 110981463.178 3      2188.134          36.000                                                                  
G23  19363226.302 9                     -2130.239          12.000                                                                  
G10  18723984.945 8  98395328.93726       267.188          31.000                                                                  
G16  20080781.772 1 105525222.985 1     -3620.204          45.000                                                                  
G08  19077220.675 8 100251488.58228      1720.682          31.000    19077205.321 1  78117940.413 2      1339.960          39.000  
G27  17879668.279 2  93958232.947 4      -471.963          34.000    17879638.992 2  73214121.127 5      -367.192          31.000  
G26  21937111.421 9                     -4155.083          21.000                                                                  
G30  22954223.254 1 120625203.108 2      -208.336          40.000    22954197.429 1  93993594.276 3      -162.736          36.000  
> 2021 05 13 15 16 42.9920000  0  9                     
G07  22420860.142 4 117822389.864 7     -1834.970          28.000    22420807.782 8                     -1430.050          25.000  
G21  21118653.609 1 110979275.202 3      2187.951          37.000                                                                  
G23  19363628.440 9                     -2110.005          12.000                                                                  
G10  18723933.421 4  98395061.28716       266.452          31.000                                                                  
G16  20081470.647 1 105528843.663 1     -3620.889          45.000                                                                  
G08  19076893.100 8                      1719.463          29.000    19076878.092 1  78116600.575 2      1339.896          39.000  
G27  17879758.233 1  93958705.342 4      -473.425          35.000    17879728.802 2  73214489.240 6      -368.315          30.000  
G26  21937901.933 9                     -4158.520          23.000                                                                  
G30  22954262.899 1 120625411.952 2      -208.970          40.000    22954237.242 1  93993756.975 3      -163.083          37.000  
> 2021 05 13 15 16 43.9920000  0  9                     
G07  22421208.706 4 117824225.200 7     -1836.004          28.000    22421158.274 8                     -1430.566          25.000  
G21  21118237.288 1 110977087.331 2      2187.628          38.000                                                                  
G23  19364026.841 9                     -2092.729          11.000                                                                  
G10  18723883.175 4  98394794.681 8       265.974          30.000                                                                  
G16  20082159.682 1 105532464.589 1     -3621.114          45.000                                                                  
G08  19076566.526 8 100248049.49518      1719.246          28.000    19076550.912 1  78115260.917 2      1339.536          39.000  
G27  17879848.141 1  93959178.052 4      -473.332          35.000    17879818.758 2  73214857.573 7      -367.922          30.000  
G26  21938695.414 9                     -4155.968          22.000                                                                  
G30  22954302.750 1 120625621.264 2      -209.674          40.000    22954277.169 1  93993920.075 3      -163.310          37.000  
> 2021 05 13 15 16 44.9920000  0 10                     
G07  22421557.804 4                     -1836.124          27.000    22421507.739 8                     -1430.434          25.000  
G21  21117821.019 1 110974899.536 3      2187.916          38.000                                                                  
G23  19364423.426 9                     -2095.689          15.000                                                                  
G10  18723832.764 4  98394528.687 8       265.697          28.000                                                                  
G16  20082848.725 1 105536085.789 1     -3621.200          45.000                                                                  
G08  19076240.790 8 100246330.576 7      1719.286          29.000    19076223.781 1  78113921.475 2      1339.305          39.000  
G15  22207972.237 9                     -1663.474          25.000                                                                  
G27  17879938.106 1  93959651.246 4      -473.032          35.000    17879908.888 2  73215226.304 5      -368.943          32.000  
G26  21939486.615 9                     -4145.458          20.000                                                                  
G30  22954342.726 1 120625831.092 2      -209.743          41.000    22954317.186 1  93994083.596 3      -163.564          36.000  
> 2021 05 13 15 16 45.9920000  0 10                     
G07  22421906.924 2 117827896.927 7     -1836.414          28.000    22421857.833 8                     -1431.135          26.000  
G21  21117404.770 1 110972711.945 3      2187.634          38.000                                                                  
G23  19364820.779 9                     -2088.000          18.000                                                                  
G10  18723781.316 8                       265.478          26.000                                                                  
G16  20083537.883 1 105539707.295 1     -3621.859          45.000                                                                  
G08  19075913.633 8 100244611.894 7      1718.424          28.000    19075896.695 1  78112582.245 2      1338.910          38.000  
G15  22208284.816 9                     -1662.318          25.000                                                                  
G27  17880028.106 1  93960124.880 4      -473.984          34.000    17879999.095 2  73215595.379 4      -369.455          32.000  
G26  21940279.506 9                     -4160.532          19.000                                                                  
G30  22954382.707 1 120626041.457 2      -210.573          41.000    22954357.273 1  93994247.528 3      -164.711          37.000  
> 2021 05 13 15 16 46.9920000  0 10                     
G07  22422256.230 2                     -1836.021          27.000    22422206.724 8  91815188.22217     -1431.568          27.000  
G21  21116988.627 1 110970524.454 3      2187.610          37.000                                                                  
G23  19365218.377 9                     -2101.128          19.000                                                                  
G10  18723727.793 9                       270.718          24.000                                                                  
G16  20084227.096 1 105543329.069 1     -3621.909          45.000                                                                  
G08  19075585.120 8 100242893.402 7      1718.162          28.000    19075569.676 1  78111243.210 2      1338.809          38.000  
G15  22208603.146 9                     -1664.870          25.000                                                                  
G27  17880118.601 2  93960599.035 4      -474.865          31.000    17880089.352 2  73215964.802 5      -369.488          33.000  
G26  21941068.477 9                     -4155.160          16.000                                                                  
G30  22954422.813 1 120626252.320 2      -211.373          41.000    22954397.404 1  93994411.840 3      -165.054          37.000  
> 2021 05 13 15 16 47.9920000  0 10                     
G07  22422605.074 2                     -1837.098          28.000    22422556.705 8  91816619.303 7     -1431.642          27.000  
G21  21116572.343 1 110968336.799 3      2187.973          37.000                                                                  
G23  19365618.167 9                     -2093.008          17.000                                                                  
G10  18723675.700 9                       272.060          24.000                                                                  
G16  20084916.265 1 105546950.851 1     -3621.850          45.000                                                                  
G08  19075256.046 4 100241174.943 7      1718.540          28.000    19075242.689 1  78109904.201 3      1338.687          38.000  
G15  22208918.260 9                     -1665.555          25.000                                                                  
G27  17880209.100 2  93961073.251 5      -474.258          32.000    17880179.628 2  73216334.308 4      -368.905          33.000  
G26  21941859.785 9                     -4166.463          16.000                                                                  
G30  22954462.887 1 120626463.405 2      -211.440          41.000    22954437.535 1  93994576.310 3      -165.108          36.000  
> 2021 05 13 15 16 48.9920000  0 10                     
G07  22422954.236 2 117833407.015 8     -1837.080          28.000    22422907.021 8  91818050.754 7     -1431.581          27.000  
G21  21116155.983 1 110966149.302 4      2187.771          36.000                                                                  
G23  19366014.366 9                     -2105.402          17.000                                                                  
G10  18723627.210 9                       262.506          23.000                                                                  
G16  20085605.503 1 105550572.949 1     -3622.394          45.000                                                                  
G08  19074930.565 4 100239456.784 7      1717.452          29.000    19074915.744 1  78108565.404 2      1338.669          38.000  
G15  22209233.959 9                     -1666.875          25.000                                                                  
G27  17880299.779 2  93961547.974 5      -475.249          32.000    17880270.171 2  73216704.272 4      -370.374          34.000  
G26  21942650.700 9                     -4151.873          16.000                                                                  
G30  22954503.033 1 120626675.053 2      -211.840          41.000    22954477.841 1  93994741.209 3      -165.453          37.000  
> 2021 05 13 15 16 49.9920000  0 10                     
G07  22423303.602 2 117835244.655 8     -1837.678          28.000    22423257.391 8  91819482.704 8     -1431.994          26.000  
G21  21115739.765 1 110963962.246 3      2186.837          36.000                                                                  
G23  19366415.206 9                     -2094.385          16.000                                                                  
G10  18723580.457 9                       260.903          23.000                                                                  
G16  20086294.865 1 105554195.583 1     -3623.048          45.000                                                                  
G08  19074604.123 4 100237739.219 5      1717.201          30.000    19074588.838 1  78107227.049 2      1337.910          39.000  
G15  22209549.943 9                     -1667.382          25.000                                                                  
G27  17880390.269 2  93962023.444 6      -475.924          31.000    17880360.713 2  73217074.704 4      -370.820          34.000  
G26  21943441.454 9                     -4157.330          18.000                                                                  
G30  22954543.414 1 120626887.437 2      -212.541          41.000    22954518.273 1  93994906.733 3      -166.030          36.000  
> 2021 05 13 15 16 50.9920000  0 10                     
G07  22423652.971 2 117837082.859 7     -1838.314          28.000    22423607.281 8  91820915.073 8     -1432.081          27.000  
G21  21115323.596 1 110961775.451 3      2186.128          36.000                                                                  
G23  19366816.195 9                     -2111.119          16.000                                                                  
G10  18723532.413 9                       261.655          20.000                                                                  
G16  20086984.328 1 105557818.629 1     -3623.355          45.000                                                                  
G08  19074277.183 4 100236022.048 7      1717.029          29.000    19074262.138 1  78105888.952 2      1337.957          39.000  
G15  22209865.339 9                     -1668.369          24.000                                                                  
G27  17880480.643 4  93962499.319 6      -475.690          31.000    17880451.549 2  73217445.588 4      -371.179          34.000  
G26  21944233.488 9                     -4152.775          18.000                                                                  
G30  22954583.878 1 120627100.492 2      -213.393          40.000    22954558.815 1  93995072.748 3      -166.698          37.000  
> 2021 05 13 15 16 51.9920000  0 10                     
G07  22424002.459 4 117838921.822 8     -1840.031          29.000    22423958.963 8  91822348.088 8     -1433.726          26.000  
G21  21114907.543 1 110959589.113 3      2185.827          36.000                                                                  
G23  19367214.398 9                     -2079.869          13.000                                                                  
G10  18723483.539 9                       258.982          19.000                                                                  
G16  20087673.903 1 105561442.352 1     -3623.975          45.000                                                                  
G08  19073950.453 2 100234305.467 7      1716.224          28.000    19073935.471 1  78104551.424 2      1337.144          39.000  
G15  22210182.716 9                     -1674.328          23.000                                                                  
G27  17880571.560 2  93962976.168 6      -476.924          32.000    17880542.295 2  73217817.106 5      -371.232          34.000  
G26  21945023.190 9                     -4155.460          17.000                                                                  
G30  22954624.512 1 120627314.439 2      -214.420          40.000    22954599.606 1  93995239.428 3      -166.606          37.000  
> 2021 05 13 15 16 52.9920000  0  9                     
G07  22424352.316 2 117840761.258 8     -1840.092          28.000    22424309.980 8                     -1433.082          26.000  
G21  21114491.570 1 110957403.081 3      2185.573          36.000                                                                  
G10  18723437.569 9                       236.581          15.000                                                                  
G16  20088363.631 1 105565066.484 1     -3624.611          45.000                                                                  
G08  19073623.960 2 100232589.361 7      1715.666          28.000    19073608.929 1  78103214.161 2      1336.677          39.000  
G15  22210500.737 9                     -1668.796          23.000                                                                  
G27  17880662.391 2  93963453.534 5      -478.127          32.000    17880633.163 2  73218189.081 4      -372.324          34.000  
G26  21945816.675 9                     -4155.777          18.000                                                                  
G30  22954665.237 1 120627529.020 2      -215.342          40.000    22954640.455 1  93995406.648 3      -167.580          37.000  
> 2021 05 13 15 16 53.9920000  0 12                     
G07  22424702.409 2 117842601.351 7     -1840.334          28.000    22424660.157 8                     -1434.088          26.000  
G21  21114075.710 1 110955217.348 3      2185.653          37.000                                                                  
G23  19368006.867 9                     -2104.597          10.000                                                                  
G10  18723388.336 9                       259.937          22.000                                                                  
G16  20089053.444 1 105568691.091 1     -3624.891          45.000                                                                  
G08  19073297.415 2 100230873.698 7      1714.829          29.000    19073282.431 1  78101877.295 2      1336.569          39.000  
G15  22210818.518 9                     -1670.840          23.000                                                                  
G18  21495319.333 9                     -3684.765          19.000                                                                  
G27  17880753.309 2  93963931.570 5      -478.795          32.000    17880724.194 2  73218561.531 4      -373.035          34.000  
G26  21946609.292 9                     -4159.180          18.000                                                                  
G13  23282442.337 9                     -2078.779          11.000                                                                  
G30  22954706.063 1 120627744.299 2      -215.853          39.000    22954681.456 1  93995574.397 3      -168.138          37.000  
> 2021 05 13 15 16 54.9920000  0 11                     
G07  22425052.667 2 117844442.073 7     -1841.036          29.000    22425010.342 8                     -1434.534          26.000  
G21  21113659.882 1 110953032.025 3      2185.198          37.000                                                                  
G10  18723336.661 9                       260.550          24.000                                                                  
G16  20089743.278 1 105572316.249 1     -3625.355          45.000                                                                  
G08  19072971.060 2 100229158.552 8      1715.000          28.000    19072956.067 1  78100540.871 3      1336.085          39.000  
G15  22211135.618 9                     -1672.605          23.000                                                                  
G18  21496018.832 9                     -3684.765          19.000                                                                  
G27  17880844.271 2  93964410.234 4      -477.791          32.000    17880815.450 2  73218934.524 4      -373.381          34.000  
G26  21947406.111 9                     -4156.868          17.000                                                                  
G13  23282839.801 9                     -2080.326          14.000                                                                  
G30  22954747.057 1 120627960.359 2      -216.290          40.000    22954722.535 1  93995742.757 3      -168.628          37.000  
> 2021 05 13 15 16 55.9920000  0 11                     
G07  22425402.847 2 117846283.285 7     -1841.447          29.000    22425360.441 8  91828084.345 8     -1435.386          26.000  
G21  21113244.014 1 110950846.937 3      2185.365          37.000                                                                  
G10  18723287.635 8                       257.903          25.000                                                                  
G16  20090433.156 1 105575941.772 1     -3625.596          44.000                                                                  
G08  19072644.658 2                      1714.869          27.000    19072629.840 1  78099204.668 2      1335.936          39.000  
G15  22211453.312 9                     -1670.593          23.000                                                                  
G18  21496723.529 9                     -3684.765          19.000                                                                  
G27  17880935.362 2  93964889.483 4      -479.217          33.000    17880906.529 2  73219307.930 4      -373.593          33.000  
G26  21948198.891 9                     -4163.824          17.000                                                                  
G13  23283234.632 9                     -2072.405          15.000                                                                  
G30  22954788.173 1 120628177.006 2      -216.947          40.000    22954763.813 1  93995911.572 3      -168.741          38.000  
> 2021 05 13 15 16 56.9920000  0 11                     
G07  22425752.857 4 117848124.813 8     -1844.031          29.000    22425711.179 8                     -1434.909          25.000  
G21  21112828.338 1 110948661.839 3      2184.937          38.000                                                                  
G10  18723234.679 9                       260.449          25.000                                                                  
G16  20091123.027 1 105579567.433 1     -3625.771          44.000                                                                  
G08  19072318.585 2                      1713.841          27.000    19072303.682 1  78097868.583 2      1335.580          39.000  
G15  22211771.351 9                     -1670.163          23.000                                                                  
G18  21497424.136 9                     -3684.765          20.000                                                                  
G27  17881026.910 2  93965369.011 5      -479.568          33.000    17880997.827 2  73219681.554 4      -373.476          33.000  
G26  21948991.987 9                     -4161.552          17.000                                                                  
G13  23283631.163 9                     -2075.429          16.000                                                                  
G30  22954829.346 1 120628394.033 2      -217.403          40.000    22954805.108 1  93996080.702 3      -169.281          38.000  
> 2021 05 13 15 16 57.9920000  0 10                     
G07  22426103.041 2 117849966.593 7     -1842.549          29.000    22426061.762 8                     -1435.831          25.000  
G21  21112412.504 1 110946476.832 2      2185.022          38.000                                                                  
G10  18723184.381 9                       257.712          22.000                                                                  
G16  20091813.031 1 105583193.344 1     -3626.096          45.000                                                                  
G08  19071992.331 2                      1713.728          26.000    19071977.458 1  78096532.663 2      1335.487          39.000  
G18  21498124.207 9                     -3684.765          20.000                                                                  
G27  17881118.043 2  93965848.854 5      -479.905          31.000    17881089.343 2  73220055.542 4      -373.859          34.000  
G26  21949786.733 9                     -4159.618          16.000                                                                  
G13  23284028.795 9                     -2076.568          16.000                                                                  
G30  22954870.696 1 120628611.506 2      -217.428          40.000    22954846.601 1  93996250.171 3      -169.735          38.000  
> 2021 05 13 15 16 58.9920000  0  9                     
G07  22426453.523 2 117851808.474 8     -1841.845          28.000    22426412.811 8                     -1435.510          24.000  
G21  21111996.755 1 110944291.787 2      2184.995          39.000                                                                  
G10  18723131.239 9                       256.648          21.000                                                                  
G16  20092502.985 1 105586819.398 1     -3625.981          45.000                                                                  
G08  19071666.144 2                      1714.295          26.000    19071651.251 1  78095196.846 2      1335.721          39.000  
G27  17881209.415 2  93966329.107 5      -480.423          31.000    17881180.639 2  73220429.708 4      -374.191          33.000  
G26  21950579.593 9                     -4162.193          19.000                                                                  
G13  23284425.619 9                     -2079.373          15.000                                                                  
G30  22954912.154 1 120628829.384 2      -218.050          39.000    22954888.085 1  93996419.945 2      -169.532          37.000  
> 2021 05 13 15 16 59.9920000  0 10                     
G07  22426803.914 2 117853650.751 7     -1842.284          28.000    22426763.246 9                     -1435.220          23.000  
G21  21111580.978 1 110942106.667 2      2185.582          39.000                                                                  
G10  18723080.937 9                       263.359          19.000                                                                  
G16  20093193.088 1 105590445.512 1     -3626.193          44.000                                                                  
G08  19071339.921 2                      1713.499          26.000    19071324.985 1  78093861.098 2      1335.768          38.000  
G15  22212720.224 9                     -1666.969          24.000                                                                  
G27  17881300.850 2  93966809.520 6      -481.578          31.000    17881272.046 2  73220804.063 4      -374.219          34.000  
G26  21951373.255 9                     -4162.469          20.000                                                                  
G13  23284820.966 9                     -2075.867          16.000                                                                  
G30  22954953.600 1 120629047.539 2      -218.082          39.000    22954929.643 1  93996589.931 3      -169.972          38.000  
> 2021 05 13 15 17 00.9920000  0  9                     
G07  22427154.309 2 117855493.228 7     -1842.579          28.000    22427112.121 9                     -1429.665          23.000  
G21  21111165.148 1 110939921.584 2      2184.946          38.000                                                                  
G10  18723029.146 9                       254.519          22.000                                                                  
G16  20093883.149 1 105594071.777 1     -3626.550          44.000                                                                  
G08  19071013.998 2 100218872.039 8      1713.800          27.000    19070998.739 1  78092525.420 2      1335.587          38.000  
G15  22213052.314 9                     -1666.969          23.000                                                                  
G27  17881392.238 2  93967290.205 5      -480.180          32.000    17881363.759 2  73221178.643 4      -374.396          34.000  
G13  23285217.699 9                     -2080.188          16.000                                                                  
G30  22954995.159 1 120629266.085 2      -219.080          39.000    22954971.242 1  93996760.217 3      -170.817          37.000  
> 2021 05 13 15 17 01.9920000  0 10                     
G07  22427504.921 2 117857336.092 7     -1843.252          28.000    22427462.704 9                     -1434.223          23.000  
G21  21110749.240 1 110937736.531 2      2184.961          39.000                                                                  
G10  18722976.491 9                       255.144          24.000                                                                  
G16  20094573.184 1 105597698.249 1     -3626.589          44.000                                                                  
G08  19070688.160 2                      1714.156          27.000    19070672.554 1  78091189.897 2      1335.886          38.000  
G15  22213366.236 9                     -1666.969          23.000                                                                  
G27  17881483.603 2  93967771.301 5      -480.967          32.000    17881455.407 2  73221553.529 4      -374.750          34.000  
G26  21952964.083 9                     -4161.227          18.000                                                                  
G13  23285615.817 9                     -2077.373          16.000                                                                  
G30  22955036.745 1 120629485.062 2      -219.030          40.000    22955012.849 1  93996930.833 3      -170.709          37.000  
> 2021 05 13 15 17 02.9920000  0 10                     
G07  22427855.327 4 117859179.285 8     -1843.861          28.000    22427812.565 9                     -1430.390          21.000  
G21  21110333.424 1 110935551.616 2      2184.685          39.000                                                                  
G10  18722925.941 9                       254.755          25.000                                                                  
G16  20095263.434 1 105601325.031 1     -3627.255          44.000                                                                  
G08  19070362.094 2                      1713.048          27.000    19070346.418 1  78089854.627 2      1335.247          38.000  
G15  22213684.113 9                     -1666.969          23.000                                                                  
G27  17881575.161 2  93968252.847 5      -482.031          32.000    17881547.000 2  73221928.798 4      -376.170          33.000  
G26  21953756.081 9                     -4159.250          17.000                                                                  
G13  23286013.126 9                     -2080.748          17.000                                                                  
G30  22955078.387 1 120629704.555 2      -219.988          40.000    22955054.684 1  93997101.876 3      -171.470          37.000  
> 2021 05 13 15 17 03.9920000  0  9                     
G07  22428206.136 2                     -1843.706          26.000    22428162.235 9                     -1437.781          21.000  
G21  21109917.826 1 110933367.027 2      2184.816          38.000                                                                  
G10  18722876.740 9                       256.395          24.000                                                                  
G16  20095953.671 1 105604952.266 1     -3627.434          45.000                                                                  
G08  19070036.139 2 100213731.395 7      1712.827          30.000    19070020.463 1  78088519.702 2      1335.023          38.000  
G27  17881666.918 2  93968735.026 5      -482.626          31.000    17881638.652 2  73222304.477 4      -375.957          34.000  
G26  21954545.842 9                     -4166.042          19.000                                                                  
G13  23286410.334 9                     -2081.198          17.000                                                                  
G30  22955120.312 1 120629924.742 2      -220.283          39.000    22955096.492 1  93997273.451 3      -171.919          37.000  
> 2021 05 13 15 17 04.9920000  0  9                     
G07  22428556.745 2                     -1844.361          27.000    22428513.741 9                     -1446.385          20.000  
G21  21109502.065 1 110931182.536 2      2184.571          38.000                                                                  
G10  18722827.422 9                       258.525          22.000                                                                  
G16  20096643.929 1 105608579.771 1     -3627.550          45.000                                                                  
G08  19069710.396 2 100212018.478 6      1712.683          29.000    19069694.487 1  78087184.983 3      1334.287          38.000  
G27  17881758.478 2  93969217.594 6      -482.869          31.000    17881730.381 2  73222680.541 4      -376.926          34.000  
G26  21955339.197 9                     -4167.254          19.000                                                                  
G13  23286806.712 9                     -2084.816          16.000                                                                  
G30  22955162.292 1 120630145.412 2      -220.519          39.000    22955138.492 1  93997445.420 3      -172.319          38.000  
> 2021 05 13 15 17 05.9920000  0  9                     
G07  22428907.819 2                     -1844.611          27.000    22428865.256 9                     -1452.206          19.000  
G21  21109086.475 1 110928998.535 3      2183.429          37.000                                                                  
G10  18722778.729 9                       247.572          19.000                                                                  
G16  20097334.374 1 105612207.863 1     -3628.488          45.000                                                                  
G08  19069384.479 2 100210306.111 7      1712.121          29.000    19069368.597 1  78085850.656 3      1334.156          38.000  
G27  17881850.332 2  93969700.883 5      -483.816          31.000    17881822.385 2  73223057.126 4      -377.093          34.000  
G26  21956132.285 9                     -4155.455          20.000                                                                  
G13  23287203.895 9                     -2096.395          15.000                                                                  
G30  22955204.370 1 120630366.914 2      -222.112          39.000    22955180.637 1  93997617.988 3      -172.660          37.000  
> 2021 05 13 15 17 06.9920000  0  9                     
G07  22429258.765 2                     -1846.133          27.000    22429217.329 9                     -1438.798          18.000  
G21  21108671.072 1 110926814.965 3      2183.403          38.000                                                                  
G10  18722731.793 9                       255.698          20.000                                                                  
G16  20098024.967 1 105615836.554 1     -3628.828          45.000                                                                  
G08  19069058.585 2 100208594.459 7      1711.306          27.000    19069042.766 1  78084516.831 3      1333.774          38.000  
G27  17881942.472 2  93970184.959 7      -483.618          31.000    17881914.545 2  73223434.347 4      -377.905          34.000  
G26  21956925.040 9                     -4158.136          21.000                                                                  
G13  23287602.062 9                     -2088.176          14.000                                                                  
G30  22955246.671 1 120630589.256 2      -222.484          39.000    22955222.935 1  93997791.252 3      -173.628          37.000  
> 2021 05 13 15 17 07.9920000  0 10                     
G07  22429609.732 2 117868403.851 7     -1846.604          27.000    22429568.160 9                     -1438.335          17.000  
G21  21108255.643 1 110924631.904 3      2182.744          38.000                                                                  
G23  19373623.995 9                     -2103.617          10.000                                                                  
G10  18722686.839 9                       244.321          22.000                                                                  
G16  20098715.695 1 105619465.954 1     -3629.920          44.000                                                                  
G08  19068732.742 2                      1711.466          26.000    19068717.018 1  78083183.531 2      1332.908          38.000  
G27  17882034.556 2  93970669.932 6      -485.348          30.000    17882007.056 2  73223812.190 4      -377.965          34.000  
G26  21957718.036 9                     -4161.524          20.000                                                                  
G13  23287998.335 9                     -2078.133          13.000                                                                  
G30  22955289.038 1 120630812.503 2      -223.634          39.000    22955265.460 1  93997965.218 3      -174.426          37.000  
> 2021 05 13 15 17 08.9920000  0 10                     
G07  22429961.010 2                     -1846.458          26.000    22429918.543 9                     -1439.021          15.000  
G21  21107840.356 1 110922449.371 3      2182.249          39.000                                                                  
G23  19374025.136 9                     -2104.501          11.000                                                                  
G10  18722640.934 9                       274.989          23.000                                                                  
G16  20099406.354 1 105623095.958 1     -3630.084          44.000                                                                  
G08  19068407.306 2                      1710.335          26.000    19068391.561 1  78081850.702 2      1332.909          38.000  
G27  17882126.872 2  93971155.640 5      -486.016          30.000    17882099.441 2  73224190.683 4      -378.967          34.000  
G26  21958511.490 9                     -4161.993          21.000                                                                  
G13  23288393.453 9                     -2082.949          12.000                                                                  
G30  22955331.648 1 120631036.612 2      -224.433          40.000    22955308.099 1  93998139.858 3      -174.985          37.000  
> 2021 05 13 15 17 09.9920000  0  9                     
G07  22430312.320 9                     -1842.109          23.000    22430269.251 9                     -1434.812          15.000  
G21  21107425.315 1 110920267.218 2      2182.269          39.000                                                                  
G10  18722593.166 9                       249.236          22.000                                                                  
G16  20100097.131 1 105626726.562 1     -3630.615          45.000                                                                  
G08  19068081.700 2                      1710.123          26.000    19068066.169 1  78080518.305 2      1332.279          38.000  
G27  17882219.403 2  93971642.078 6      -487.125          30.000    17882192.027 2  73224569.739 4      -379.866          34.000  
G26  21959306.238 9                     -4159.285          21.000                                                                  
G13  23288787.942 9                     -2071.367          10.000                                                                  
G30  22955374.450 1 120631261.516 2      -225.052          40.000    22955350.936 1  93998315.098 3      -175.443          37.000  
> 2021 05 13 15 17 10.9920000  0  9                     
G07  22430665.975 9                     -1845.551          21.000    22430619.559 9                     -1448.171          16.000  
G21  21107010.091 1 110918085.186 2      2182.197          39.000                                                                  
G10  18722548.473 9                       251.644          22.000                                                                  
G16  20100788.176 1 105630357.405 1     -3631.085          45.000                                                                  
G08  19067756.446 2                      1708.561          27.000    19067740.788 1  78079186.113 3      1332.228          37.000  
G27  17882309.221 8  93972168.92337      -486.727          30.000    17882284.737 2  73224949.090 4      -380.123          34.000  
G26  21960100.315 9                     -4156.978          21.000                                                                  
G13  23289185.871 9                     -2079.135          13.000                                                                  
G30  22955417.201 1 120631486.920 2      -225.685          40.000    22955393.848 1  93998490.706 3      -175.644          37.000  
> 2021 05 13 15 17 11.9920000  0 10                     
G21  21106594.912 1 110915903.218 2      2181.493          39.000                                                                  
G23  19375232.891 9                     -2094.176          12.000                                                                  
G10  18722503.244 9                       251.397          23.000                                                                  
G16  20101479.267 1 105633988.454 1     -3631.339          45.000                                                                  
G08  19067431.316 2 100200043.801 7      1710.658          29.000    19067415.431 1  78077854.068 3      1331.948          37.000  
G27  17882403.246 8  93972656.13327      -487.192          29.000    17882377.445 2  73225328.711 5      -379.810          33.000  
G26  21960894.732 9                     -4163.213          20.000                                                                  
G13  23289580.865 9                     -2081.601          14.000                                                                  
G30  22955460.118 1 120631712.748 2      -226.300          39.000    22955436.843 1  93998666.704 3      -176.613          37.000  
G07                                                                  22430970.294 9                     -1437.157          18.000  
> 2021 05 13 15 17 12.9920000  0 10                     
G21  21106179.713 1 110913721.300 2      2181.945          39.000                                                                  
G23  19375634.445 9                     -2116.033          13.000                                                                  
G10  18722457.797 9                       248.503          23.000                                                                  
G16  20102170.240 1 105637619.725 1     -3631.281          45.000                                                                  
G08  19067106.034 2 100198334.583 6      1709.599          29.000    19067090.189 1  78076522.191 3      1331.826          37.000  
G27  17882495.092 8  93973143.690 7      -487.810          28.000    17882470.229 2  73225708.650 5      -379.779          33.000  
G26  21961689.224 9                     -4149.267          20.000                                                                  
G13  23289980.349 9                     -2089.086          15.000                                                                  
G30  22955503.117 1 120631939.023 2      -226.650          39.000    22955480.031 1  93998842.993 3      -176.134          37.000  
G07                                                                  22431321.144 9                     -1440.288          19.000  
> 2021 05 13 15 17 13.9920000  0 10                     
G21  21105764.630 1 110911539.340 2      2181.944          39.000                                                                  
G23  19376039.135 9                     -2108.483          16.000                                                                  
G10  18722410.827 9                       252.309          24.000                                                                  
G16  20102861.223 1 105641251.074 1     -3631.464          45.000                                                                  
G08  19066781.217 2 100196625.447 5      1708.312          30.000    19066764.829 1  78075190.313 3      1332.307          38.000  
G27  17882586.324 4  93973631.495 7      -487.707          28.000    17882563.007 2  73226088.791 5      -381.043          33.000  
G26  21962482.151 9                     -4163.489          18.000                                                                  
G13  23290378.166 9                     -2088.048          15.000                                                                  
G30  22955546.269 1 120632165.585 2      -226.726          39.000    22955523.203 1  93999019.560 3      -176.767          37.000  
G07                                                                  22431671.782 9                     -1445.258          20.000  
> 2021 05 13 15 17 14.9920000  0 10                     
G21  21105349.418 1 110909357.197 2      2182.115          39.000                                                                  
G23  19376441.531 9                     -2130.497          15.000                                                                  
G10  18722364.408 9                       242.681          25.000                                                                  
G16  20103552.114 1 105644882.422 1     -3631.415          44.000                                                                  
G08  19066456.323 2 100194916.280 6      1708.425          31.000    19066439.612 1  78073858.514 3      1331.379          37.000  
G27  17882680.016 4  93974119.555 6      -488.414          29.000    17882655.817 2  73226469.004 5      -379.898          33.000  
G26  21963273.740 9                     -4154.287          19.000                                                                  
G13  23290777.846 9                     -2084.594          16.000                                                                  
G30  22955589.411 1 120632392.407 2      -226.933          39.000    22955566.353 1  93999196.309 2      -177.125          37.000  
G07                                                                  22432023.973 9                     -1445.820          21.000  
> 2021 05 13 15 17 15.9920000  0 10                     
G21  21104934.329 1 110907175.421 2      2181.653          40.000                                                                  
G23  19376846.639 9                     -2117.024          14.000                                                                  
G10  18722314.655 9                       247.664          25.000                                                                  
G16  20104243.169 1 105648514.278 1     -3632.319          44.000                                                                  
G08  19066131.323 2 100193207.539 6      1708.364          31.000    19066114.424 1  78072527.028 3      1331.304          37.000  
G27  17882773.067 4  93974608.115 6      -488.590          29.000    17882748.875 2  73226849.771 5      -380.879          33.000  
G26  21964065.201 9                     -4159.808          19.000                                                                  
G13  23291172.697 9                     -2065.964          15.000                                                                  
G30  22955632.697 1 120632619.931 2      -228.036          39.000    22955609.687 1  93999373.610 3      -177.879          37.000  
G07                                                                  22432376.562 9                     -1442.698          22.000  
> 2021 05 13 15 17 16.9920000  0 10                     
G21  21104519.384 1 110904994.009 2      2181.278          40.000                                                                  
G23  19377248.469 9                     -2107.066          14.000                                                                  
G10  18722265.764 9                       246.648          24.000                                                                  
G16  20104934.471 1 105652146.619 1     -3632.511          44.000                                                                  
G08  19065806.261 2 100191499.382 6      1708.078          30.000    19065789.346 1  78071195.989 3      1330.768          38.000  
G27  17882865.528 4  93975097.526 8      -491.075          29.000    17882841.945 2  73227231.030 4      -381.442          33.000  
G26  21964856.757 9                     -4162.511          19.000                                                                  
G13  23291568.456 9                     -2080.563          15.000                                                                  
G30  22955676.195 1 120632848.217 2      -228.503          39.000    22955653.097 1  93999551.452 3      -177.812          37.000  
G07                                                                  22432729.995 9                     -1443.690          22.000  
> 2021 05 13 15 17 17.9920000  0  9                     
G21  21104104.411 1 110902812.915 2      2180.704          40.000                                                                  
G23  19377648.322 9                     -2110.875          14.000                                                                  
G10  18722214.686 9                       243.227          24.000                                                                  
G16  20105625.691 1 105655779.425 1     -3632.971          44.000                                                                  
G08  19065481.166 2 100189791.581 5      1707.775          29.000    19065464.280 1  78069865.266 3      1330.643          38.000  
G27  17882958.784 4  93975587.343 7      -490.103          29.000    17882935.139 2  73227612.794 4      -382.056          34.000  
G13  23291966.338 9                     -2068.897          14.000                                                                  
G30  22955719.637 1 120633077.162 2      -229.469          39.000    22955696.682 1  93999729.902 3      -178.857          37.000  
G07                                                                  22433083.537 9                     -1442.773          22.000  
> 2021 05 13 15 17 18.9920000  0 10                     
G21  21103689.591 1 110900632.121 2      2180.504          40.000                                                                  
G23  19378050.379 9                     -2121.413          15.000                                                                  
G10  18722165.777 9                       245.928          24.000                                                                  
G16  20106317.129 1 105659412.707 1     -3633.558          45.000                                                                  
G08  19065156.002 2 100188084.328 6      1706.673          28.000    19065139.402 1  78068534.920 3      1329.878          38.000  
G27  17883052.222 4  93976077.926 7      -490.707          28.000    17883028.515 2  73227995.008 4      -382.456          34.000  
G26  21966441.159 9                     -4157.426          18.000                                                                  
G13  23292364.509 9                     -2100.147          11.000                                                                  
G30  22955763.289 1 120633306.809 2      -229.796          39.000    22955740.487 1  93999908.849 3      -179.382          37.000  
G07                                                                  22433436.684 9                     -1448.526          22.000  
> 2021 05 13 15 17 19.9920000  0  9                     
G21  21103274.757 1 110898451.805 2      2179.892          41.000                                                                  
G23  19378449.722 9                     -2109.028          15.000                                                                  
G10  18722119.997 9                       244.344          23.000                                                                  
G16  20107008.641 1 105663046.576 1     -3634.101          44.000                                                                  
G08  19064830.941 2 100186377.668 6      1706.105          28.000    19064814.708 1  78067204.999 3      1329.894          38.000  
G27  17883146.075 4  93976569.222 8      -491.385          27.000    17883122.031 2  73228377.816 4      -383.300          34.000  
G26  21967235.522 9                     -4158.893          18.000                                                                  
G30  22955807.143 1 120633537.323 2      -231.082          39.000    22955784.278 1  94000088.447 3      -179.766          37.000  
G07                                                                  22433789.525 9                     -1444.461          22.000  
> 2021 05 13 15 17 20.9920000  0  9                     
G21  21102860.085 1 110896272.036 2      2179.448          40.000                                                                  
G23  19378850.527 9                     -2116.344          15.000                                                                  
G10  18722074.917 9                       241.271          23.000                                                                  
G16  20107700.238 1 105666681.164 1     -3634.852          44.000                                                                  
G08  19064506.227 2 100184671.569 7      1705.895          29.000    19064490.026 1  78065875.650 3      1329.232          38.000  
G27  17883239.967 4                      -492.275          27.000    17883215.820 2  73228761.324 4      -383.873          34.000  
G26  21968029.784 9                     -4153.540          18.000                                                                  
G30  22955851.160 1 120633768.756 2      -232.288          39.000    22955828.286 1  94000268.783 2      -180.553          38.000  
G07                                                                  22434143.343 9                     -1441.536          21.000  
> 2021 05 13 15 17 21.9920000  0  9                     
G21  21102445.451 1 110894093.029 2      2178.914          40.000                                                                  
G23  19379252.166 9                     -2116.058          15.000                                                                  
G10  18722031.503 9                       239.637          25.000                                                                  
G16  20108392.015 1 105670316.689 1     -3635.799          44.000                                                                  
G08  19064181.665 4 100182966.499 8      1704.344          30.000    19064165.461 1  78064546.995 3      1328.685          38.000  
G27  17883333.616 4  93977554.596 8      -493.744          27.000    17883309.539 2  73229145.680 5      -384.807          34.000  
G26  21968824.562 9                     -4149.906          18.000                                                                  
G30  22955895.373 1 120634001.310 2      -233.184          39.000    22955872.505 1  94000450.023 3      -181.454          38.000  
G07                                                                  22434497.004 9                     -1443.682          21.000  
> 2021 05 13 15 17 22.9920000  0  9                     
G21  21102030.849 1 110891914.311 2      2178.149          40.000                                                                  
G23  19379655.625 9                     -2122.669          14.000                                                                  
G10  18721986.892 9                       239.783          23.000                                                                  
G16  20109083.855 1 105673952.603 1     -3636.130          44.000                                                                  
G08  19063857.145 4 100181261.763 7      1704.137          30.000    19063840.982 1  78063218.664 2      1328.307          38.000  
G27  17883427.444 2  93978048.399 7      -494.286          27.000    17883403.608 2  73229530.461 4      -384.961          34.000  
G26  21969616.500 9                     -4164.743          17.000                                                                  
G30  22955939.762 1 120634234.555 2      -233.879          38.000    22955916.902 1  94000631.770 2      -182.050          38.000  
G07                                                                  22434848.315 9                     -1439.851          20.000  
> 2021 05 13 15 17 23.9920000  0  9                     
G21  21101616.162 1 110889735.800 2      2178.578          39.000                                                                  
G23  19380058.595 9                     -2114.621          12.000                                                                  
G10  18721942.698 9                       241.181          23.000                                                                  
G16  20109775.827 1 105677588.882 1     -3636.322          44.000                                                                  
G08  19063532.893 2 100179557.519 8      1704.105          29.000    19063516.670 1  78061890.634 3      1328.003          38.000  
G27  17883521.536 2  93978542.722 7      -494.317          28.000    17883497.650 2  73229915.641 5      -384.760          33.000  
G26  21970409.773 9                     -4162.057          18.000                                                                  
G30  22955984.172 1 120634468.349 2      -233.743          38.000    22955961.495 1  94000813.961 3      -182.481          38.000  
G07                                                                  22435201.309 9                     -1445.193          19.000  
> 2021 05 13 15 17 24.9920000  0  9                     
G21  21101201.582 1 110887557.541 2      2177.784          39.000                                                                  
G10  18721898.448 9                       238.491          23.000                                                                  
G16  20110467.639 1 105681225.561 1     -3636.744          44.000                                                                  
G08  19063208.443 2 100177853.463 7      1704.103          29.000    19063192.431 1  78060562.859 3      1327.444          38.000  
G15  22220718.719 9                     -1683.961          23.000                                                                  
G27  17883615.635 2  93979037.631 6      -495.036          28.000    17883591.820 2  73230301.226 4      -385.473          33.000  
G26  21971201.237 9                     -4172.076          19.000                                                                  
G30  22956028.706 1 120634702.778 2      -234.631          38.000    22956006.156 1  94000996.624 2      -182.936          38.000  
G07                                                                  22435556.561 9                     -1456.088          19.000  
> 2021 05 13 15 17 25.9920000  0 10                     
G07  22435975.340 9                     -1862.350          22.000    22435910.637 9                     -1450.188          19.000  
G21  21100787.104 1 110885379.504 2      2177.990          40.000                                                                  
G23  19380862.541 9                     -2114.621           9.000                                                                  
G10  18721853.449 9                       238.859          25.000                                                                  
G16  20111159.778 1 105684862.626 1     -3637.229          44.000                                                                  
G08  19062884.133 2 100176149.918 8      1703.124          28.000    19062868.370 1  78059235.375 3      1327.382          38.000  
G15  22221045.390 9                     -1683.961          23.000                                                                  
G27  17883709.971 2  93979533.045 7      -495.929          29.000    17883686.210 2  73230687.266 4      -385.958          34.000  
G26  21971991.009 9                     -4158.955          19.000                                                                  
G30  22956073.508 1 120634937.842 2      -235.450          38.000    22956050.990 1  94001179.786 3      -183.376          38.000  
> 2021 05 13 15 17 26.9920000  0  9                     
G07  22436325.506 9                     -1862.350          23.000    22436264.347 9                     -1444.662          20.000  
G21  21100372.574 1 110883201.584 2      2177.714          40.000                                                                  
G10  18721810.567 8  98383778.48037       238.169          26.000                                                                  
G16  20111851.904 1 105688499.938 1     -3637.141          44.000                                                                  
G08  19062560.060 2 100174446.554 6      1704.234          31.000    19062544.234 1  78057908.053 2      1327.411          38.000  
G15  22221365.107 9                     -1683.961          23.000                                                                  
G27  17883804.378 2  93980028.926 8      -496.290          29.000    17883780.592 2  73231073.640 4      -386.494          34.000  
G26  21972781.165 9                     -4155.993          18.000                                                                  
G30  22956118.324 1 120635173.344 2      -235.818          38.000    22956095.854 1  94001363.297 2      -183.614          38.000  
> 2021 05 13 15 17 27.9920000  0  8                     
G21  21099958.184 1 110881023.689 2      2177.833          40.000                                                                  
G10  18721763.836 8  98383540.49927       237.598          27.000                                                                  
G16  20112544.068 1 105692137.454 2     -3637.701          43.000                                                                  
G08  19062235.958 4 100172743.378 8      1702.751          30.000    19062220.208 1  78056580.907 2      1326.906          38.000  
G27  17883898.648 2  93980525.056 8      -496.660          28.000    17883875.110 2  73231460.235 4      -386.570          34.000  
G26  21973570.523 9                     -4168.738          18.000                                                                  
G30  22956163.172 1 120635409.302 3      -236.268          38.000    22956140.814 1  94001547.152 2      -184.217          38.000  
G07                                                                  22436616.368 9                     -1454.355          20.000  
> 2021 05 13 15 17 28.9920000  0  8                     
G21  21099543.788 1 110878846.052 2      2177.164          40.000                                                                  
G10  18721718.246 8  98383303.17628       236.341          26.000                                                                  
G16  20113236.356 1 105695775.380 1     -3638.323          43.000                                                                  
G08  19061911.948 4 100171040.593 7      1702.314          30.000    19061896.142 1  78055254.058 3      1326.583          38.000  
G27  17883993.469 2  93981021.742 8      -496.746          27.000    17883969.698 2  73231847.303 4      -387.493          34.000  
G26  21974365.209 9                     -4165.090          17.000                                                                  
G30  22956208.087 1 120635645.890 2      -237.023          37.000    22956185.784 1  94001731.484 3      -184.323          38.000  
G07                                                                  22436970.147 9                     -1457.726          20.000  
> 2021 05 13 15 17 29.9920000  0  8                     
G21  21099129.411 1 110876668.773 2      2177.167          40.000                                                                  
G10  18721675.944 8  98383066.47227       236.438          26.000                                                                  
G16  20113928.705 1 105699413.803 1     -3638.713          43.000                                                                  
G08  19061587.741 2 100169338.358 8      1702.445          29.000    19061572.194 1  78053927.616 3      1326.146          38.000  
G27  17884088.018 2  93981519.102 6      -497.771          29.000    17884064.415 2  73232234.876 4      -387.996          34.000  
G26  21975159.593 9                     -4160.049          16.000                                                                  
G30  22956253.129 1 120635883.201 2      -237.782          38.000    22956230.996 1  94001916.435 2      -185.353          38.000  
G07                                                                  22437323.335 9                     -1444.493          18.000  
> 2021 05 13 15 17 30.9920000  0  8                     
G07  22437735.791 9                     -1859.344          25.000    22437678.667 9                     -1458.191          17.000  
G21  21098715.149 1 110874492.012 2      2176.470          40.000                                                                  
G10  18721629.283 8                       236.976          25.000                                                                  
G16  20114621.182 1 105703052.875 1     -3639.194          44.000                                                                  
G08  19061264.264 4 100167636.712 6      1701.384          30.000    19061248.434 1  78052601.648 3      1325.997          38.000  
G27  17884182.584 4  93982017.277 6      -498.319          30.000    17884159.400 2  73232623.102 5      -388.876          33.000  
G26  21975949.710 9                     -4180.832          16.000                                                                  
G30  22956298.497 1 120636121.398 3      -238.260          38.000    22956276.352 1  94002102.042 3      -185.784          38.000  
> 2021 05 13 15 17 31.9920000  0  9                     
G07  22438085.346 8 117912933.67638     -1859.875          26.000    22438033.319 9                     -1447.133          17.000  
G21  21098301.029 1 110872315.609 2      2176.220          41.000                                                                  
G23  19383293.713 9                     -2126.383          11.000                                                                  
G10  18721584.109 8  98382587.59337       234.700          26.000                                                                  
G16  20115313.832 1 105706692.472 1     -3639.912          43.000                                                                  
G08  19060940.862 2 100165935.643 5      1701.035          33.000    19060924.637 1  78051276.102 3      1325.219          38.000  
G27  17884277.216 4  93982516.039 6      -499.457          30.000    17884254.311 2  73233011.836 5      -389.304          32.000  
G26  21976741.941 9                     -4147.828          16.000                                                                  
G30  22956343.813 1 120636360.383 3      -239.272          35.000    22956321.866 1  94002288.254 3      -186.401          38.000  
> 2021 05 13 15 17 32.9920000  0  9                     
G07  22438434.841 8 117914793.45428     -1860.434          25.000    22438386.230 9                     -1447.133          14.000  
G21  21097886.980 1 110870139.623 2      2175.779          39.000                                                                  
G23  19383698.397 9                     -2129.034          16.000                                                                  
G10  18721538.491 8  98382353.72225       232.829          32.000                                                                  
G16  20116006.482 1 105710332.623 1     -3640.484          43.000                                                                  
G08  19060617.705 2 100164235.075 4      1700.133          34.000    19060601.003 1  78049951.000 2      1324.972          38.000  
G27  17884372.067 2  93983015.581 5      -500.034          32.000    17884349.396 2  73233401.119 6      -388.617          31.000  
G26  21977533.473 9                     -4162.981          18.000                                                                  
G30  22956389.302 1 120636600.152 3      -240.571          36.000    22956367.531 1  94002475.036 3      -186.518          37.000  
> 2021 05 13 15 17 33.9920000  0  9                     
G07  22438786.675 8                     -1861.059          26.000                                                                  
G21  21097472.992 1 110867963.932 3      2175.382          39.000                                                                  
G23  19384103.941 9                     -2134.047          18.000                                                                  
G10  18721493.583 8                       232.299          25.000                                                                  
G16  20116699.274 1 105713973.254 1     -3640.689          44.000                                                                  
G08  19060294.239 2 100162534.877 5      1700.497          33.000    19060277.553 1  78048626.239 3      1324.474          38.000  
G27  17884467.312 2  93983515.994 5      -501.737          32.000    17884444.575 2  73233790.896 6      -389.084          32.000  
G26  21978325.650 9                     -4161.252          19.000                                                                  
G30  22956434.850 1 120636840.584 3      -240.993          35.000    22956413.395 1  94002662.428 2      -187.843          37.000  
> 2021 05 13 15 17 34.9920000  0  9                     
G07  22439138.514 8 117918514.44827     -1860.489          27.000                                                                  
G21  21097059.049 1 110865788.428 2      2175.357          40.000                                                                  
G23  19384509.585 9                     -2125.018          19.000                                                                  
G10  18721447.684 8                       232.496          26.000                                                                  
G16  20117392.126 1 105717614.131 1     -3641.010          44.000                                                                  
G08  19059970.961 2 100160835.012 5      1699.725          33.000    19059954.074 1  78047301.658 2      1324.724          38.000  
G27  17884562.638 2  93984016.561 6      -500.911          27.000    17884539.906 2  73234181.083 6      -390.764          31.000  
G26  21979118.537 9                     -4158.558          20.000                                                                  
G30  22956480.538 1 120637081.490 4      -241.264          34.000    22956459.306 1  94002850.150 2      -188.033          38.000  
> 2021 05 13 15 17 35.9920000  0  9                     
G07  22439488.012 8                     -1859.188          25.000                                                                  
G21  21096645.094 1 110863612.994 2      2175.372          40.000                                                                  
G23  19384914.460 9                     -2142.268          20.000                                                                  
G10  18721404.803 8                       231.636          30.000                                                                  
G16  20118085.020 1 105721255.278 1     -3641.212          43.000                                                                  
G08  19059647.994 2 100159135.520 4      1699.171          38.000    19059630.663 1  78045977.320 3      1324.562          37.000  
G27  17884657.800 2  93984517.507 5      -501.595          33.000    17884635.330 2  73234571.453 7      -390.573          31.000  
G26  21979910.897 9                     -4153.791          20.000                                                                  
G30  22956526.350 1 120637322.942 4      -241.786          34.000    22956505.296 1  94003038.283 3      -188.409          38.000  
> 2021 05 13 15 17 36.9920000  0 10                     
G07  22439838.778 9                     -1860.874          25.000                                                                  
G21  21096231.129 1 110861437.407 2      2175.590          41.000                                                                  
G23  19385321.862 9                     -2132.951          19.000                                                                  
G10  18721361.913 8                       231.903          27.000                                                                  
G16  20118777.828 1 105724896.369 1     -3641.085          43.000                                                                  
G08  19059324.958 1 100157435.839 3      1699.543          35.000    19059307.276 1  78044652.926 3      1324.431          37.000  
G27  17884753.053 2  93985018.832 5      -501.566          32.000    17884730.719 2  73234961.991 6      -390.953          31.000  
G26  21980703.813 9                     -4157.524          20.000                                                                  
G13  23299531.405 9                     -2104.985          10.000                                                                  
G30  22956572.151 1 120637564.562 4      -241.763          34.000    22956551.223 1  94003226.545 3      -188.281          37.000  
> 2021 05 13 15 17 37.9920000  0 10                     
G07  22440191.880 9 117924003.57537     -1862.165          26.000                                                                  
G21  21095817.119 1 110859261.723 2      2175.897          41.000                                                                  
G23  19385728.039 9                     -2125.990          20.000                                                                  
G10  18721312.344 9                       233.582          20.000                                                                  
G16  20119470.768 1 105728537.568 1     -3640.895          44.000                                                                  
G08  19059001.981 1 100155736.345 3      1699.467          37.000    19058983.826 1  78043328.611 2      1324.385          38.000  
G27  17884848.205 2  93985520.127 6      -501.030          29.000    17884826.173 2  73235352.735 5      -391.046          31.000  
G26  21981498.037 9                     -4170.669          19.000                                                                  
G13  23299932.596 9                     -2104.985          11.000                                                                  
G30  22956618.003 1 120637806.521 4      -242.109          35.000    22956597.315 1  94003415.092 2      -188.634          38.000  
> 2021 05 13 15 17 38.9920000  0  9                     
G07  22440544.548 8 117925865.15227     -1861.752          26.000                                                                  
G21  21095403.069 1 110857085.997 2      2175.591          41.000                                                                  
G23  19386133.663 9                     -2127.155          20.000                                                                  
G10  18721272.317 9                       230.347          19.000                                                                  
G16  20120163.672 1 105732178.860 1     -3641.590          44.000                                                                  
G08  19058679.077 1 100154036.850 2      1699.692          37.000    19058660.441 1  78042004.338 2      1324.136          38.000  
G27  17884943.516 2  93986021.888 6      -502.320          29.000    17884921.616 2  73235743.652 4      -390.912          33.000  
G26  21982289.357 9                     -4156.011          19.000                                                                  
G30  22956663.983 1 120638048.818 3      -242.596          35.000    22956643.398 1  94003603.896 2      -189.334          38.000  
> 2021 05 13 15 17 39.9920000  0  8                     
G07  22440896.097 8 117927726.88925     -1862.909          30.000                                                                  
G21  21094989.156 1 110854910.292 2      2175.654          42.000                                                                  
G23  19386538.757 9                     -2123.435          20.000                                                                  
G16  20120856.610 1 105735820.303 1     -3641.502          44.000                                                                  
G08  19058356.158 1 100152337.521 3      1698.986          33.000    19058337.053 1  78040680.158 3      1324.412          37.000  
G27  17885039.106 4                      -502.257          29.000    17885017.089 2  73236134.813 5      -391.299          34.000  
G26  21983081.151 9                     -4161.766          19.000                                                                  
G30  22956709.952 1 120638291.442 4      -242.839          35.000    22956689.576 1  94003792.950 2      -189.302          38.000  
> 2021 05 13 15 17 40.9920000  0  8                     
G07  22441251.919 8 117929589.02326     -1862.167          29.000                                                                  
G21  21094575.177 1 110852734.677 2      2175.500          42.000                                                                  
G23  19386944.226 9                     -2128.802          22.000                                                                  
G16  20121549.538 1 105739461.972 1     -3641.973          44.000                                                                  
G08  19058033.117 1 100150638.415 3      1698.850          36.000    19058013.669 1  78039356.213 3      1323.524          37.000  
G27  17885134.715 2  93987026.322 7      -503.272          32.000    17885112.819 2  73236526.268 5      -391.426          33.000  
G26  21983868.813 9                     -4159.984          21.000                                                                  
G30  22956756.078 1 120638534.552 4      -243.247          35.000    22956735.868 1  94003982.410 2      -189.886          38.000  
> 2021 05 13 15 17 41.9920000  0  8                     
G07  22441607.717 8 117931451.63926     -1863.682          30.000                                                                  
G21  21094161.169 1 110850559.175 2      2175.138          41.000                                                                  
G23  19387350.070 9                     -2142.985          22.000                                                                  
G16  20122242.670 1 105743103.927 1     -3642.315          44.000                                                                  
G08  19057709.880 1 100148939.574 4      1698.663          33.000    19057690.361 1  78038032.462 3      1323.397          37.000  
G27  17885230.492 2  93987529.184 5      -503.091          35.000    17885208.438 2  73236918.104 5      -392.509          33.000  
G26  21984659.253 9                     -4166.362          21.000                                                                  
G30  22956802.209 1 120638778.176 4      -243.816          34.000    22956782.322 1  94004172.246 3      -190.170          38.000  
> 2021 05 13 15 17 42.9920000  0  8                     
G07  22441960.197 8 117933314.68826     -1863.172          30.000                                                                  
G21  21093747.186 1 110848384.044 2      2174.899          41.000                                                                  
G23  19387755.695 9                     -2124.285          21.000                                                                  
G16  20122935.748 1 105746746.375 1     -3642.601          44.000                                                                  
G08  19057387.063 1 100147241.273 3      1698.506          37.000    19057367.291 1  78036709.084 3      1323.346          37.000  
G27  17885326.407 1  93988032.676 4      -504.298          34.000    17885304.262 2  73237310.431 4      -392.734          33.000  
G26  21985446.829 9                     -4162.687          22.000                                                                  
G30  22956848.682 1 120639022.531 3      -244.736          35.000    22956828.848 1  94004362.648 2      -190.627          38.000  
> 2021 05 13 15 17 43.9920000  0  8                     
G07  22442313.752 8 117935154.35236     -1863.723          31.000                                                                  
G21  21093333.336 1 110846209.103 2      2175.167          41.000                                                                  
G23  19388162.618 9                     -2131.639          19.000                                                                  
G16  20123628.955 1 105750389.189 1     -3642.982          43.000                                                                  
G08  19057064.295 1 100145543.283 3      1698.324          34.000    19057044.238 1  78035385.989 3      1323.112          37.000  
G27  17885422.510 1  93988536.723 3      -504.070          35.000    17885400.270 2  73237703.179 4      -393.219          34.000  
G26  21986237.797 9                     -4154.439          21.000                                                                  
G30  22956895.319 1 120639267.481 3      -245.074          35.000    22956875.447 1  94004553.527 3      -191.111          38.000  
> 2021 05 13 15 17 44.9920000  0  9                     
G07  22442667.230 8 117937018.22328     -1864.729          30.000                                                                  
G21  21092919.380 1 110844034.134 2      2174.809          40.000                                                                  
G23  19388569.831 9                     -2125.515          21.000                                                                  
G10  18721006.389 9                       228.092          24.000                                                                  
G16  20124322.019 1 105754032.097 1     -3643.167          43.000                                                                  
G08  19056741.412 1 100143845.472 4      1697.892          34.000    19056721.115 1  78034063.011 3      1322.728          37.000  
G27  17885518.512 2  93989040.938 4      -504.509          34.000    17885496.070 2  73238096.098 5      -393.188          33.000  
G26  21987029.719 9                     -4161.730          19.000                                                                  
G30  22956941.919 1 120639512.815 3      -245.731          35.000    22956922.212 1  94004744.678 2      -191.733          38.000  
> 2021 05 13 15 17 45.9920000  0  8                     
G07  22443022.515 4 117938882.19827     -1864.366          30.000                                                                  
G21  21092505.538 1 110841859.041 2      2175.017          41.000                                                                  
G23  19388977.437 9                     -2132.325          23.000                                                                  
G16  20125015.304 1 105757675.022 1     -3643.229          43.000                                                                  
G08  19056418.630 1 100142147.575 3      1697.487          37.000    19056397.912 1  78032739.944 3      1322.826          37.000  
G27  17885615.077 9                      -513.500          16.000    17885592.079 2  73238489.175 5      -392.990          33.000  
G26  21987822.483 9                     -4157.806          17.000                                                                  
G30  22956988.618 1 120639758.300 4      -245.780          36.000    22956968.988 1  94004935.974 2      -191.973          38.000  
> 2021 05 13 15 17 46.9920000  0  9                     
G07  22443378.871 4 117940746.33427     -1865.433          30.000                                                                  
G21  21092091.557 1 110839683.914 2      2175.073          41.000                                                                  
G23  19389385.491 9                     -2134.721          23.000                                                                  
G10  18720912.412 9                       225.278          30.000                                                                  
G16  20125708.579 1 105761318.062 1     -3643.111          43.000                                                                  
G08  19056095.787 1 100140449.791 3      1697.649          37.000    19056074.846 1  78031417.040 3      1322.740          37.000  
G27  17885710.308 9  93990041.13937      -504.547          29.000    17885688.216 2  73238882.492 6      -393.672          33.000  
G26  21988612.978 9                     -4163.123          15.000                                                                  
G30  22957035.522 1 120640004.206 3      -246.176          36.000    22957015.800 1  94005127.575 3      -191.622          38.000  
> 2021 05 13 15 17 47.9920000  0  8                     
G07  22443733.825 4 117942610.84328     -1864.385          29.000                                                                  
G21  21091677.695 1 110837508.988 2      2174.981          42.000                                                                  
G23  19389792.525 9                     -2131.684          23.000                                                                  
G16  20126401.865 1 105764961.465 2     -3643.621          42.000                                                                  
G08  19055772.915 1 100138752.351 3      1697.548          36.000    19055751.697 1  78030094.352 2      1322.653          37.000  
G27  17885806.753 8  93990546.39828      -505.123          28.000    17885784.350 2  73239276.140 4      -393.812          34.000  
G26  21989402.973 9                     -4157.498          18.000                                                                  
G30  22957082.493 1 120640250.689 3      -246.716          36.000    22957062.690 1  94005319.618 3      -192.132          38.000  
> 2021 05 13 15 17 48.9920000  0  8                     
G07  22444088.844 2                     -1865.326          28.000                                                                  
G21  21091263.893 1 110835334.267 1      2174.762          42.000                                                                  
G23  19390197.446 9                     -2128.604          23.000                                                                  
G16  20127095.203 1 105768605.191 1     -3643.756          43.000                                                                  
G08  19055450.030 1 100137055.267 3      1696.866          36.000    19055428.670 1  78028771.956 3      1322.034          37.000  
G27  17885903.677 8  93991052.025 7      -504.879          29.000    17885880.599 2  73239670.190 5      -393.644          33.000  
G26  21990194.523 9                     -4159.568          21.000                                                                  
G30  22957129.711 1 120640497.696 3      -246.971          35.000    22957109.765 1  94005512.093 2      -192.484          38.000  
> 2021 05 13 15 17 49.9920000  0 10                     
G07  22444444.079 2                     -1866.033          28.000                                                                  
G21  21090850.266 1 110833159.881 2      2174.200          42.000                                                                  
G23  19390604.208 9                     -2139.816          22.000                                                                  
G10  18720785.538 9                       226.401          25.000                                                                  
G16  20127788.618 1 105772249.373 1     -3644.258          43.000                                                                  
G08  19055127.264 1 100135358.684 3      1696.163          36.000    19055105.694 1  78027449.924 3      1321.853          37.000  
G18  21534582.608 9                     -3687.969          20.000                                                                  
G27  17885999.255 8                      -506.873          28.000    17885977.058 2  73240064.774 4      -394.956          34.000  
G26  21990983.349 9                     -4168.056          20.000                                                                  
G30  22957176.832 1 120640745.441 3      -248.329          35.000    22957156.880 1  94005705.168 3      -193.646          38.000  
> 2021 05 13 15 17 50.9920000  0  9                     
G07  22444799.325 2 117948207.37317     -1866.109          30.000                                                                  
G21  21090436.555 1 110830985.850 2      2174.462          42.000                                                                  
G23  19391010.080 9                     -2152.997          20.000                                                                  
G10  18720747.792 9                       222.911          25.000                                                                  
G16  20128482.231 1 105775894.086 2     -3644.624          43.000                                                                  
G08  19054804.812 1 100133662.572 3      1696.056          36.000    19054782.879 1  78026128.250 3      1321.700          37.000  
G27  17886098.424 8  93992065.453 7      -507.148          28.000    17886073.685 2  73240459.856 4      -395.073          34.000  
G26  21991773.230 9                     -4159.204          20.000                                                                  
G30  22957224.142 1 120640993.907 3      -248.579          35.000    22957204.196 1  94005898.741 3      -193.405          38.000  
> 2021 05 13 15 17 51.9920000  0  9                     
G07  22445154.727 4 117950074.228 7     -1868.803          30.000                                                                  
G21  21090022.944 1 110828812.111 2      2173.349          42.000                                                                  
G23  19391416.582 9                     -2139.721          18.000                                                                  
G10  18720706.834 9                       223.131          25.000                                                                  
G16  20129175.974 1 105779539.210 2     -3645.886          42.000                                                                  
G08  19054482.387 1 100131966.839 3      1695.364          36.000    19054460.192 1  78024806.930 3      1320.999          37.000  
G27  17886193.361 4  93992573.024 7      -508.170          29.000    17886170.537 2  73240855.399 4      -396.026          34.000  
G26  21992562.793 9                     -4162.460          21.000                                                                  
G30  22957271.511 1 120641243.046 4      -250.226          35.000    22957251.554 1  94006092.904 2      -194.621          38.000  
> 2021 05 13 15 17 52.9920000  0  9                     
G07  22445510.136 4 117951941.696 7     -1867.168          30.000                                                                  
G21  21089609.324 1 110826638.886 2      2173.040          43.000                                                                  
G23  19391823.369 9                     -2145.515          16.000                                                                  
G10  18720663.729 8  98377751.12238       221.776          26.000                                                                  
G16  20129869.722 1 105783185.012 1     -3645.908          43.000                                                                  
G08  19054159.855 1 100130271.763 3      1695.179          36.000    19054137.625 1  78023486.125 3      1320.936          37.000  
G27  17886290.581 4  93993081.534 7      -509.448          29.000    17886267.103 2  73241251.617 4      -396.828          34.000  
G26  21993356.506 9                     -4162.751          20.000                                                                  
G30  22957319.223 1 120641493.050 3      -250.089          36.000    22957299.063 1  94006287.729 2      -195.445          38.000  
> 2021 05 13 15 17 53.9920000  0  9                     
G07  22445865.435 4 117953809.877 7     -1868.497          30.000                                                                  
G21  21089195.883 1 110824465.947 1      2172.888          42.000                                                                  
G23  19392230.696 9                     -2144.666          16.000                                                                  
G10  18720626.930 8  98377529.07427       221.872          28.000                                                                  
G16  20130563.567 1 105786831.234 1     -3646.289          43.000                                                                  
G08  19053837.293 1 100128577.168 4      1694.542          35.000    19053815.094 1  78022165.645 3      1320.585          37.000  
G27  17886388.088 4  93993590.568 7      -509.033          29.000    17886363.826 2  73241648.232 4      -396.727          34.000  
G26  21994148.973 9                     -4157.591          19.000                                                                  
G30  22957367.104 1 120641743.764 3      -251.264          36.000    22957346.895 1  94006483.069 2      -195.459          38.000  
> 2021 05 13 15 17 54.9920000  0  9                     
G07  22446220.956 2 117955678.573 7     -1868.653          29.000                                                                  
G21  21088782.439 1 110822293.375 2      2172.552          42.000                                                                  
G23  19392638.175 9                     -2145.329          17.000                                                                  
G10  18720586.869 8  98377307.79728       220.245          28.000                                                                  
G16  20131257.519 1 105790477.984 2     -3646.834          43.000                                                                  
G08  19053514.940 1 100126883.108 3      1693.833          36.000    19053492.746 1  78020845.598 3      1319.939          37.000  
G27  17886485.338 4  93994100.264 7      -509.804          29.000    17886460.841 2  73242045.376 4      -396.512          34.000  
G26  21994941.160 9                     -4163.061          18.000                                                                  
G30  22957415.102 1 120641995.220 3      -251.637          37.000    22957394.687 1  94006679.010 2      -196.270          38.000  
> 2021 05 13 15 17 55.9920000  0  9                     
G07  22446576.782 2 117957547.725 5     -1869.408          28.000                                                                  
G21  21088369.079 1 110820120.941 1      2172.315          42.000                                                                  
G23  19393042.250 9                     -2136.588          20.000                                                                  
G10  18720546.388 8                       221.196          27.000                                                                  
G16  20131951.487 1 105794124.992 1     -3646.989          44.000                                                                  
G08  19053192.528 1 100125189.279 3      1694.154          35.000    19053170.452 1  78019525.791 3      1319.315          37.000  
G27  17886582.423 4  93994610.416 6      -511.256          30.000    17886557.915 2  73242442.912 4      -397.564          34.000  
G26  21995735.187 9                     -4173.669          18.000                                                                  
G30  22957463.230 1 120642247.176 2      -252.384          38.000    22957442.563 1  94006875.327 2      -196.604          38.000  
> 2021 05 13 15 17 56.9920000  0  9                     
G07  22446932.648 2 117959417.301 7     -1870.403          28.000                                                                  
G21  21087955.657 1 110817948.656 1      2171.928          43.000                                                                  
G23  19393448.759 9                     -2138.250          21.000                                                                  
G10  18720506.363 8  98376867.041 8       218.307          29.000                                                                  
G16  20132645.453 1 105797772.340 1     -3647.831          43.000                                                                  
G08  19052870.198 1 100123495.812 3      1692.800          36.000    19052848.140 1  78018206.150 2      1319.231          37.000  
G27  17886679.581 2  93995120.998 5      -511.451          33.000    17886655.064 2  73242840.790 4      -398.211          34.000  
G26  21996528.025 9                     -4160.751          19.000                                                                  
G30  22957511.361 1 120642499.659 3      -252.967          37.000    22957490.596 1  94007072.070 3      -197.153          38.000  
> 2021 05 13 15 17 57.9920000  0  9                     
G07  22447288.558 2 117961287.375 7     -1870.516          28.000                                                                  
G21  21087542.285 1 110815776.621 1      2171.943          43.000                                                                  
G23  19393854.089 9                     -2137.442          22.000                                                                  
G10  18720467.878 8  98376647.535 7       218.933          29.000                                                                  
G16  20133339.637 1 105801420.059 1     -3648.255          42.000                                                                  
G08  19052547.957 1 100121802.693 4      1692.585          36.000    19052525.933 1  78016886.852 3      1318.724          37.000  
G27  17886776.975 2  93995632.148 4      -511.921          34.000    17886752.311 2  73243239.086 5      -398.155          34.000  
G26  21997316.321 9                     -4164.648          20.000                                                                  
G30  22957559.507 1 120642752.769 3      -253.322          37.000    22957538.785 1  94007269.294 2      -197.427          39.000  
> 2021 05 13 15 17 58.9920000  0  9                     
G07  22447644.873 2 117963157.769 7     -1870.182          27.000                                                                  
G21  21087129.085 1 110813604.770 1      2171.679          43.000                                                                  
G23  19394261.563 9                     -2135.906          23.000                                                                  
G10  18720424.833 8  98376428.648 6       218.534          29.000                                                                  
G16  20134033.878 1 105805068.090 2     -3648.152          43.000                                                                  
G08  19052225.758 1 100120109.859 3      1692.811          36.000    19052203.742 1  78015567.790 3      1318.887          37.000  
G27  17886874.414 2  93996143.792 5      -511.621          33.000    17886849.664 2  73243637.762 4      -398.454          34.000  
G26  21998107.181 9                     -4167.442          21.000                                                                  
G30  22957607.866 1 120643006.442 3      -254.021          38.000    22957587.045 1  94007466.976 3      -198.274          38.000  
> 2021 05 13 15 17 59.9920000  0  9                     
G07  22448001.074 2 117965028.631 8     -1871.123          27.000                                                                  
G21  21086715.778 1 110811433.090 2      2171.315          42.000                                                                  
G23  19394668.895 9                     -2142.594          21.000                                                                  
G10  18720383.475 4  98376210.329 6       218.029          28.000                                                                  
G16  20134728.140 1 105808716.433 2     -3648.378          43.000                                                                  
G08  19051903.739 1 100118417.386 3      1692.383          36.000    19051881.777 1  78014248.974 3      1318.883          37.000  
G27  17886972.167 2  93996655.899 5      -511.863          33.000    17886947.150 2  73244036.853 4      -399.667          34.000  
G26  21998899.733 9                     -4158.968          20.000                                                                  
G30  22957656.420 1 120643260.656 2      -254.427          38.000    22957635.375 1  94007665.052 2      -198.125          38.000  
> 2021 05 13 15 18 00.9920000  0  9                     
G07  22448357.402 2 117966899.980 7     -1871.232          28.000                                                                  
G21  21086302.557 1 110809261.637 2      2171.640          42.000                                                                  
G23  19395071.804 9                     -2134.732          22.000                                                                  
G10  18720339.874 4  98375992.768 7       217.215          28.000                                                                  
G16  20135422.532 1 105812365.155 2     -3648.817          43.000                                                                  
G08  19051581.846 1 100116725.241 3      1692.152          36.000    19051559.725 1  78012930.477 3      1318.225          37.000  
G27  17887069.980 2  93997168.551 4      -512.410          34.000    17887044.894 2  73244436.287 4      -399.406          35.000  
G26  21999693.199 9                     -4176.816          20.000                                                                  
G30  22957704.965 1 120643515.468 2      -255.013          38.000    22957683.876 1  94007863.608 3      -198.728          38.000  
> 2021 05 13 15 18 01.9920000  0  9                     
G07  22448713.732 2 117968771.843 7     -1872.488          29.000                                                                  
G21  21085889.345 1 110807090.530 1      2170.971          43.000                                                                  
G23  19395479.221 9                     -2141.996          25.000                                                                  
G10  18720298.641 4  98375775.876 7       216.978          28.000                                                                  
G16  20136116.942 1 105816014.324 2     -3649.329          43.000                                                                  
G08  19051259.934 1 100115033.638 3      1691.178          36.000    19051237.864 1  78011612.275 3      1317.963          37.000  
G27  17887167.874 2  93997681.824 4      -513.702          35.000    17887142.625 2  73244836.226 4      -400.056          35.000  
G26  22000483.541 9                     -4160.208          21.000                                                                  
G30  22957753.633 1 120643770.971 2      -255.543          39.000    22957732.519 1  94008062.705 2      -199.224          38.000  
> 2021 05 13 15 18 02.9920000  0  9                     
G07  22449069.896 2 117970644.313 7     -1872.401          29.000                                                                  
G21  21085476.236 1 110804919.701 1      2170.512          43.000                                                                  
G23  19395886.047 9                     -2151.233          23.000                                                                  
G10  18720256.416 8                       216.323          27.000                                                                  
G16  20136811.397 1 105819663.963 2     -3650.236          43.000                                                                  
G08  19050938.094 1 100113342.394 3      1690.277          37.000    19050916.041 1  78010294.444 3      1317.170          37.000  
G27  17887265.738 2  93998195.712 4      -514.145          34.000    17887240.331 2  73245236.660 3      -400.880          35.000  
G26  22001275.005 9                     -4163.673          21.000                                                                  
G30  22957802.543 1 120644027.168 2      -256.868          38.000    22957781.228 1  94008262.341 2      -200.356          38.000  
> 2021 05 13 15 18 03.9920000  0  9                     
G07  22449426.508 4 117972517.476 7     -1873.557          30.000                                                                  
G21  21085063.227 1 110802749.255 1      2169.974          43.000                                                                  
G23  19396295.350 9                     -2139.749          23.000                                                                  
G10  18720216.341 8                       214.371          27.000                                                                  
G16  20137505.885 1 105823314.109 2     -3650.639          43.000                                                                  
G08  19050616.242 1 100111651.643 3      1690.276          37.000    19050594.399 1  78008976.968 3      1317.133          37.000  
G27  17887363.751 2  93998710.233 4      -514.898          34.000    17887338.258 1  73245637.645 3      -401.952          35.000  
G26  22002067.145 9                     -4166.586          22.000                                                                  
G30  22957851.454 1 120644284.110 2      -257.304          38.000    22957830.149 1  94008462.552 2      -200.724          38.000  
> 2021 05 13 15 18 04.9920000  0  9                     
G07  22449783.012 4 117974391.476 8     -1874.827          28.000                                                                  
G21  21084650.283 1 110800579.426 1      2169.591          43.000                                                                  
G23  19396705.346 9                     -2145.373          25.000                                                                  
G10  18720174.212 8                       214.007          26.000                                                                  
G16  20138200.564 1 105826965.033 2     -3651.451          43.000                                                                  
G08  19050294.810 1 100109961.753 2      1689.500          38.000    19050272.666 1  78007660.161 3      1316.151          37.000  
G27  17887462.055 2  93999225.762 4      -516.368          34.000    17887436.336 1  73246039.302 3      -402.185          35.000  
G26  22002856.016 9                     -4156.207          22.000                                                                  
G30  22957900.939 1 120644542.058 2      -258.151          39.000    22957879.217 1  94008663.554 3      -201.440          38.000  
> 2021 05 13 15 18 05.9920000  0  9                     
G07  22450139.653 2 117976266.430 8     -1875.060          28.000                                                                  
G21  21084237.551 1 110798410.440 1      2168.339          43.000                                                                  
G23  19397114.571 9                     -2146.688          25.000                                                                  
G10  18720133.176 8  98374963.63037       211.979          27.000                                                                  
G16  20138895.527 1 105830616.917 2     -3652.325          43.000                                                                  
G08  19049973.536 1 100108272.759 3      1688.275          36.000    19049951.329 1  78006344.045 3      1315.657          37.000  
G27  17887560.664 2  93999742.413 3      -517.557          34.000    17887534.649 1  73246441.847 3      -402.862          35.000  
G26  22003649.540 9                     -4163.428          22.000                                                                  
G30  22957950.326 1 120644801.233 2      -260.031          39.000    22957928.542 1  94008865.498 2      -202.811          38.000  
> 2021 05 13 15 18 06.9920000  0  9                     
G07  22450496.849 2 117978142.752 8     -1876.894          29.000                                                                  
G21  21083824.911 1 110796242.355 1      2167.749          43.000                                                                  
G23  19397522.412 9                     -2147.578          24.000                                                                  
G10  18720088.379 8                       211.145          27.000                                                                  
G16  20139590.672 1 105834269.850 1     -3653.153          43.000                                                                  
G08  19049652.345 1 100106584.821 3      1687.029          36.000    19049630.119 1  78005028.800 2      1314.736          38.000  
G27  17887659.489 2  94000260.263 4      -518.393          35.000    17887633.175 1  73246845.399 4      -404.655          35.000  
G26  22004442.211 9                     -4163.501          22.000                                                                  
G30  22958000.106 1 120645061.660 2      -260.764          39.000    22957977.988 1  94009068.434 2      -203.346          38.000  
> 2021 05 13 15 18 07.9920000  0  9                     
G07  22450854.145 2 117980020.023 7     -1877.972          29.000                                                                  
G21  21083412.474 1 110794075.099 1      2166.814          43.000                                                                  
G23  19397931.038 9                     -2147.961          25.000                                                                  
G10  18720046.925 8                       208.915          26.000                                                                  
G16  20140285.995 1 105837923.792 1     -3654.499          43.000                                                                  
G08  19049331.497 1 100104897.925 3      1686.429          36.000    19049309.198 1  78003714.294 2      1314.105          38.000  
G27  17887758.306 2  94000779.246 4      -519.465          34.000    17887731.821 1  73247249.786 3      -405.039          34.000  
G26  22005233.291 9                     -4167.005          21.000                                                                  
G30  22958049.973 1 120645323.318 2      -262.261          39.000    22958027.715 1  94009272.320 2      -204.405          38.000  
> 2021 05 13 15 18 08.9920000  0  9                     
G07  22451211.688 2 117981898.398 7     -1878.595          29.000                                                                  
G21  21083000.106 1 110791908.648 1      2165.989          42.000                                                                  
G23  19398340.598 9                     -2152.476          23.000                                                                  
G10  18720007.788 8                       209.798          26.000                                                                  
G16  20140981.474 1 105841578.652 2     -3655.094          42.000                                                                  
G08  19049010.928 1 100103211.932 3      1685.463          36.000    19048988.334 1  78002400.547 2      1313.357          38.000  
G27  17887857.568 2  94001299.314 4      -520.511          34.000    17887830.702 2  73247655.042 4      -405.439          34.000  
G26  22006025.611 9                     -4171.435          19.000                                                                  
G30  22958100.097 1 120645586.151 2      -262.963          39.000    22958077.764 1  94009477.135 2      -205.319          38.000  
> 2021 05 13 15 18 09.9920000  0  9                     
G07  22451569.528 2 117983777.512 6     -1879.240          29.000                                                                  
G21  21082587.926 1 110789742.719 2      2165.844          42.000                                                                  
G23  19398749.394 9                     -2151.570          25.000                                                                  
G10  18719967.986 8                       208.609          25.000                                                                  
G16  20141677.133 1 105845234.177 1     -3655.637          43.000                                                                  
G08  19048690.423 1 100101526.566 3      1685.331          36.000    19048667.691 1  78001087.282 3      1313.448          38.000  
G27  17887956.970 2  94001820.221 4      -520.990          35.000    17887929.828 2  73248060.957 4      -406.088          34.000  
G26  22006818.036 9                     -4162.246          18.000                                                                  
G30  22958150.357 1 120645849.892 2      -263.798          39.000    22958127.906 1  94009682.634 2      -205.615          38.000  
> 2021 05 13 15 18 10.9920000  0  9                     
G07  22451927.318 2 117985656.892 5     -1879.564          31.000                                                                  
G21  21082175.747 1 110787576.734 2      2166.434          42.000                                                                  
G23  19399159.297 9                     -2151.755          26.000                                                                  
G10  18719928.821 9                       207.960          25.000                                                                  
G16  20142372.750 1 105848889.781 2     -3655.327          43.000                                                                  
G08  19048369.644 1 100099841.309 3      1684.817          36.000    19048347.093 1  77999774.086 3      1313.335          38.000  
G27  17888056.014 1  94002341.400 3      -521.339          35.000    17888028.893 2  73248467.032 4      -405.849          34.000  
G26  22007612.418 9                     -4166.209          17.000                                                                  
G30  22958200.674 1 120646113.944 2      -263.951          39.000    22958178.067 1  94009888.403 2      -206.136          38.000  
> 2021 05 13 15 18 11.9920000  0  9                     
G07  22452285.190 2 117987536.539 6     -1880.507          30.000                                                                  
G21  21081763.500 1 110785410.782 2      2166.017          42.000                                                                  
G23  19399568.552 9                     -2150.556          25.000                                                                  
G10  18719886.163 9                       205.986          25.000                                                                  
G16  20143068.338 1 105852545.615 2     -3655.998          43.000                                                                  
G08  19048048.927 1 100098156.194 3      1684.971          36.000    19048026.519 1  77998461.044 3      1312.961          38.000  
G27  17888155.265 1  94002862.922 3      -521.979          35.000    17888128.094 2  73248873.398 4      -407.018          34.000  
G26  22008405.399 9                     -4161.405          18.000                                                                  
G30  22958251.113 1 120646378.390 2      -264.539          39.000    22958228.354 1  94010094.455 2      -206.091          38.000  
> 2021 05 13 15 18 12.9920000  0  9                     
G07  22452643.109 2 117989416.409 6     -1880.245          31.000                                                                  
G21  21081351.256 1 110783244.866 1      2165.615          43.000                                                                  
G23  19399977.420 8                     -2152.450          25.000                                                                  
G10  18719844.453 9                       207.031          24.000                                                                  
G16  20143764.039 1 105856201.602 1     -3656.175          43.000                                                                  
G08  19047728.364 1 100096471.299 3      1685.199          36.000    19047705.931 1  77997148.148 2      1312.832          38.000  
G27  17888254.427 1  94003384.757 3      -522.144          35.000    17888227.297 2  73249280.032 4      -406.431          34.000  
G26  22009198.816 9                     -4150.073          18.000                                                                  
G30  22958301.631 1 120646643.315 2      -265.074          39.000    22958278.622 1  94010300.895 3      -206.964          38.000  
> 2021 05 13 15 18 13.9920000  0  9                     
G07  22453000.989 2 117991296.689 5     -1880.598          32.000                                                                  
G21  21080939.137 1 110781079.074 1      2165.771          43.000                                                                  
G23  19400384.353 9                     -2152.135          25.000                                                                  
G10  18719803.039 9                       205.093          23.000                                                                  
G16  20144459.779 1 105859857.820 1     -3656.158          42.000                                                                  
G08  19047407.783 1 100094786.668 3      1684.806          36.000    19047385.483 1  77995835.434 2      1312.964          38.000  
G27  17888353.681 1  94003906.994 4      -522.628          35.000    17888326.619 2  73249687.020 4      -407.699          34.000  
G26  22009989.041 9                     -4164.196          18.000                                                                  
G30  22958352.190 1 120646908.684 2      -265.702          39.000    22958329.081 1  94010507.674 3      -207.341          38.000  
> 2021 05 13 15 18 14.9920000  0  9                     
G07  22453359.094 2 117993177.364 4     -1880.643          32.000                                                                  
G21  21080526.987 1 110778913.451 1      2165.410          43.000                                                                  
G23  19400793.522 9                     -2153.578          25.000                                                                  
G10  18719762.964 9                       205.929          28.000                                                                  
G16  20145155.745 1 105863514.367 1     -3656.888          42.000                                                                  
G08  19047087.299 1 100093102.351 3      1684.137          35.000    19047065.019 1  77994522.955 2      1312.073          37.000  
G27  17888452.903 1  94004429.736 4      -523.188          35.000    17888426.072 2  73250094.329 4      -407.699          34.000  
G26  22010781.582 9                     -4161.330          17.000                                                                  
G30  22958402.973 1 120647174.603 2      -266.291          39.000    22958379.627 1  94010714.878 2      -207.482          38.000  
> 2021 05 13 15 18 15.9920000  0  9                     
G07  22453717.248 2 117995058.655 5     -1881.884          33.000                                                                  
G21  21080114.855 1 110776748.178 2      2164.748          43.000                                                                  
G23  19401203.910 8                     -2154.511          25.000                                                                  
G10  18719727.255 8                       205.484          27.000                                                                  
G16  20145851.731 1 105867171.444 1     -3657.514          43.000                                                                  
G08  19046766.861 1 100091418.541 4      1683.108          35.000    19046744.676 1  77993210.843 2      1312.212          37.000  
G27  17888552.296 1  94004953.166 4      -524.256          35.000    17888525.562 1  73250502.177 4      -408.076          34.000  
G26  22011570.485 9                     -4157.115          18.000                                                                  
G30  22958453.763 1 120647441.247 2      -267.508          39.000    22958430.263 1  94010922.664 3      -208.090          38.000  
> 2021 05 13 15 18 16.9920000  0  8                     
G07  22454075.770 2 117996940.781 4     -1883.008          33.000                                                                  
G21  21079702.819 1 110774583.502 1      2164.458          43.000                                                                  
G23  19401609.629 9                     -2157.299          24.000                                                                  
G16  20146547.748 1 105870829.180 1     -3657.992          43.000                                                                  
G08  19046446.577 1 100089735.347 3      1683.032          36.000    19046424.462 1  77991899.320 3      1311.351          37.000  
G27  17888651.866 1  94005477.375 4      -525.296          34.000    17888625.388 2  73250910.684 4      -408.602          33.000  
G26  22012359.665 9                     -4178.349          18.000                                                                  
G30  22958504.756 1 120647708.831 2      -267.964          39.000    22958481.185 1  94011131.158 2      -208.773          38.000  
> 2021 05 13 15 18 17.9920000  0  9                     
G07  22454434.430 2 117998823.767 4     -1884.122          34.000                                                                  
G21  21079291.083 1 110772419.376 1      2163.688          43.000                                                                  
G23  19402017.595 9                     -2154.338          23.000                                                                  
G10  18719648.691 9                       203.014          26.000                                                                  
G16  20147243.902 1 105874487.655 1     -3658.989          43.000                                                                  
G08  19046126.656 1 100088052.975 3      1681.860          38.000    19046104.180 1  77990588.318 3      1310.959          36.000  
G27  17888751.641 2  94006002.580 5      -525.753          33.000    17888725.263 2  73251319.934 5      -409.786          31.000  
G26  22013151.202 9                     -4174.279          16.000                                                                  
G30  22958555.921 1 120647977.411 2      -269.257          39.000    22958532.397 1  94011340.437 3      -209.686          38.000  
> 2021 05 13 15 18 18.9920000  0  9                     
G07  22454793.280 2 118000707.434 5     -1884.613          32.000                                                                  
G21  21078879.351 1 110770255.790 1      2163.133          43.000                                                                  
G23  19402427.623 9                     -2147.576          20.000                                                                  
G10  18719611.400 8  98372221.84937       200.750          26.000                                                                  
G16  20147940.208 1 105878146.804 1     -3659.663          44.000                                                                  
G08  19045806.868 1 100086371.260 3      1681.536          38.000    19045784.126 1  77989277.919 3      1309.829          36.000  
G27  17888851.959 9                      -518.458          27.000    17888825.533 2  73251729.779 5      -410.737          31.000  
G26  22013945.555 9                     -4173.128          15.000                                                                  
G30  22958607.249 1 120648246.910 2      -270.249          39.000    22958583.693 1  94011550.445 3      -210.647          38.000  
> 2021 05 13 15 18 19.9920000  0  9                     
G07  22455152.208 2 118002592.077 5     -1884.759          32.000                                                                  
G21  21078467.727 1 110768092.839 1      2162.610          44.000                                                                  
G23  19402838.410 9                     -2149.398          18.000                                                                  
G10  18719575.902 8                       200.149          26.000                                                                  
G16  20148636.690 1 105881806.801 1     -3660.423          42.000                                                                  
G08  19045487.038 1 100084690.273 2      1680.504          40.000    19045464.161 2  77987968.120 4      1309.037          35.000  
G27  17888954.565 8  94007089.91136      -527.385          32.000    17888925.790 2  73252140.365 4      -410.673          32.000  
G26  22014737.232 9                     -4171.821          16.000                                                                  
G30  22958658.902 1 120648517.388 2      -270.882          39.000    22958635.164 1  94011761.223 2      -211.269          38.000  
> 2021 05 13 15 18 20.9920000  0  9                     
G07  22455511.003 2 118004477.567 4     -1885.826          34.000                                                                  
G21  21078056.148 1 110765930.469 1      2162.244          43.000                                                                  
G23  19403250.561 9                     -2169.493          17.000                                                                  
G10  18719540.421 8                       199.947          26.000                                                                  
G16  20149333.330 1 105885467.407 2     -3660.931          43.000                                                                  
G08  19045167.332 1 100083010.035 2      1679.989          40.000    19045144.446 1  77986658.832 3      1308.964          36.000  
G27  17889053.108 8  94007617.78825      -528.672          32.000    17889026.440 2  73252551.696 4      -411.687          34.000  
G26  22015530.844 9                     -4161.776          16.000                                                                  
G30  22958710.620 1 120648788.841 2      -272.156          40.000    22958686.909 1  94011972.706 3      -211.882          38.000  
> 2021 05 13 15 18 21.9920000  0  8                     
G07  22455869.949 2 118006363.746 5     -1887.552          33.000                                                                  
G21  21077644.760 1 110763768.535 1      2161.686          44.000                                                                  
G23  19403661.089 9                     -2160.400          18.000                                                                  
G16  20150030.107 1 105889128.628 1     -3661.433          43.000                                                                  
G08  19044847.727 1 100081330.382 3      1679.407          38.000    19044824.755 1  77985349.993 3      1308.384          37.000  
G27  17889154.532 4  94008146.40924      -528.834          33.000    17889127.188 2  73252963.543 5      -411.850          34.000  
G26  22016321.967 9                     -4169.322          19.000                                                                  
G30  22958762.400 1 120649061.027 2      -272.585          40.000    22958738.764 1  94012184.830 2      -212.605          38.000  
> 2021 05 13 15 18 22.9920000  0  9                     
G07  22456228.848 2 118008250.313 5     -1886.277          33.000                                                                  
G21  21077233.314 1 110761606.867 1      2161.818          44.000                                                                  
G23  19404073.850 9                     -2166.224          19.000                                                                  
G10  18719470.623 8  98371481.99437       198.082          27.000                                                                  
G16  20150726.795 1 105892790.290 1     -3661.756          43.000                                                                  
G08  19044528.195 1 100079651.126 2      1678.972          38.000    19044505.104 1  77984041.463 3      1308.728          37.000  
G27  17889256.399 4  94008675.57124      -529.075          34.000    17889227.916 2  73253375.904 4      -412.823          34.000  
G26  22017114.435 9                     -4168.387          18.000                                                                  
G30  22958814.393 1 120649333.940 2      -273.122          40.000    22958790.677 1  94012397.495 2      -212.850          38.000  
> 2021 05 13 15 18 23.9920000  0 10                     
G07  22456587.832 2 118010137.472 6     -1888.347          31.000                                                                  
G21  21076822.019 1 110759445.377 1      2161.327          44.000                                                                  
G23  19404485.516 9                     -2154.948          19.000                                                                  
G10  18719438.695 8  98371283.97327       198.166          28.000                                                                  
G16  20151423.766 1 105896452.239 1     -3662.476          43.000                                                                  
G08  19044208.788 1 100077972.144 3      1679.270          38.000    19044185.646 1  77982733.196 3      1308.137          37.000  
G15  22239949.287 9                     -1729.250          21.000                                                                  
G27  17889357.010 4  94009205.14924      -529.296          34.000    17889328.708 2  73253788.551 4      -412.712          35.000  
G26  22017905.710 9                     -4162.496          17.000                                                                  
G30  22958866.432 1 120649607.369 2      -273.901          40.000    22958842.762 1  94012610.560 2      -213.725          38.000  
> 2021 05 13 15 18 24.9920000  0  9                     
G07  22456947.026 2 118012024.868 5     -1887.141          32.000                                                                  
G21  21076410.810 1 110757284.013 1      2161.286          44.000                                                                  
G23  19404898.233 9                     -2163.742          19.000                                                                  
G10  18719395.953 9  98371086.24217       197.410          28.000                                                                  
G16  20152120.702 1 105900114.477 1     -3662.466          42.000                                                                  
G08  19043889.446 1 100076293.488 2      1678.264          38.000    19043866.253 1  77981425.141 2      1307.952          37.000  
G27  17889458.432 4  94009734.69914      -529.708          35.000    17889429.632 2  73254201.610 3      -413.482          35.000  
G26  22018698.922 9                     -4169.230          19.000                                                                  
G30  22958918.623 1 120649881.339 2      -274.401          40.000    22958894.828 1  94012823.990 2      -213.220          38.000  
> 2021 05 13 15 18 25.9920000  0  9                     
G07  22457306.271 2 118013912.812 5     -1887.657          31.000                                                                  
G21  21075999.596 1 110755122.882 1      2160.840          44.000                                                                  
G23  19405311.279 9                     -2168.055          18.000                                                                  
G10  18719356.018 8                       196.586          29.000                                                                  
G16  20152817.627 1 105903777.087 1     -3663.125          42.000                                                                  
G08  19043570.125 1 100074615.214 2      1677.673          38.000    19043546.892 1  77980117.352 3      1307.454          38.000  
G27  17889559.165 4  94010265.340 4      -530.980          35.000    17889530.477 2  73254615.025 3      -413.266          35.000  
G26  22019492.816 9                     -4177.893          19.000                                                                  
G30  22958970.913 1 120650155.897 2      -274.985          40.000    22958947.226 1  94013037.991 3      -214.557          38.000  
> 2021 05 13 15 18 26.9920000  0  9                     
G07  22457665.702 4                     -1889.057          29.000                                                                  
G21  21075588.356 1 110752962.006 1      2160.821          44.000                                                                  
G23  19405724.755 9                     -2163.278          19.000                                                                  
G10  18719321.835 8                       194.898          26.000                                                                  
G16  20153514.656 1 105907440.094 2     -3662.861          42.000                                                                  
G08  19043250.863 1 100072937.330 3      1677.537          37.000    19043227.562 1  77978809.934 2      1307.031          38.000  
G27  17889659.903 2  94010796.469 3      -530.939          37.000    17889631.549 2  73255028.930 4      -413.875          35.000  
G26  22020285.164 9                     -4168.164          20.000                                                                  
G30  22959023.267 1 120650431.091 2      -275.195          41.000    22958999.582 1  94013252.416 2      -214.488          38.000  
> 2021 05 13 15 18 27.9920000  0  8                     
G07  22458024.966 2 118017690.103 8     -1889.254          29.000                                                                  
G21  21075177.220 1 110750801.308 1      2160.349          44.000                                                                  
G23  19406137.751 9                     -2170.302          19.000                                                                  
G16  20154211.800 1 105911103.395 2     -3663.833          42.000                                                                  
G08  19042931.660 1 100071259.704 3      1676.852          37.000    19042908.360 1  77977502.715 3      1306.649          38.000  
G27  17889760.720 1  94011328.094 3      -531.810          37.000    17889732.650 2  73255443.186 4      -415.192          34.000  
G26  22021077.964 9                     -4156.675          19.000                                                                  
G30  22959075.806 1 120650706.832 2      -276.266          41.000    22959052.023 1  94013467.259 3      -214.955          38.000  
> 2021 05 13 15 18 28.9920000  0  8                     
G07  22458384.461 2 118019579.491 6     -1888.800          29.000                                                                  
G21  21074766.012 1 110748640.823 1      2160.422          43.000                                                                  
G23  19406549.563 9                     -2165.306          19.000                                                                  
G16  20154909.063 1 105914767.076 1     -3663.605          42.000                                                                  
G08  19042612.489 1 100069582.446 3      1677.019          39.000    19042589.301 1  77976195.734 3      1307.224          37.000  
G27  17889861.504 1  94011860.248 4      -532.559          35.000    17889833.952 2  73255857.808 4      -414.233          33.000  
G26  22021870.854 9                     -4189.941          17.000                                                                  
G30  22959128.471 1 120650983.168 2      -276.261          40.000    22959104.591 1  94013682.594 2      -215.364          38.000  
> 2021 05 13 15 18 29.9920000  0  8                     
G07  22458743.900 2 118021469.026 6     -1890.876          29.000                                                                  
G21  21074354.847 1 110746480.368 1      2160.313          44.000                                                                  
G23  19406961.185 9                     -2163.896          21.000                                                                  
G16  20155606.263 1 105918430.889 2     -3663.847          42.000                                                                  
G08  19042293.382 1 100067905.436 3      1676.685          38.000    19042270.083 1  77974888.951 3      1306.779          37.000  
G27  17889962.428 2  94012392.704 4      -532.664          34.000    17889935.233 2  73256272.792 4      -415.989          34.000  
G26  22022665.195 9                     -4178.598          16.000                                                                  
G30  22959181.169 1 120651259.894 2      -277.107          41.000    22959157.197 1  94013898.230 3      -215.757          38.000  
> 2021 05 13 15 18 30.9920000  0  8                     
G07  22459103.353 2 118023359.119 7     -1890.322          30.000                                                                  
G21  21073943.786 1 110744320.152 1      2160.242          44.000                                                                  
G23  19407371.560 9                     -2152.794          20.000                                                                  
G16  20156303.638 1 105922095.130 1     -3664.399          42.000                                                                  
G08  19041974.481 1 100066228.725 2      1676.382          38.000    19041950.945 1  77973582.437 3      1306.489          37.000  
G27  17890063.553 2  94012925.661 4      -533.079          33.000    17890036.668 1  73256688.116 4      -415.813          34.000  
G26  22023458.644 9                     -4169.917          15.000                                                                  
G30  22959234.014 1 120651537.257 2      -277.614          41.000    22959209.930 1  94014114.331 3      -215.755          38.000  
> 2021 05 13 15 18 31.9920000  0  9                     
G07  22459463.182 4                     -1890.306          29.000                                                                  
G21  21073532.569 1 110742160.006 1      2159.990          43.000                                                                  
G23  19407785.023 9                     -2159.147          21.000                                                                  
G16  20157000.929 1 105925759.531 1     -3664.521          42.000                                                                  
G08  19041655.475 1 100064552.276 3      1675.841          37.000    19041631.917 1  77972276.141 3      1306.017          36.000  
G15  22242577.742 9                     -1735.056          24.000                                                                  
G27  17890164.757 1  94013459.101 4      -533.640          36.000    17890138.208 2  73257103.749 4      -416.314          34.000  
G26  22024249.061 9                     -4165.479          18.000                                                                  
G30  22959286.835 1 120651815.051 2      -278.069          41.000    22959262.845 1  94014330.820 2      -216.783          39.000  
> 2021 05 13 15 18 32.9920000  0  9                     
G07  22459822.844 2                     -1891.548          27.000                                                                  
G21  21073121.519 1 110739999.965 1      2160.034          44.000                                                                  
G23  19408197.699 9                     -2178.455          21.000                                                                  
G16  20157698.269 1 105929424.202 1     -3665.014          42.000                                                                  
G08  19041336.494 1 100062876.066 2      1675.983          39.000    19041312.891 1  77970969.973 3      1306.051          37.000  
G15  22242906.870 9                     -1737.721          24.000                                                                  
G27  17890266.072 2  94013992.961 5      -534.892          31.000    17890239.719 2  73257519.693 4      -415.755          34.000  
G26  22025040.808 9                     -4155.898          17.000                                                                  
G30  22959339.767 1 120652093.349 2      -278.751          41.000    22959315.814 1  94014547.675 2      -216.953          38.000  
> 2021 05 13 15 18 33.9920000  0  9                     
G07  22460182.185 2 118029031.443 7     -1891.142          28.000                                                                  
G21  21072710.534 1 110737840.165 1      2159.379          44.000                                                                  
G23  19408613.014 9                     -2160.294          21.000                                                                  
G16  20158395.555 1 105933089.204 1     -3665.425          42.000                                                                  
G08  19041017.684 1 100061200.189 3      1674.991          37.000    19040993.892 1  77969664.138 3      1305.142          36.000  
G15  22243235.783 9                     -1737.481          24.000                                                                  
G27  17890367.470 2  94014527.286 5      -534.744          32.000    17890341.389 2  73257936.088 5      -417.330          34.000  
G26  22025832.664 9                     -4174.271          18.000                                                                  
G30  22959392.986 1 120652372.225 2      -279.839          41.000    22959368.909 1  94014764.977 2      -217.889          39.000  
> 2021 05 13 15 18 34.9920000  0  9                     
G07  22460542.185 2 118030923.688 8     -1893.373          27.000                                                                  
G21  21072299.584 1 110735680.896 1      2158.861          43.000                                                                  
G23  19409028.046 9                     -2167.768          21.000                                                                  
G16  20159093.158 1 105936754.916 1     -3665.925          42.000                                                                  
G08  19040698.857 1 100059525.002 2      1674.714          39.000    19040675.019 1  77968358.815 3      1304.773          36.000  
G15  22243564.590 9                     -1737.885          24.000                                                                  
G27  17890469.148 2  94015062.376 5      -534.927          33.000    17890443.253 2  73258353.095 4      -417.533          33.000  
G26  22026625.391 9                     -4185.560          17.000                                                                  
G30  22959446.301 1 120652652.021 2      -280.380          42.000    22959422.242 1  94014982.991 2      -218.281          39.000  
> 2021 05 13 15 18 35.9920000  0  9                     
G07  22460902.617 9                     -1893.876          24.000                                                                  
G21  21071888.839 1 110733522.199 1      2158.342          43.000                                                                  
G23  19409444.149 9                     -2161.464          20.000                                                                  
G16  20159790.815 1 105940421.343 1     -3666.714          42.000                                                                  
G08  19040380.209 1 100057850.574 2      1674.436          39.000    19040356.399 1  77967054.022 3      1304.340          37.000  
G15  22243894.751 9                     -1738.824          24.000                                                                  
G27  17890570.797 2                      -536.114          29.000    17890545.274 2  73258770.810 4      -418.087          33.000  
G26  22027416.683 9                     -4174.476          19.000                                                                  
G30  22959499.803 1 120652932.766 2      -281.015          42.000    22959475.614 1  94015201.770 2      -219.208          39.000  
> 2021 05 13 15 18 36.9920000  0 10                     
G07  22461261.282 9                     -1893.240          25.000                                                                  
G21  21071478.084 1 110731363.949 1      2157.944          43.000                                                                  
G23  19409861.437 9                     -2170.314          22.000                                                                  
G10  18718955.820 9                       196.577          24.000                                                                  
G16  20160488.626 1 105944088.353 1     -3667.167          42.000                                                                  
G08  19040061.712 1 100056176.727 3      1673.429          39.000    19040037.770 1  77965749.718 3      1304.138          37.000  
G15  22244227.697 9                     -1739.288          24.000                                                                  
G27  17890672.988 2  94016120.71235      -537.508          34.000    17890647.364 2  73259189.110 4      -418.301          33.000  
G26  22028207.428 9                     -4167.578          18.000                                                                  
G30  22959553.412 1 120653214.358 2      -281.864          41.000    22959529.243 1  94015421.175 2      -219.344          39.000  
> 2021 05 13 15 18 37.9920000  0  9                     
G07  22461620.613 8 118036612.60837     -1894.815          27.000                                                                  
G21  21071067.422 1 110729205.944 1      2157.731          44.000                                                                  
G23  19410276.424 9                     -2169.345          23.000                                                                  
G16  20161186.539 1 105947755.778 2     -3667.946          42.000                                                                  
G08  19039743.302 1 100054503.272 2      1673.096          38.000    19039719.305 1  77964445.731 3      1303.550          37.000  
G15  22244560.511 9                     -1741.827          24.000                                                                  
G27  17890775.468 2  94016658.14025      -538.331          33.000    17890749.590 2  73259607.830 4      -418.936          34.000  
G26  22028998.994 9                     -4168.233          19.000                                                                  
G30  22959607.111 1 120653496.563 2      -282.683          41.000    22959582.922 1  94015641.099 2      -220.360          38.000  
> 2021 05 13 15 18 38.9920000  0  9                     
G07  22461981.469 9                     -1893.408          26.000                                                                  
G21  21070656.920 1 110727048.282 1      2157.413          44.000                                                                  
G23  19410688.345 9                     -2169.821          24.000                                                                  
G16  20161884.596 1 105951423.653 1     -3667.924          42.000                                                                  
G08  19039425.070 1 100052830.314 3      1672.509          38.000    19039400.972 1  77963142.097 3      1303.943          37.000  
G15  22244891.483 9                     -1742.405          23.000                                                                  
G27  17890877.449 2  94017196.19424      -538.102          34.000    17890852.023 2  73260027.114 4      -419.675          35.000  
G26  22029789.166 9                     -4168.697          19.000                                                                  
G30  22959661.012 1 120653779.461 2      -283.250          41.000    22959636.635 1  94015861.533 2      -220.693          39.000  
> 2021 05 13 15 18 39.9920000  0  9                     
G07  22462340.415 8                     -1896.942          26.000                                                                  
G21  21070246.445 1 110724891.034 1      2156.925          44.000                                                                  
G23  19411102.901 9                     -2167.402          24.000                                                                  
G16  20162582.639 1 105955092.083 2     -3668.705          42.000                                                                  
G08  19039106.937 1 100051157.883 2      1672.061          38.000    19039082.639 1  77961838.948 3      1302.523          37.000  
G15  22245223.996 9                     -1741.407          23.000                                                                  
G27  17890980.235 2  94017734.96624      -538.902          34.000    17890954.449 2  73260446.908 4      -420.469          35.000  
G26  22030583.171 9                     -4173.421          19.000                                                                  
G30  22959715.084 1 120654063.194 2      -284.470          41.000    22959690.613 1  94016082.623 2      -221.489          39.000  
> 2021 05 13 15 18 40.9920000  0  8                     
G07  22462700.454 9                     -1889.346          25.000                                                                  
G21  21069836.045 1 110722734.155 1      2156.394          45.000                                                                  
G23  19411518.122 9                     -2166.776          22.000                                                                  
G16  20163280.727 1 105958761.018 1     -3669.609          42.000                                                                  
G08  19038788.770 1 100049485.968 2      1671.511          40.000    19038764.439 1  77960536.156 3      1302.225          37.000  
G27  17891082.833 2  94018274.34324      -539.650          35.000    17891057.171 1  73260867.206 4      -420.633          35.000  
G26  22031377.237 9                     -4171.969          18.000                                                                  
G30  22959769.185 1 120654347.604 2      -284.953          41.000    22959744.746 1  94016304.259 2      -222.179          39.000  
> 2021 05 13 15 18 41.9920000  0  7                     
G21  21069425.791 1 110720577.714 1      2156.072          45.000                                                                  
G23  19411932.950 9                     -2164.248          22.000                                                                  
G16  20163978.968 1 105962430.553 1     -3669.987          42.000                                                                  
G08  19038470.727 1 100047814.650 2      1670.880          39.000    19038446.380 1  77959233.852 3      1301.891          37.000  
G27  17891185.763 2  94018814.59723      -540.450          35.000    17891159.915 2  73261288.142 4      -421.639          35.000  
G26  22032170.773 9                     -4171.969          16.000                                                                  
G30  22959823.558 1 120654632.922 2      -286.289          41.000    22959799.041 1  94016526.565 2      -222.868          39.000  
> 2021 05 13 15 18 42.9920000  0  7                     
G21  21069015.547 1 110718421.589 1      2155.745          45.000                                                                  
G23  19412348.863 9                     -2176.602          22.000                                                                  
G16  20164677.315 1 105966100.511 1     -3670.290          43.000                                                                  
G08  19038152.789 1 100046143.778 2      1670.776          38.000    19038128.340 1  77957931.850 3      1301.708          37.000  
G27  17891288.518 2  94019354.90114      -540.866          34.000    17891262.738 1  73261709.488 4      -421.236          35.000  
G26  22032961.829 9                     -4171.433          16.000                                                                  
G30  22959878.063 1 120654918.846 2      -286.386          41.000    22959853.548 1  94016749.365 2      -223.183          39.000  
> 2021 05 13 15 18 43.9920000  0  8                     
G07  22463789.795 9                     -1897.418          23.000                                                                  
G21  21068605.284 1 110716265.602 1      2155.896          45.000                                                                  
G23  19412760.020 9                     -2176.961          22.000                                                                  
G16  20165375.693 1 105969770.759 1     -3670.398          43.000                                                                  
G08  19037834.900 1 100044473.214 3      1670.464          38.000    19037810.387 1  77956630.113 3      1301.582          37.000  
G27  17891391.496 2  94019896.093 4      -541.613          34.000    17891365.699 2  73262131.245 4      -422.236          34.000  
G26  22033753.262 9                     -4167.437          17.000                                                                  
G30  22959932.605 1 120655205.309 2      -286.858          41.000    22959908.058 1  94016972.597 2      -223.515          39.000  
> 2021 05 13 15 18 44.9920000  0  9                     
G07  22464151.655 9                     -1887.121          21.000                                                                  
G21  21068195.024 1 110714109.709 1      2155.803          44.000                                                                  
G23  19413171.274 9                     -2173.280          25.000                                                                  
G10  18718686.966 9                       181.734          27.000                                                                  
G16  20166074.168 1 105973441.211 2     -3670.500          43.000                                                                  
G08  19037517.066 1 100042802.816 3      1670.861          38.000    19037492.545 1  77955328.518 3      1302.059          37.000  
G27  17891494.437 1  94020437.723 4      -541.861          35.000    17891468.761 2  73262553.260 4      -421.996          34.000  
G26  22034545.500 9                     -4167.437          15.000                                                                  
G30  22959987.312 1 120655492.223 2      -286.950          42.000    22959962.677 1  94017196.173 2      -223.434          39.000  
> 2021 05 13 15 18 45.9920000  0  8                     
G07  22464514.552 9                     -1902.458          20.000                                                                  
G21  21067784.832 1 110711953.830 1      2155.876          45.000                                                                  
G23  19413585.459 9                     -2173.578          26.000                                                                  
G16  20166772.742 1 105977111.851 1     -3670.704          43.000                                                                  
G08  19037199.306 1 100041132.658 2      1670.116          38.000    19037174.789 1  77954027.115 3      1301.036          37.000  
G27  17891597.303 1  94020979.639 3      -541.968          35.000    17891571.911 2  73262975.565 5      -422.939          34.000  
G26  22035338.617 9                     -4172.813          13.000                                                                  
G30  22960042.069 1 120655779.563 2      -287.629          42.000    22960017.262 1  94017420.082 2      -224.123          39.000  
> 2021 05 13 15 18 46.9920000  0  8                     
G21  21067374.543 1 110709798.016 1      2155.798          45.000                                                                  
G23  19413998.968 9                     -2175.112          25.000                                                                  
G10  18718609.774 9                       184.908          28.000                                                                  
G16  20167471.287 1 105980782.693 1     -3670.896          42.000                                                                  
G08  19036881.706 1 100039462.696 3      1669.537          38.000    19036857.116 1  77952725.810 3      1301.324          37.000  
G27  17891700.194 1  94021521.970 4      -543.071          34.000    17891675.159 1  73263398.115 4      -422.752          34.000  
G26  22036133.919 9                     -4174.663          14.000                                                                  
G30  22960096.856 1 120656067.315 2      -287.923          42.000    22960072.021 1  94017644.301 2      -224.111          39.000  
> 2021 05 13 15 18 47.9920000  0  8                     
G21  21066964.385 1 110707642.223 1      2155.762          45.000                                                                  
G23  19414409.621 9                     -2174.396          24.000                                                                  
G10  18718569.519 9  98366746.12937       182.241          28.000                                                                  
G16  20168169.897 1 105984453.677 1     -3671.354          43.000                                                                  
G08  19036563.867 1 100037792.849 3      1669.679          38.000    19036539.332 1  77951424.633 3      1301.284          38.000  
G27  17891803.095 1  94022064.528 4      -543.396          34.000    17891778.455 2  73263820.967 4      -423.287          35.000  
G26  22036926.776 9                     -4170.510          14.000                                                                  
G30  22960151.651 1 120656355.478 2      -288.248          41.000    22960126.880 1  94017868.865 2      -224.998          39.000  
> 2021 05 13 15 18 48.9920000  0  8                     
G21  21066554.098 1 110705486.569 1      2155.486          45.000                                                                  
G23  19414824.087 9                     -2174.944          24.000                                                                  
G10  18718532.833 9  98366564.61226       181.423          28.000                                                                  
G16  20168868.470 1 105988124.949 2     -3671.342          43.000                                                                  
G08  19036246.271 1 100036123.311 2      1669.423          39.000    19036221.676 1  77950123.730 3      1300.336          38.000  
G27  17891906.237 2  94022607.614 5      -543.665          33.000    17891881.720 1  73264244.134 3      -423.059          35.000  
G26  22037720.138 9                     -4166.006          15.000                                                                  
G30  22960206.631 1 120656644.157 2      -289.021          41.000    22960181.740 1  94018093.822 3      -225.500          39.000  
> 2021 05 13 15 18 49.9920000  0  8                     
G21  21066144.011 1 110703331.268 1      2155.084          45.000                                                                  
G23  19415236.786 9                     -2176.762          24.000                                                                  
G10  18718502.937 9  98366383.87526       180.287          28.000                                                                  
G16  20169567.126 1 105991796.695 1     -3671.965          42.000                                                                  
G08  19035928.765 1 100034454.283 2      1668.496          37.000    19035904.105 1  77948823.151 3      1300.465          38.000  
G27  17892009.387 1  94023151.361 4      -544.024          33.000    17891985.203 1  73264667.805 4      -423.900          36.000  
G26  22038511.801 9                     -4160.783          15.000                                                                  
G30  22960261.632 1 120656933.581 2      -289.833          41.000    22960236.790 1  94018319.326 2      -226.176          38.000  
> 2021 05 13 15 18 50.9920000  0  9                     
G07  22466302.045 9                     -1896.905          21.000                                                                  
G21  21065733.976 1 110701176.254 1      2154.820          46.000                                                                  
G23  19415648.545 9                     -2183.620          22.000                                                                  
G10  18718472.346 9  98366203.79427       179.532          28.000                                                                  
G16  20170265.965 1 105995468.895 2     -3672.572          43.000                                                                  
G08  19035611.210 1 100032785.632 3      1668.557          37.000    19035586.635 1  77947522.937 2      1299.963          38.000  
G27  17892112.815 2  94023695.598 5      -544.087          32.000    17892088.741 1  73265091.967 3      -424.392          36.000  
G26  22039304.947 9                     -4168.793          16.000                                                                  
G30  22960316.914 1 120657223.655 2      -290.497          40.000    22960291.919 1  94018545.350 3      -226.222          38.000  
> 2021 05 13 15 18 51.9920000  0  9                     
G07  22466671.792 9                     -1896.905          22.000                                                                  
G21  21065324.004 1 110699021.489 1      2154.602          46.000                                                                  
G23  19416061.774 9                     -2183.640          21.000                                                                  
G10  18718437.785 8  98366024.38527       179.458          29.000                                                                  
G16  20170964.856 1 105999141.482 1     -3672.849          43.000                                                                  
G08  19035293.830 1 100031117.443 2      1667.754          39.000    19035269.287 1  77946223.021 3      1299.756          37.000  
G27  17892216.277 2  94024240.528 5      -545.436          33.000    17892192.446 2  73265516.576 4      -424.941          36.000  
G26  22040100.077 9                     -4175.916          18.000                                                                  
G30  22960372.156 1 120657514.353 2      -291.304          40.000    22960347.299 1  94018771.885 3      -227.032          38.000  
> 2021 05 13 15 18 52.9920000  0  8                     
G07  22467028.371 9                     -1896.905          22.000                                                                  
G21  21064914.018 1 110696867.117 1      2154.205          45.000                                                                  
G23  19416479.447 9                     -2202.421          20.000                                                                  
G16  20171663.884 1 106002814.573 1     -3673.377          43.000                                                                  
G08  19034976.493 1 100029449.728 2      1667.650          39.000    19034951.971 1  77944923.505 3      1298.888          38.000  
G27  17892319.921 1  94024786.118 4      -545.852          34.000    17892296.317 1  73265941.666 3      -425.474          36.000  
G26  22040895.216 9                     -4182.915          16.000                                                                  
G30  22960427.522 1 120657805.803 2      -291.596          41.000    22960402.830 1  94018998.977 2      -227.238          38.000  
> 2021 05 13 15 18 53.9920000  0  8                     
G07  22467390.963 9                     -1896.905          20.000                                                                  
G21  21064504.030 1 110694712.935 1      2154.033          45.000                                                                  
G23  19416894.031 9                     -2177.821          23.000                                                                  
G16  20172362.917 1 106006487.988 2     -3673.493          42.000                                                                  
G08  19034659.240 1 100027782.355 2      1667.085          39.000    19034634.651 1  77943624.243 2      1299.205          37.000  
G27  17892423.526 2  94025332.134 5      -546.780          32.000    17892400.201 1  73266367.184 3      -426.082          36.000  
G26  22041691.633 9                     -4183.488          15.000                                                                  
G30  22960483.161 1 120658097.838 2      -292.480          41.000    22960458.322 1  94019226.515 3      -227.635          38.000  
> 2021 05 13 15 18 54.9920000  0  8                     
G07  22467749.659 9                     -1896.905          21.000                                                                  
G21  21064094.188 1 110692559.183 1      2153.355          45.000                                                                  
G23  19417306.970 9                     -2180.616          24.000                                                                  
G16  20173062.084 1 106010161.995 2     -3674.528          42.000                                                                  
G08  19034342.150 1 100026115.572 3      1666.969          38.000    19034317.509 1  77942325.460 3      1298.503          37.000  
G27  17892527.392 2  94025878.914 5      -547.098          33.000    17892504.218 1  73266793.254 4      -427.073          35.000  
G26  22042486.105 9                     -4170.625          13.000                                                                  
G30  22960538.861 1 120658390.692 2      -293.734          41.000    22960514.013 1  94019454.728 3      -228.818          38.000  
> 2021 05 13 15 18 55.9920000  0  8                     
G21  21063684.525 1 110690405.875 1      2152.989          45.000                                                                  
G23  19417721.615 9                     -2179.072          24.000                                                                  
G16  20173761.348 1 106013836.575 2     -3675.137          42.000                                                                  
G08  19034024.997 1 100024449.336 3      1665.730          37.000    19034000.589 1  77941027.138 3      1297.831          38.000  
G27  17892631.401 2  94026426.495 5      -547.930          33.000    17892608.384 1  73267219.934 3      -427.278          35.000  
G26  22043282.859 9                     -4167.405          13.000                                                                  
G30  22960594.684 1 120658684.354 2      -294.364          41.000    22960569.813 1  94019683.535 3      -229.384          38.000  
G10                                                                  18718270.283 9                       138.128          24.000  
> 2021 05 13 15 18 56.9920000  0  9                     
G07  22468470.244 9                     -1904.548          24.000                                                                  
G21  21063274.704 1 110688252.986 1      2152.765          45.000                                                                  
G23  19418136.422 9                     -2185.267          23.000                                                                  
G16  20174460.716 1 106017511.724 2     -3674.996          42.000                                                                  
G08  19033707.953 1 100022783.745 2      1665.287          39.000    19033683.665 1  77939729.230 3      1297.367          37.000  
G27  17892735.584 2  94026974.771 5      -549.134          33.000    17892712.666 2  73267647.131 4      -427.490          34.000  
G26  22044079.080 9                     -4168.918          13.000                                                                  
G30  22960650.544 1 120658978.764 2      -294.711          41.000    22960625.736 1  94019912.946 2      -229.396          38.000  
G10                                                                  18718236.424 9                       137.659          25.000  
> 2021 05 13 15 18 57.9920000  0  7                     
G21  21062865.105 1 110686100.395 1      2152.441          45.000                                                                  
G23  19418548.676 9                     -2184.671          22.000                                                                  
G16  20175160.267 1 106021187.263 2     -3675.525          42.000                                                                  
G08  19033391.291 1 100021118.589 3      1664.802          35.000    19033366.808 1  77938431.679 3      1297.386          37.000  
G27  17892839.852 2  94027523.710 5      -549.554          29.000    17892817.126 2  73268074.878 4      -428.423          34.000  
G26  22044875.222 9                     -4186.266          16.000                                                                  
G30  22960706.647 1 120659273.911 2      -295.466          41.000    22960681.870 1  94020142.932 3      -229.922          38.000  
> 2021 05 13 15 18 58.9920000  0  7                     
G21  21062455.398 1 110683947.829 1      2152.582          44.000                                                                  
G23  19418963.293 9                     -2186.436          22.000                                                                  
G16  20175859.677 1 106024863.036 2     -3675.853          41.000                                                                  
G08  19033074.312 1 100019453.508 3      1665.389          35.000    19033050.004 1  77937134.255 3      1297.288          37.000  
G27  17892944.303 2  94028073.036 6      -548.995          29.000    17892921.582 2  73268502.786 4      -428.201          34.000  
G26  22045670.523 9                     -4174.906          18.000                                                                  
G30  22960762.801 1 120659569.421 2      -295.450          39.000    22960738.109 1  94020373.224 3      -230.600          38.000  
> 2021 05 13 15 18 59.9920000  0  7                     
G21  21062045.791 1 110681795.283 1      2152.637          45.000                                                                  
G23  19419377.663 9                     -2185.649          23.000                                                                  
G16  20176559.188 1 106028538.906 2     -3675.972          41.000                                                                  
G08  19032757.443 1 100017788.646 3      1664.996          35.000    19032733.206 1  77935836.941 3      1297.106          38.000  
G27  17893048.834 2  94028622.559 6      -549.854          33.000    17893026.203 2  73268930.983 4      -428.699          34.000  
G26  22046467.049 9                     -4170.582          18.000                                                                  
G30  22960819.117 1 120659865.375 2      -296.243          38.000    22960794.417 1  94020603.805 2      -230.626          38.000  
> 2021 05 13 15 19 00.9920000  0  7                     
G21  21061636.166 1 110679642.700 1      2152.625          45.000                                                                  
G23  19419792.145 9                     -2182.017          23.000                                                                  
G16  20177258.748 1 106032214.883 2     -3675.971          40.000                                                                  
G08  19032440.555 1 100016123.928 3      1664.803          37.000    19032416.595 1  77934539.751 2      1297.386          38.000  
G27  17893153.649 2  94029172.324 5      -549.736          32.000    17893130.803 2  73269359.410 4      -428.490          34.000  
G26  22047262.723 9                     -4171.089          19.000                                                                  
G30  22960875.448 1 120660161.634 2      -296.446          39.000    22960850.790 1  94020834.655 2      -230.928          38.000  
> 2021 05 13 15 19 01.9920000  0  7                     
G21  21061226.564 1 110677490.189 1      2152.903          45.000                                                                  
G23  19420205.824 9                     -2180.961          23.000                                                                  
G16  20177958.282 1 106035891.060 2     -3676.151          41.000                                                                  
G08  19032123.867 1 100014459.392 3      1664.792          37.000    19032099.848 1  77933242.715 3      1296.900          38.000  
G27  17893258.482 2  94029722.466 5      -550.706          32.000    17893235.519 1  73269788.121 3      -428.400          35.000  
G26  22048056.997 9                     -4183.312          17.000                                                                  
G30  22960931.956 1 120660458.298 2      -296.785          39.000    22960907.113 1  94021065.872 3      -231.358          38.000  
> 2021 05 13 15 19 02.9920000  0  7                     
G21  21060816.931 1 110675337.704 1      2152.281          45.000                                                                  
G23  19420622.596 9                     -2189.536          22.000                                                                  
G16  20178657.842 1 106039567.394 2     -3676.848          42.000                                                                  
G08  19031807.113 1 100012794.989 3      1664.003          36.000    19031783.014 1  77931945.783 3      1296.635          37.000  
G27  17893363.075 2  94030272.888 5      -550.895          32.000    17893340.362 1  73270217.087 3      -429.349          35.000  
G26  22048852.023 9                     -4175.759          18.000                                                                  
G30  22960988.358 1 120660755.388 3      -297.481          37.000    22960963.547 1  94021297.365 2      -231.728          38.000  
> 2021 05 13 15 19 03.9920000  0  7                     
G21  21060407.265 1 110673185.065 1      2152.649          45.000                                                                  
G23  19421039.423 9                     -2175.716          21.000                                                                  
G16  20179357.431 1 106043243.734 1     -3676.467          43.000                                                                  
G08  19031490.364 1 100011130.601 3      1664.048          38.000    19031466.313 1  77930648.850 3      1297.014          37.000  
G27  17893467.885 2  94030823.552 4      -550.712          34.000    17893445.208 1  73270646.178 3      -429.140          36.000  
G26  22049645.791 9                     -4160.664          17.000                                                                  
G30  22961044.869 1 120661052.725 3      -297.610          38.000    22961020.084 1  94021529.060 3      -231.630          37.000  
> 2021 05 13 15 19 04.9920000  0  7                     
G21  21059997.586 1 110671032.557 1      2152.584          45.000                                                                  
G23  19421455.935 9                     -2180.456          19.000                                                                  
G16  20180057.045 1 106046920.338 1     -3676.866          42.000                                                                  
G08  19031173.737 1 100009466.497 3      1663.885          37.000    19031149.680 1  77929352.149 3      1296.426          37.000  
G27  17893572.787 2  94031374.627 4      -551.117          34.000    17893550.055 1  73271075.583 3      -429.482          36.000  
G26  22050439.628 9                     -4166.373          16.000                                                                  
G30  22961101.584 1 120661350.549 3      -298.260          38.000    22961076.628 1  94021761.115 3      -231.963          37.000  
> 2021 05 13 15 19 05.9920000  0  7                     
G21  21059588.117 1 110668880.545 1      2152.021          45.000                                                                  
G23  19421873.242 9                     -2180.618          20.000                                                                  
G16  20180756.786 1 106050597.572 1     -3677.198          42.000                                                                  
G08  19030857.179 1 100007803.000 3      1663.849          37.000    19030833.038 1  77928055.911 3      1296.292          37.000  
G27  17893678.013 2  94031926.509 4      -551.365          33.000    17893655.044 1  73271505.643 3      -429.650          36.000  
G26  22051233.140 9                     -4165.043          15.000                                                                  
G30  22961158.449 1 120661649.263 3      -299.155          38.000    22961133.389 1  94021993.889 3      -232.676          37.000  
> 2021 05 13 15 19 06.9920000  0  7                     
G21  21059178.607 1 110666728.867 1      2151.556          45.000                                                                  
G23  19422288.715 9                     -2183.672          20.000                                                                  
G16  20181456.750 1 106054275.273 2     -3678.070          43.000                                                                  
G08  19030540.886 1 100006140.055 3      1662.534          37.000    19030516.576 1  77926760.091 3      1295.372          37.000  
G27  17893783.340 2  94032479.041 5      -552.633          34.000    17893760.247 1  73271936.199 3      -430.995          36.000  
G26  22052025.551 9                     -4170.390          15.000                                                                  
G30  22961215.350 1 120661948.698 3      -299.606          38.000    22961190.373 1  94022227.222 3      -233.734          37.000  
> 2021 05 13 15 19 07.9920000  0  7                     
G21  21058769.212 1 110664577.486 1      2151.289          45.000                                                                  
G23  19422703.561 9                     -2188.691          20.000                                                                  
G16  20182156.668 1 106057953.388 1     -3678.555          43.000                                                                  
G08  19030224.667 1 100004477.464 3      1662.153          36.000    19030200.208 1  77925464.577 3      1295.170          37.000  
G27  17893888.843 2  94033032.200 4      -553.412          34.000    17893865.485 2  73272367.176 4      -431.003          35.000  
G26  22052821.659 9                     -4168.119          15.000                                                                  
G30  22961272.327 1 120662248.759 3      -300.196          38.000    22961247.455 1  94022461.018 3      -233.939          37.000  
> 2021 05 13 15 19 08.9920000  0  8                     
G07  22472838.153 9                     -1908.487          23.000                                                                  
G21  21058359.753 1 110662426.203 1      2151.164          45.000                                                                  
G23  19423120.248 9                     -2189.355          18.000                                                                  
G16  20182856.577 1 106061631.755 1     -3678.561          43.000                                                                  
G08  19029908.510 1 100002815.168 3      1662.058          35.000    19029883.859 1  77924169.227 3      1295.815          37.000  
G27  17893994.303 2  94033585.685 4      -553.507          35.000    17893970.918 2  73272798.517 4      -431.186          35.000  
G26  22053619.759 9                     -4174.013          16.000                                                                  
G30  22961329.443 1 120662549.344 3      -300.932          37.000    22961304.676 1  94022695.227 3      -234.258          38.000  
> 2021 05 13 15 19 09.9920000  0  8                     
G07  22473202.635 9                     -1906.467          24.000                                                                  
G21  21057950.541 1 110660275.269 1      2150.707          45.000                                                                  
G23  19423537.432 9                     -2195.919          17.000                                                                  
G16  20183556.581 1 106065310.620 2     -3679.300          42.000                                                                  
G08  19029592.262 1 100001153.269 3      1662.374          38.000    19029567.587 1  77922874.310 3      1294.679          37.000  
G27  17894099.611 1  94034139.906 4      -554.758          36.000    17894076.437 1  73273230.376 4      -432.236          34.000  
G26  22054415.062 9                     -4178.905          17.000                                                                  
G30  22961386.832 1 120662850.646 3      -301.987          38.000    22961362.037 1  94022930.001 2      -235.030          38.000  
> 2021 05 13 15 19 10.9920000  0  8                     
G07  22473566.929 9                     -1910.375          24.000                                                                  
G21  21057541.184 1 110658124.687 1      2150.150          45.000                                                                  
G23  19423953.184 9                     -2193.625          18.000                                                                  
G16  20184256.744 1 106068989.942 2     -3679.650          42.000                                                                  
G08  19029276.091 1  99999491.991 3      1660.928          37.000    19029251.336 1  77921579.793 3      1293.746          37.000  
G27  17894205.086 1  94034694.755 3      -555.849          36.000    17894182.096 1  73273662.714 4      -432.707          34.000  
G26  22055211.087 9                     -4179.063          17.000                                                                  
G30  22961444.219 1 120663152.658 3      -302.776          38.000    22961419.612 1  94023165.319 2      -235.381          38.000  
> 2021 05 13 15 19 11.9920000  0  8                     
G07  22473928.823 9                     -1910.432          24.000                                                                  
G21  21057131.909 1 110655974.482 1      2150.024          44.000                                                                  
G23  19424370.068 9                     -2193.022          18.000                                                                  
G16  20184957.027 1 106072669.783 2     -3680.095          42.000                                                                  
G08  19028960.095 1  99997831.148 3      1660.585          37.000    19028935.312 1  77920285.642 3      1294.153          38.000  
G27  17894310.672 1  94035250.252 3      -556.014          35.000    17894287.754 2  73274095.606 4      -432.942          34.000  
G26  22056009.380 9                     -4175.383          18.000                                                                  
G30  22961501.770 1 120663455.425 3      -303.165          38.000    22961477.345 1  94023401.262 3      -236.079          38.000  
> 2021 05 13 15 19 12.9920000  0  8                     
G07  22474292.140 9                     -1913.848          25.000                                                                  
G21  21056722.813 1 110653824.321 1      2150.034          45.000                                                                  
G23  19424788.924 9                     -2188.723          18.000                                                                  
G16  20185657.182 1 106076349.793 1     -3679.914          42.000                                                                  
G08  19028643.986 1  99996170.502 3      1660.402          37.000    19028619.302 1  77918991.636 3      1293.969          37.000  
G27  17894416.302 1  94035806.086 4      -556.263          35.000    17894393.535 2  73274528.753 4      -432.918          34.000  
G26  22056806.149 9                     -4180.388          17.000                                                                  
G30  22961559.339 1 120663758.620 3      -303.111          38.000    22961535.031 1  94023637.515 3      -236.450          37.000  
> 2021 05 13 15 19 13.9920000  0  8                     
G07  22474656.624 9                     -1910.355          25.000                                                                  
G21  21056313.532 1 110651674.017 1      2150.312          45.000                                                                  
G23  19425206.574 9                     -2208.253          18.000                                                                  
G16  20186357.508 1 106080029.805 2     -3679.881          42.000                                                                  
G08  19028327.722 1  99994509.860 3      1660.433          37.000    19028303.379 1  77917697.646 3      1293.800          38.000  
G27  17894521.876 1  94036362.100 4      -556.371          35.000    17894499.346 1  73274962.028 4      -433.453          35.000  
G26  22057601.371 9                     -4180.388          15.000                                                                  
G30  22961617.048 1 120664062.023 3      -303.474          38.000    22961592.764 1  94023873.950 3      -236.678          37.000  
> 2021 05 13 15 19 14.9920000  0  6                     
G21  21055904.273 1 110649523.599 1      2150.487          45.000                                                                  
G23  19425624.967 9                     -2186.442          17.000                                                                  
G16  20187057.841 1 106083709.855 1     -3680.300          42.000                                                                  
G08  19028011.728 1  99992849.275 3      1660.474          37.000    19027987.408 1  77916403.678 3      1293.625          38.000  
G27  17894627.618 1  94036918.362 3      -556.272          35.000    17894605.152 1  73275395.440 3      -433.571          35.000  
G30  22961674.753 1 120664365.715 2      -303.899          39.000    22961650.478 1  94024110.565 2      -236.531          37.000  
> 2021 05 13 15 19 15.9920000  0  6                     
G21  21055495.040 1 110647373.084 1      2150.678          45.000                                                                  
G23  19426040.668 9                     -2179.509          17.000                                                                  
G16  20187758.198 1 106087389.927 1     -3680.008          42.000                                                                  
G08  19027695.895 1  99991188.705 3      1660.494          38.000    19027671.374 1  77915109.696 3      1294.358          37.000  
G27  17894733.429 1  94037474.872 4      -556.466          35.000    17894711.089 1  73275829.036 4      -433.779          35.000  
G30  22961732.524 1 120664669.642 2      -304.048          39.000    22961708.313 1  94024347.402 3      -236.830          37.000  
> 2021 05 13 15 19 16.9920000  0  6                     
G21  21055085.842 1 110645222.443 1      2150.480          45.000                                                                  
G23  19426457.567 9                     -2200.363          16.000                                                                  
G16  20188458.467 1 106091069.994 2     -3679.774          42.000                                                                  
G08  19027380.065 1  99989528.194 2      1660.090          38.000    19027355.405 1  77913815.789 2      1293.760          38.000  
G27  17894839.297 1  94038031.470 3      -556.854          35.000    17894817.022 1  73276262.753 3      -433.764          35.000  
G30  22961790.353 1 120664973.838 2      -304.205          39.000    22961766.176 1  94024584.455 3      -237.144          37.000  
> 2021 05 13 15 19 17.9920000  0  5                     
G21  21054676.578 1 110643071.619 1      2150.855          45.000                                                                  
G16  20189158.584 1 106094750.048 1     -3680.107          42.000                                                                  
G08  19027064.212 1  99987867.631 3      1660.414          37.000    19027039.359 1  77912521.842 3      1293.881          38.000  
G27  17894945.149 1  94038588.210 3      -556.489          36.000    17894923.086 1  73276696.590 3      -433.692          35.000  
G30  22961848.271 1 120665278.250 2      -304.370          39.000    22961824.040 1  94024821.635 3      -237.214          37.000  
> 2021 05 13 15 19 18.9920000  0  5                     
G21  21054267.324 1 110640920.882 1      2150.443          45.000                                                                  
G16  20189858.904 1 106098430.298 2     -3680.423          42.000                                                                  
G08  19026748.331 1  99986207.266 3      1660.297          36.000    19026723.418 1  77911228.068 2      1293.677          38.000  
G27  17895051.015 1  94039145.361 4      -557.756          34.000    17895029.075 1  73277130.717 3      -434.539          36.000  
G30  22961906.297 1 120665583.085 2      -304.885          39.000    22961882.084 1  94025059.179 3      -237.553          37.000  
> 2021 05 13 15 19 19.9920000  0  6                     
G21  21053858.215 1 110638770.432 1      2150.348          45.000                                                                  
G23  19427702.002 9                     -2172.704          14.000                                                                  
G16  20190559.293 1 106102110.992 1     -3680.809          42.000                                                                  
G08  19026432.523 1  99984547.402 4      1659.725          34.000    19026407.596 1  77909934.640 2      1293.296          38.000  
G27  17895157.103 1  94039703.113 4      -557.415          34.000    17895135.094 1  73277565.324 3      -434.752          35.000  
G30  22961964.445 1 120665888.641 2      -306.004          39.000    22961940.185 1  94025297.278 3      -238.493          38.000  
> 2021 05 13 15 19 20.9920000  0  6                     
G21  21053449.085 1 110636620.261 1      2150.178          45.000                                                                  
G23  19428118.250 9                     -2188.143          16.000                                                                  
G16  20191259.839 1 106105792.076 1     -3681.158          42.000                                                                  
G08  19026116.774 1  99982887.904 5      1658.654          33.000    19026091.860 1  77908641.559 2      1292.666          38.000  
G27  17895263.346 1  94040261.404 3      -557.949          36.000    17895241.371 2  73278000.378 4      -435.465          36.000  
G30  22962022.747 1 120666194.811 2      -306.177          39.000    22961998.456 1  94025535.838 3      -238.683          38.000  
> 2021 05 13 15 19 21.9920000  0  6                     
G21  21053039.950 1 110634470.219 1      2149.926          45.000                                                                  
G23  19428534.279 9                     -2195.865          17.000                                                                  
G16  20191960.417 1 106109473.452 1     -3681.610          42.000                                                                  
G08  19025801.031 1  99981228.729 4      1658.236          33.000    19025776.115 1  77907348.665 2      1292.295          38.000  
G27  17895369.699 1  94040820.175 3      -558.693          36.000    17895347.779 2  73278435.744 3      -435.563          36.000  
G30  22962081.131 1 120666501.507 2      -307.150          39.000    22962056.880 1  94025774.806 3      -238.719          38.000  
> 2021 05 13 15 19 22.9920000  0  6                     
G21  21052630.799 1 110632320.330 1      2149.910          45.000                                                                  
G23  19428952.165 9                     -2230.574          18.000                                                                  
G16  20192661.005 1 106113155.089 2     -3681.833          42.000                                                                  
G08  19025485.226 2  99979569.760 5      1658.932          33.000    19025460.478 1  77906055.985 2      1292.504          38.000  
G27  17895476.201 1  94041379.369 3      -559.219          35.000    17895454.269 2  73278871.509 4      -436.046          35.000  
G30  22962139.557 1 120666808.709 2      -307.217          39.000    22962115.499 1  94026014.196 3      -239.485          38.000  
> 2021 05 13 15 19 23.9920000  0  7                     
G07  22478289.615 9                     -1920.617          18.000                                                                  
G21  21052221.550 1 110630170.715 1      2149.394          45.000                                                                  
G23  19429368.886 9                     -2188.596          18.000                                                                  
G16  20193361.694 1 106116837.121 2     -3682.266          42.000                                                                  
G08  19025169.567 2  99977911.221 5      1658.260          33.000    19025144.906 1  77904763.624 2      1292.200          38.000  
G27  17895582.592 1  94041939.114 4      -559.701          35.000    17895560.766 1  73279307.662 3      -436.634          35.000  
G30  22962198.085 1 120667116.561 2      -308.210          40.000    22962174.085 1  94026254.066 3      -240.079          38.000  
> 2021 05 13 15 19 24.9920000  0  8                     
G07  22478658.169 9                     -1920.617          17.000                                                                  
G21  21051812.588 1 110628021.446 1      2149.251          45.000                                                                  
G23  19429784.054 9                     -2196.148          20.000                                                                  
G16  20194062.428 1 106120519.663 1     -3683.025          42.000                                                                  
G08  19024854.127 1  99976253.239 5      1657.566          34.000    19024829.395 1  77903471.672 2      1291.842          38.000  
G10  18717361.274 9                       159.270          28.000                                                                  
G27  17895689.248 1  94042499.569 3      -560.858          35.000    17895667.407 1  73279744.359 4      -436.426          35.000  
G30  22962256.745 1 120667425.137 2      -309.081          39.000    22962232.881 1  94026494.524 3      -240.761          38.000  
> 2021 05 13 15 19 25.9920000  0  8                     
G07  22479019.789 9                     -1920.617          19.000                                                                  
G21  21051403.598 1 110625872.202 1      2149.452          45.000                                                                  
G23  19430198.640 9                     -2185.661          21.000                                                                  
G16  20194763.158 1 106124202.334 1     -3682.337          42.000                                                                  
G08  19024538.569 2  99974595.328 6      1657.590          32.000    19024514.036 1  77902179.848 3      1292.013          38.000  
G10  18717326.694 9  98360215.56537       159.065          28.000                                                                  
G27  17895795.946 1  94043060.347 4      -560.923          35.000    17895774.128 1  73280181.311 3      -437.197          36.000  
G30  22962315.536 1 120667734.109 2      -309.239          40.000    22962291.755 1  94026735.290 2      -240.785          38.000  
> 2021 05 13 15 19 26.9920000  0  8                     
G07  22479393.659 9                     -1920.617          17.000                                                                  
G21  21050994.622 1 110623722.842 1      2149.765          45.000                                                                  
G23  19430613.424 9                     -2190.124          21.000                                                                  
G16  20195463.927 1 106127885.028 2     -3682.446          42.000                                                                  
G08  19024223.072 1  99972937.555 4      1657.980          34.000    19024198.452 1  77900888.060 2      1291.721          38.000  
G10  18717296.967 9                       159.039          27.000                                                                  
G27  17895902.679 1  94043621.211 4      -560.789          34.000    17895880.852 1  73280618.389 3      -436.754          35.000  
G30  22962374.323 1 120668043.326 2      -309.133          40.000    22962350.665 1  94026976.241 3      -240.906          38.000  
> 2021 05 13 15 19 27.9920000  0  8                     
G07  22479762.437 9                     -1920.617          17.000                                                                  
G21  21050585.492 1 110621573.428 1      2149.525          44.000                                                                  
G23  19431030.013 9                     -2195.935          21.000                                                                  
G16  20196164.600 1 106131567.832 2     -3683.083          42.000                                                                  
G08  19023907.470 1  99971279.775 4      1658.531          34.000    19023883.038 1  77899596.333 3      1291.488          38.000  
G10  18717264.601 9                       158.290          27.000                                                                  
G27  17896009.516 1  94044182.409 4      -561.108          35.000    17895987.708 2  73281055.694 4      -437.044          35.000  
G30  22962433.273 1 120668352.865 2      -309.291          40.000    22962409.504 1  94027217.450 3      -241.260          38.000  
> 2021 05 13 15 19 28.9920000  0  8                     
G07  22480131.592 9                     -1920.617          19.000                                                                  
G21  21050176.404 1 110619423.931 1      2149.721          45.000                                                                  
G23  19431445.266 9                     -2194.481          20.000                                                                  
G16  20196865.478 1 106135250.664 2     -3682.801          42.000                                                                  
G08  19023591.931 1  99969622.188 4      1657.567          34.000    19023567.564 1  77898304.643 3      1292.078          38.000  
G10  18717234.496 9                       156.959          26.000                                                                  
G27  17896116.543 1  94044743.812 3      -561.531          35.000    17896094.573 1  73281493.148 4      -437.201          35.000  
G30  22962492.246 1 120668662.709 2      -309.915          41.000    22962468.441 1  94027458.872 3      -241.221          37.000  
> 2021 05 13 15 19 29.9920000  0  7                     
G07  22480502.081 9                     -1920.617          21.000                                                                  
G21  21049767.385 1 110617274.459 1      2149.371          45.000                                                                  
G23  19431864.527 9                     -2200.925          22.000                                                                  
G16  20197566.317 1 106138933.637 2     -3683.074          42.000                                                                  
G08  19023276.578 1  99967964.629 4      1658.044          34.000    19023252.091 1  77897013.123 3      1291.167          38.000  
G27  17896223.566 1  94045305.581 4      -562.158          35.000    17896201.425 2  73281930.883 4      -437.787          35.000  
G30  22962551.240 1 120668972.954 2      -310.558          40.000    22962527.552 1  94027700.630 3      -242.059          37.000  
> 2021 05 13 15 19 30.9920000  0  6                     
G21  21049358.381 1 110615124.962 1      2149.283          45.000                                                                  
G23  19432283.384 9                     -2195.987          22.000                                                                  
G16  20198267.304 1 106142616.755 2     -3683.430          42.000                                                                  
G08  19022961.060 1  99966307.275 4      1657.590          33.000    19022936.650 1  77895721.645 3      1291.354          38.000  
G27  17896330.552 1  94045867.581 3      -562.493          35.000    17896308.360 2  73282368.802 4      -438.388          35.000  
G30  22962610.225 1 120669283.551 2      -311.021          40.000    22962586.647 1  94027942.631 3      -242.533          37.000  
> 2021 05 13 15 19 31.9920000  0  6                     
G21  21048949.349 1 110612975.543 1      2149.623          45.000                                                                  
G23  19432702.828 9                     -2201.493          22.000                                                                  
G16  20198968.136 1 106146300.039 1     -3683.168          42.000                                                                  
G08  19022645.701 1  99964650.086 4      1657.883          34.000    19022621.369 1  77894430.354 3      1291.350          38.000  
G27  17896437.415 1  94046429.976 4      -562.667          35.000    17896415.354 1  73282807.038 3      -438.239          35.000  
G30  22962669.413 1 120669594.588 2      -311.639          40.000    22962645.796 1  94028185.011 3      -242.594          37.000  
> 2021 05 13 15 19 32.9920000  0  8                     
G07  22481595.851 9                     -1916.057          23.000                                                                  
G21  21048540.264 1 110610826.031 1      2149.462          45.000                                                                  
G23  19433120.196 9                     -2194.971          21.000                                                                  
G16  20199669.057 1 106149983.413 1     -3683.673          42.000                                                                  
G08  19022330.124 2  99962992.940 4      1658.156          34.000    19022306.043 1  77893139.114 2      1291.086          38.000  
G10  18717152.872 9                       160.883          25.000                                                                  
G27  17896544.523 1  94046992.591 4      -563.420          34.000    17896522.379 1  73283245.439 3      -438.855          35.000  
G30  22962728.508 1 120669905.891 2      -311.456          40.000    22962705.052 1  94028427.591 3      -243.035          37.000  
> 2021 05 13 15 19 33.9920000  0  7                     
G21  21048131.251 1 110608676.654 1      2149.280          45.000                                                                  
G23  19433538.623 9                     -2189.713          21.000                                                                  
G16  20200370.056 1 106153667.020 1     -3683.776          42.000                                                                  
G08  19022014.689 1  99961336.157 4      1656.475          34.000    19021990.707 1  77891848.084 3      1290.861          38.000  
G10  18717121.024 9                       160.883          25.000                                                                  
G27  17896651.738 1  94047555.628 4      -562.607          34.000    17896629.554 1  73283684.186 3      -439.154          35.000  
G30  22962787.883 1 120670217.738 2      -312.219          40.000    22962764.393 1  94028670.575 3      -243.089          37.000  
> 2021 05 13 15 19 34.9920000  0  7                     
G21  21047722.323 1 110606527.337 1      2149.309          45.000                                                                  
G23  19433956.595 9                     -2199.801          21.000                                                                  
G16  20201071.035 1 106157350.820 1     -3683.858          42.000                                                                  
G08  19021699.190 1  99959679.497 3      1656.426          34.000    19021675.453 1  77890557.161 3      1291.130          38.000  
G10  18717089.773 9                       160.883          25.000                                                                  
G27  17896759.051 1  94048119.030 4      -563.372          34.000    17896736.761 2  73284123.173 5      -439.170          34.000  
G30  22962847.400 1 120670529.991 2      -312.301          40.000    22962823.779 1  94028913.883 3      -243.385          37.000  
> 2021 05 13 15 19 35.9920000  0  7                     
G21  21047313.515 1 110604378.263 1      2148.808          45.000                                                                  
G23  19434374.013 9                     -2200.107          19.000                                                                  
G16  20201772.136 1 106161035.012 2     -3684.327          42.000                                                                  
G08  19021383.750 1  99958023.255 4      1655.463          34.000    19021360.314 1  77889266.581 2      1290.348          38.000  
G10  18717050.444 9                       154.501          28.000                                                                  
G27  17896866.471 1  94048683.003 4      -564.510          35.000    17896844.106 1  73284562.626 4      -439.452          34.000  
G30  22962906.979 1 120670842.875 2      -313.500          40.000    22962883.313 1  94029157.690 3      -244.176          37.000  
> 2021 05 13 15 19 36.9920000  0  8                     
G07  22483047.881 9                     -1918.443          25.000                                                                  
G21  21046904.669 1 110602229.497 1      2148.816          45.000                                                                  
G23  19434790.620 9                     -2197.827          20.000                                                                  
G16  20202473.282 1 106164719.642 2     -3684.850          42.000                                                                  
G08  19021068.555 1  99956367.413 4      1655.745          34.000    19021045.133 1  77887976.336 2      1290.198          38.000  
G10  18717011.387 9  98358608.66838       154.918          29.000                                                                  
G27  17896973.902 1  94049247.540 4      -563.873          35.000    17896951.568 2  73285002.545 5      -439.875          34.000  
G30  22962966.704 1 120671156.436 2      -313.814          41.000    22962942.940 1  94029402.024 3      -244.431          37.000  
> 2021 05 13 15 19 37.9920000  0  8                     
G07  22483412.611 9                     -1917.075          25.000                                                                  
G21  21046495.693 1 110600080.934 1      2148.449          44.000                                                                  
G23  19435209.980 9                     -2201.475          23.000                                                                  
G16  20203174.464 1 106168404.583 2     -3685.050          42.000                                                                  
G08  19020753.506 1  99954711.960 4      1655.688          34.000    19020730.121 1  77886686.387 3      1289.786          38.000  
G10  18716981.096 8  98358454.43718       153.344          30.000                                                                  
G27  17897081.399 1  94049812.610 4      -564.993          34.000    17897059.069 2  73285442.878 4      -440.303          34.000  
G30  22963026.522 1 120671470.558 2      -314.359          40.000    22963002.601 1  94029646.823 3      -245.448          36.000  
> 2021 05 13 15 19 38.9920000  0  8                     
G07  22483777.645 9                     -1917.797          24.000                                                                  
G21  21046086.886 1 110597932.764 1      2147.732          45.000                                                                  
G23  19435628.241 9                     -2201.730          25.000                                                                  
G16  20203875.830 1 106172090.097 2     -3685.908          42.000                                                                  
G08  19020438.597 1  99953057.080 5      1654.380          34.000    19020415.175 1  77885396.844 3      1289.202          38.000  
G10  18716953.140 8  98358301.581 7       152.503          29.000                                                                  
G27  17897189.140 1  94050378.398 4      -566.280          35.000    17897166.713 1  73285883.761 3      -441.569          35.000  
G30  22963086.459 1 120671785.467 2      -315.250          40.000    22963062.526 1  94029892.192 3      -245.754          37.000  
> 2021 05 13 15 19 39.9920000  0  8                     
G07  22484142.664 9                     -1919.054          25.000                                                                  
G21  21045678.175 1 110595785.087 1      2147.466          45.000                                                                  
G23  19436047.692 9                     -2201.638          25.000                                                                  
G16  20204577.285 1 106175776.190 1     -3686.341          42.000                                                                  
G08  19020123.780 1  99951402.795 4      1654.138          33.000    19020100.360 1  77884107.787 3      1288.988          38.000  
G10  18716926.994 8  98358149.585 7       151.716          28.000                                                                  
G27  17897297.123 1  94050944.986 4      -567.106          35.000    17897274.573 1  73286325.216 4      -441.233          35.000  
G30  22963146.491 1 120672101.249 2      -316.288          40.000    22963122.611 1  94030138.250 3      -246.275          36.000  
> 2021 05 13 15 19 40.9920000  0  8                     
G07  22484506.926 8 118156880.73537     -1920.092          26.000                                                                  
G21  21045269.556 1 110593637.830 1      2146.948          45.000                                                                  
G23  19436467.943 8                     -2202.142          26.000                                                                  
G16  20205278.848 1 106179462.851 1     -3687.178          42.000                                                                  
G08  19019809.168 1  99949749.130 4      1652.943          33.000    19019785.724 1  77882819.207 3      1288.665          38.000  
G10  18716903.583 8                       151.635          27.000                                                                  
G27  17897405.352 1  94051512.276 3      -567.540          35.000    17897382.566 1  73286767.280 4      -442.623          35.000  
G30  22963206.695 1 120672417.819 2      -317.381          40.000    22963182.777 1  94030384.923 3      -247.499          36.000  
> 2021 05 13 15 19 41.9920000  0  7                     
G07  22484874.968 8 118158801.73628     -1921.086          27.000                                                                  
G21  21044861.023 1 110591491.100 1      2146.600          45.000                                                                  
G23  19436886.710 8                     -2204.450          25.000                                                                  
G16  20205980.477 1 106183150.168 2     -3687.433          42.000                                                                  
G08  19019494.483 1  99948096.103 4      1652.698          32.000    19019471.229 1  77881531.161 3      1287.689          38.000  
G27  17897513.664 1  94052080.423 3      -568.193          36.000    17897490.802 2  73287209.996 4      -443.008          35.000  
G30  22963266.909 1 120672735.293 2      -318.051          40.000    22963243.264 1  94030632.325 3      -248.020          36.000  
> 2021 05 13 15 19 42.9920000  0  8                     
G07  22485241.467 8                     -1921.799          27.000                                                                  
G21  21044452.651 1 110589344.847 1      2146.012          44.000                                                                  
G23  19437303.242 9                     -2205.481          23.000                                                                  
G16  20206682.293 1 106186838.102 2     -3687.962          42.000                                                                  
G08  19019179.979 2  99946443.655 5      1652.332          32.000    19019156.843 1  77880243.568 2      1287.412          38.000  
G10  18716846.914 8  98357692.92318       149.796          28.000                                                                  
G27  17897621.934 1  94052649.313 4      -568.683          35.000    17897598.971 1  73287653.296 4      -443.103          35.000  
G30  22963327.478 1 120673053.593 2      -318.396          40.000    22963303.848 1  94030880.310 3      -248.140          36.000  
> 2021 05 13 15 19 43.9920000  0  9                     
G07  22485607.841 8                     -1922.170          27.000                                                                  
G21  21044044.228 1 110587199.139 1      2145.169          44.000                                                                  
G23  19437722.624 9                     -2213.741          23.000                                                                  
G16  20207384.295 1 106190526.703 2     -3689.032          42.000                                                                  
G08  19018865.486 2  99944791.938 5      1651.083          32.000    19018842.608 1  77878956.535 2      1286.538          39.000  
G10  18716816.612 4                       147.634          29.000                                                                  
G27  17897730.524 1  94053219.086 4      -570.321          35.000    17897707.368 1  73288097.275 4      -444.564          35.000  
G26  22081375.261 9                     -4172.694          15.000                                                                  
G30  22963388.225 1 120673372.837 2      -319.751          40.000    22963364.525 1  94031129.083 3      -249.075          37.000  
> 2021 05 13 15 19 44.9920000  0  9                     
G07  22485972.659 8                     -1923.418          26.000                                                                  
G21  21043636.040 1 110585054.128 1      2144.591          45.000                                                                  
G23  19438144.140 9                     -2219.194          23.000                                                                  
G16  20208086.365 1 106194216.143 2     -3689.973          42.000                                                                  
G08  19018551.374 1  99943141.104 4      1650.479          33.000    19018528.534 1  77877670.162 2      1286.042          39.000  
G10  18716788.399 4  98357397.315 8       147.382          31.000                                                                  
G27  17897839.225 1  94053789.861 4      -571.545          35.000    17897815.869 1  73288542.022 4      -445.073          35.000  
G26  22082171.416 9                     -4183.450          16.000                                                                  
G30  22963449.353 1 120673693.169 2      -321.122          40.000    22963425.476 1  94031378.660 3      -249.884          37.000  
> 2021 05 13 15 19 45.9920000  0  9                     
G07  22486338.140 8                     -1924.620          26.000                                                                  
G21  21043227.940 1 110582909.783 1      2144.022          44.000                                                                  
G23  19438562.079 9                     -2206.947          22.000                                                                  
G16  20208788.578 1 106197906.390 1     -3690.720          42.000                                                                  
G08  19018237.311 1  99941491.092 4      1649.640          35.000    19018214.585 1  77876384.411 3      1285.640          38.000  
G10  18716760.550 4  98357251.361 7       145.052          31.000                                                                  
G27  17897948.150 1  94054361.595 4      -572.377          35.000    17897924.678 1  73288987.541 3      -445.729          35.000  
G26  22082964.296 9                     -4169.447          17.000                                                                  
G30  22963510.371 1 120674014.525 2      -322.185          40.000    22963486.637 1  94031629.111 3      -251.112          36.000  
> 2021 05 13 15 19 46.9920000  0  9                     
G07  22486704.125 8                     -1924.943          24.000                                                                  
G21  21042820.049 1 110580765.992 1      2143.695          44.000                                                                  
G23  19438981.471 9                     -2212.860          22.000                                                                  
G16  20209491.019 1 106201597.287 2     -3691.113          42.000                                                                  
G08  19017923.629 1  99939841.736 4      1648.933          34.000    19017900.691 1  77875099.200 2      1285.287          38.000  
G10  18716733.142 2  98357106.157 6       144.983          32.000                                                                  
G27  17898057.081 1  94054934.167 3      -572.481          35.000    17898033.658 1  73289433.730 4      -446.796          35.000  
G26  22083760.237 9                     -4179.465          17.000                                                                  
G30  22963571.789 1 120674336.810 2      -322.506          40.000    22963548.007 1  94031880.229 3      -251.186          36.000  
> 2021 05 13 15 19 47.9920000  0  9                     
G07  22487071.137 8                     -1925.662          23.000                                                                  
G21  21042412.075 1 110578622.269 1      2143.626          44.000                                                                  
G23  19439401.002 9                     -2205.168          21.000                                                                  
G16  20210193.413 1 106205288.403 1     -3691.095          42.000                                                                  
G08  19017609.943 1  99938192.567 4      1649.178          34.000    19017586.826 1  77873814.152 3      1284.830          38.000  
G10  18716705.523 2  98356961.502 5       143.951          33.000                                                                  
G27  17898166.280 1  94055507.138 3      -573.413          35.000    17898142.651 2  73289880.182 4      -446.738          35.000  
G26  22084557.469 9                     -4174.893          17.000                                                                  
G30  22963633.353 1 120674659.520 2      -322.736          40.000    22963609.442 1  94032131.680 3      -251.067          36.000  
> 2021 05 13 15 19 48.9920000  0  9                     
G07  22487437.465 9                     -1923.643          23.000                                                                  
G21  21042004.134 1 110576478.444 1      2143.775          44.000                                                                  
G23  19439821.379 9                     -2210.220          22.000                                                                  
G16  20210895.824 1 106208979.542 2     -3691.145          41.000                                                                  
G08  19017296.258 1  99936543.456 4      1649.362          34.000    19017272.990 1  77872529.139 2      1284.857          39.000  
G10  18716678.261 2  98356817.140 5       143.551          33.000                                                                  
G27  17898275.432 1  94056080.276 4      -573.335          35.000    17898251.666 2  73290326.795 4      -446.975          35.000  
G26  22085352.551 9                     -4175.234          17.000                                                                  
G30  22963694.889 1 120674982.506 2      -323.103          41.000    22963670.968 1  94032383.392 3      -251.918          36.000  
> 2021 05 13 15 19 49.9920000  0  9                     
G07  22487804.591 9                     -1914.306          22.000                                                                  
G21  21041596.230 1 110574334.695 1      2143.700          44.000                                                                  
G23  19440242.900 9                     -2206.749          22.000                                                                  
G16  20211598.251 1 106212670.875 2     -3691.354          41.000                                                                  
G08  19016982.607 1  99934894.586 4      1648.893          34.000    19016959.274 1  77871244.311 2      1284.752          39.000  
G10  18716651.254 2  98356673.262 5       143.619          32.000                                                                  
G27  17898384.639 1  94056653.855 4      -573.894          35.000    17898360.892 1  73290773.716 4      -446.896          35.000  
G26  22086147.296 9                     -4175.234          14.000                                                                  
G30  22963756.473 1 120675305.963 2      -323.229          41.000    22963732.462 1  94032635.427 3      -251.853          36.000  
> 2021 05 13 15 19 50.9920000  0  8                     
G07  22488170.441 9                     -1927.467          20.000                                                                  
G21  21041188.269 1 110572191.121 1      2143.702          44.000                                                                  
G23  19440663.659 9                     -2213.915          23.000                                                                  
G16  20212300.657 1 106216362.553 2     -3691.749          41.000                                                                  
G08  19016669.012 1  99933245.989 4      1649.141          34.000    19016645.590 1  77869959.729 2      1284.221          39.000  
G10  18716624.238 2  98356529.991 4       142.975          34.000                                                                  
G27  17898494.004 1  94057227.893 3      -574.572          35.000    17898470.076 2  73291221.024 4      -447.411          34.000  
G30  22963818.183 1 120675630.007 2      -324.724          41.000    22963794.148 1  94032887.904 3      -252.734          36.000  
> 2021 05 13 15 19 51.9920000  0  8                     
G07  22488535.985 9                     -1925.333          17.000                                                                  
G21  21040780.437 1 110570047.597 1      2143.406          44.000                                                                  
G23  19441085.634 9                     -2217.081          23.000                                                                  
G16  20213003.110 1 106220054.343 2     -3691.727          41.000                                                                  
G08  19016355.508 1  99931597.615 4      1648.191          35.000    19016331.949 1  77868675.246 2      1284.504          39.000  
G10  18716597.245 2  98356387.119 4       143.083          34.000                                                                  
G27  17898603.425 1  94057802.236 4      -574.566          35.000    17898579.378 2  73291668.560 5      -447.614          34.000  
G30  22963879.945 1 120675954.366 2      -324.541          41.000    22963855.825 1  94033140.690 3      -253.003          36.000  
> 2021 05 13 15 19 52.9920000  0  7                     
G21  21040372.564 1 110567903.940 1      2143.750          44.000                                                                  
G23  19441507.270 9                     -2211.103          23.000                                                                  
G16  20213705.672 1 106223746.177 2     -3691.694          41.000                                                                  
G08  19016041.906 1  99929949.224 4      1648.400          35.000    19016018.285 1  77867390.796 2      1284.445          39.000  
G10  18716570.405 2  98356244.659 4       142.299          34.000                                                                  
G27  17898712.750 1  94058376.803 4      -574.576          34.000    17898688.672 2  73292116.290 4      -448.115          34.000  
G30  22963941.663 1 120676279.027 2      -324.652          41.000    22963917.650 1  94033393.678 3      -253.201          36.000  
> 2021 05 13 15 19 53.9920000  0  7                     
G21  21039964.735 1 110565760.139 1      2143.754          44.000                                                                  
G23  19441930.329 9                     -2211.498          24.000                                                                  
G16  20214408.259 1 106227437.986 2     -3691.341          41.000                                                                  
G08  19015728.490 1  99928300.836 3      1648.320          36.000    19015704.555 1  77866106.353 2      1284.683          38.000  
G10  18716543.525 2  98356102.367 5       142.178          33.000                                                                  
G27  17898822.176 1  94058951.517 4      -574.828          34.000    17898797.992 2  73292564.076 5      -447.784          33.000  
G30  22964003.490 1 120676603.909 2      -325.360          41.000    22963979.449 1  94033646.815 3      -253.307          36.000  
> 2021 05 13 15 19 54.9920000  0  8                     
G21  21039556.777 1 110563616.283 1      2143.662          44.000                                                                  
G23  19442353.220 9                     -2206.794          23.000                                                                  
G16  20215110.679 1 106231129.859 2     -3691.931          41.000                                                                  
G08  19015414.935 1  99926652.546 3      1647.930          36.000    19015390.970 1  77864821.985 3      1284.379          38.000  
G10  18716516.873 2  98355960.638 7       141.478          30.000                                                                  
G27  17898931.640 1  94059526.435 4      -575.204          37.000    17898907.473 2  73293012.108 4      -447.784          33.000  
G26  22090109.318 9                     -4172.536          14.000                                                                  
G30  22964065.346 1 120676929.078 2      -325.214          41.000    22964041.238 1  94033900.230 3      -253.669          36.000  
> 2021 05 13 15 19 55.9920000  0  8                     
G21  21039148.806 1 110561472.497 1      2144.156          44.000                                                                  
G23  19442773.195 9                     -2206.713          20.000                                                                  
G16  20215813.192 1 106234821.908 2     -3692.042          41.000                                                                  
G08  19015101.474 1  99925004.505 3      1647.819          36.000    19015077.257 1  77863537.784 2      1283.889          38.000  
G10  18716490.500 2  98355819.303 7       141.617          29.000                                                                  
G27  17899040.943 1  94060101.670 3      -574.360          36.000    17899016.941 2  73293460.419 5      -448.403          33.000  
G26  22090905.117 9                     -4174.700          16.000                                                                  
G30  22964127.306 1 120677254.717 2      -325.836          41.000    22964103.110 1  94034153.965 3      -253.838          36.000  
> 2021 05 13 15 19 56.9920000  0  9                     
G07  22490365.923 9                     -1927.061          27.000                                                                  
G21  21038740.872 1 110559328.508 1      2144.043          45.000                                                                  
G23  19443194.796 9                     -2212.112          19.000                                                                  
G16  20216515.885 1 106238513.900 2     -3691.862          41.000                                                                  
G08  19014788.030 1  99923356.342 3      1647.638          37.000    19014763.698 1  77862253.476 3      1284.119          38.000  
G10  18716463.758 2  98355678.053 6       141.156          32.000                                                                  
G27  17899150.291 1  94060677.120 4      -575.848          35.000    17899126.463 2  73293908.814 5      -448.718          33.000  
G26  22091700.283 9                     -4168.715          16.000                                                                  
G30  22964189.315 1 120677580.510 2      -326.355          40.000    22964165.103 1  94034407.834 3      -254.080          36.000  
> 2021 05 13 15 19 57.9920000  0  8                     
G07  22490729.088 9                     -1929.268          28.000                                                                  
G21  21038332.981 1 110557184.412 1      2143.987          44.000                                                                  
G23  19443616.657 9                     -2213.628          18.000                                                                  
G16  20217218.485 1 106242205.925 2     -3692.236          41.000                                                                  
G08  19014474.422 1  99921708.254 3      1647.980          39.000    19014450.051 1  77860969.237 2      1283.975          38.000  
G27  17899259.909 2  94061252.601 6      -575.350          31.000    17899236.017 2  73294357.324 4      -448.385          33.000  
G26  22092493.888 9                     -4176.194          15.000                                                                  
G30  22964251.318 1 120677906.583 2      -326.434          40.000    22964227.274 1  94034661.917 3      -254.185          37.000  
> 2021 05 13 15 19 58.9920000  0  7                     
G21  21037924.983 1 110555040.333 1      2143.914          45.000                                                                  
G23  19444040.491 9                     -2219.610          17.000                                                                  
G16  20217920.980 1 106245898.121 2     -3692.615          41.000                                                                  
G08  19014160.883 1  99920060.287 3      1647.664          36.000    19014136.564 1  77859685.140 2      1283.744          39.000  
G27  17899369.880 2                      -576.298          25.000    17899345.618 2  73294806.125 5      -448.696          32.000  
G26  22093289.393 9                     -4176.233          14.000                                                                  
G30  22964313.500 1 120678233.056 2      -327.052          40.000    22964289.548 1  94034916.315 3      -254.704          37.000  
> 2021 05 13 15 19 59.9920000  0  8                     
G07  22491456.840 9                     -1928.302          28.000                                                                  
G21  21037517.074 1 110552896.347 1      2143.857          44.000                                                                  
G23  19444462.367 9                     -2219.610          15.000                                                                  
G16  20218623.519 1 106249590.486 2     -3692.446          41.000                                                                  
G08  19013847.487 1  99918412.571 2      1647.660          40.000    19013823.114 1  77858401.187 2      1283.776          38.000  
G27  17899479.864 2  94062405.127 6      -576.554          34.000    17899455.199 2  73295255.195 4      -449.444          32.000  
G26  22094085.488 9                     -4174.090          16.000                                                                  
G30  22964375.698 1 120678559.974 2      -327.279          41.000    22964351.835 1  94035171.041 3      -254.857          37.000  
> 2021 05 13 15 20 00.9920000  0  9                     
G07  22491818.950 9 118195305.97436     -1928.785          28.000                                                                  
G21  21037109.009 1 110550752.529 1      2143.468          44.000                                                                  
G23  19444883.819 9                     -2212.745          12.000                                                                  
G16  20219326.188 1 106253283.159 2     -3693.089          41.000                                                                  
G08  19013534.075 1  99916765.199 3      1646.743          39.000    19013509.681 1  77857117.531 2      1283.280          38.000  
G10  18716359.495 4  98355131.66117       138.617          26.000                                                                  
G27  17899590.705 9                      -581.367          19.000    17899565.087 2  73295704.645 4      -449.788          33.000  
G26  22094881.134 9                     -4171.001          16.000                                                                  
G30  22964437.968 1 120678887.408 2      -327.990          41.000    22964414.157 1  94035426.220 3      -255.475          37.000  
> 2021 05 13 15 20 01.9920000  0  8                     
G07  22492187.582 9 118197234.73728     -1929.589          27.000                                                                  
G21  21036700.999 1 110548608.809 1      2143.362          44.000                                                                  
G23  19445304.455 9                     -2206.413          12.000                                                                  
G16  20220028.928 1 106256976.093 2     -3693.351          41.000                                                                  
G08  19013220.619 1  99915118.048 2      1646.766          39.000    19013196.204 1  77855834.057 2      1283.209          38.000  
G27  17899705.152 9  94063585.18237      -578.044          30.000    17899675.016 2  73296154.439 5      -449.746          33.000  
G26  22095674.069 9                     -4173.169          16.000                                                                  
G30  22964500.404 1 120679215.403 2      -328.268          41.000    22964476.722 1  94035681.786 3      -255.981          37.000  
> 2021 05 13 15 20 02.9920000  0  9                     
G07  22492554.756 8                     -1929.402          27.000                                                                  
G21  21036293.199 1 110546465.253 1      2143.510          45.000                                                                  
G23  19445723.956 9                     -2219.748          13.000                                                                  
G16  20220731.687 1 106260669.322 1     -3693.442          43.000                                                                  
G08  19012907.288 1  99913471.255 3      1646.290          37.000    19012882.930 1  77854550.839 2      1283.115          39.000  
G10  18716306.639 4  98354854.30937       137.370          32.000                                                                  
G27  17899813.242 9                      -577.990          25.000    17899785.012 2  73296604.558 5      -449.822          32.000  
G26  22096469.757 9                     -4168.622          14.000                                                                  
G30  22964562.969 1 120679543.886 2      -328.756          41.000    22964539.171 1  94035937.755 3      -256.483          37.000  
> 2021 05 13 15 20 03.9920000  0  9                     
G07  22492922.389 8 118201093.68427     -1929.926          28.000                                                                  
G21  21035885.308 1 110544322.049 1      2143.085          44.000                                                                  
G23  19446144.936 9                     -2219.748          11.000                                                                  
G16  20221434.649 1 106264363.004 1     -3694.116          43.000                                                                  
G08  19012594.047 1  99911824.913 3      1645.861          38.000    19012569.675 1  77853267.991 2      1282.408          38.000  
G10  18716279.757 4  98354716.82728       137.056          28.000                                                                  
G27  17899923.561 8                      -579.385          26.000    17899895.108 2  73297055.297 5      -451.820          32.000  
G26  22097262.532 9                     -4168.622          12.000                                                                  
G30  22964625.646 1 120679873.111 2      -329.775          41.000    22964601.877 1  94036194.268 3      -256.868          37.000  
> 2021 05 13 15 20 04.9920000  0  9                     
G07  22493290.610 8                     -1930.383          27.000                                                                  
G21  21035477.538 1 110542179.291 1      2142.533          44.000                                                                  
G23  19446567.486 9                     -2221.989          11.000                                                                  
G16  20222137.672 1 106268057.322 1     -3694.688          43.000                                                                  
G08  19012281.064 1  99910179.166 2      1645.672          39.000    19012256.421 1  77851985.589 2      1282.150          38.000  
G10  18716256.808 9                       139.659          25.000                                                                  
G27  17900034.607 8                      -579.193          32.000    17900005.478 2  73297506.450 6      -451.153          32.000  
G26  22098055.629 9                     -4168.622           9.000                                                                  
G30  22964688.410 1 120680203.134 2      -330.637          40.000    22964664.738 1  94036451.446 3      -257.385          36.000  
> 2021 05 13 15 20 05.9920000  0  6                     
G07  22493658.426 8 118204972.09537     -1931.630          27.000                                                                  
G21  21035069.789 1 110540036.858 1      2142.290          45.000                                                                  
G16  20222840.761 1 106271752.056 2     -3695.064          43.000                                                                  
G08  19011968.032 1  99908533.935 3      1644.926          38.000    19011943.361 1  77850703.560 3      1281.721          38.000  
G27  17900144.026 4  94065899.86525      -579.551          33.000    17900115.884 2  73297958.153 5      -451.186          32.000  
G30  22964751.392 1 120680533.859 2      -331.219          41.000    22964727.727 1  94036709.153 3      -258.014          36.000  
> 2021 05 13 15 20 06.9920000  0  6                     
G07  22494030.117 8                     -1931.715          26.000                                                                  
G21  21034662.223 1 110537894.768 1      2141.598          43.000                                                                  
G16  20223543.949 1 106275447.200 1     -3695.491          43.000                                                                  
G08  19011655.072 1  99906889.133 3      1644.199          38.000    19011630.298 1  77849421.884 2      1281.975          38.000  
G27  17900252.586 4  94066480.215 4      -580.356          34.000    17900226.289 2  73298410.386 6      -452.860          32.000  
G30  22964814.523 1 120680865.273 2      -331.966          41.000    22964790.819 1  94036967.409 3      -258.821          37.000  
> 2021 05 13 15 20 07.9920000  0  6                     
G07  22494396.596 8 118208835.791 8     -1932.462          26.000                                                                  
G21  21034254.626 1 110535752.992 1      2141.861          44.000                                                                  
G16  20224247.265 1 106279142.856 1     -3695.938          43.000                                                                  
G08  19011342.222 1  99905244.750 2      1644.105          38.000    19011317.439 1  77848140.581 2      1281.104          38.000  
G27  17900362.516 4  94067061.135 4      -581.309          35.000    17900336.954 2  73298863.127 5      -452.665          32.000  
G30  22964877.908 1 120681197.420 2      -332.404          41.000    22964854.025 1  94037226.173 3      -258.517          37.000  
> 2021 05 13 15 20 08.9920000  0  6                     
G07  22494766.963 8 118210768.581 8     -1933.164          26.000                                                                  
G21  21033847.053 1 110533611.618 1      2141.130          44.000                                                                  
G16  20224950.600 1 106282839.002 2     -3696.208          42.000                                                                  
G08  19011029.548 1  99903600.935 2      1643.657          38.000    19011004.633 1  77846859.717 2      1280.514          39.000  
G27  17900473.004 2  94067642.865 3      -582.032          35.000    17900447.698 2  73299316.367 5      -453.049          31.000  
G30  22964941.236 1 120681530.299 2      -333.223          41.000    22964917.445 1  94037485.597 3      -259.655          36.000  
> 2021 05 13 15 20 09.9920000  0  7                     
G07  22495134.989 9                     -1932.650          24.000                                                                  
G21  21033439.628 1 110531470.489 1      2140.983          44.000                                                                  
G23  19448679.866 9                     -2222.834          19.000                                                                  
G16  20225653.918 1 106286535.543 1     -3696.979          42.000                                                                  
G08  19010716.875 1  99901957.562 2      1643.401          38.000    19010691.936 1  77845579.140 3      1280.382          38.000  
G27  17900583.582 2  94068225.101 3      -582.892          35.000    17900558.596 2  73299770.090 5      -454.855          32.000  
G30  22965004.711 1 120681863.820 2      -334.055          41.000    22964980.878 1  94037745.486 3      -259.960          37.000  
> 2021 05 13 15 20 10.9920000  0  7                     
G07  22495504.313 9                     -1932.567          24.000                                                                  
G21  21033032.261 1 110529329.654 1      2140.656          44.000                                                                  
G23  19449102.837 9                     -2216.758          19.000                                                                  
G16  20226357.402 1 106290232.483 1     -3697.074          42.000                                                                  
G08  19010404.397 1  99900314.590 2      1642.821          38.000    19010379.233 1  77844298.913 2      1280.039          38.000  
G27  17900694.407 1  94068807.941 3      -583.053          34.000    17900669.345 2  73300224.212 5      -454.371          33.000  
G30  22965068.320 1 120682197.999 2      -334.530          41.000    22965044.464 1  94038005.889 3      -260.726          36.000  
> 2021 05 13 15 20 11.9920000  0  7                     
G07  22495872.118 9                     -1935.591          23.000                                                                  
G21  21032624.926 1 110527189.086 1      2140.306          44.000                                                                  
G23  19449525.741 9                     -2223.525          19.000                                                                  
G16  20227061.005 1 106293929.826 1     -3697.483          42.000                                                                  
G08  19010091.937 1  99898672.046 2      1642.607          38.000    19010066.707 1  77843018.992 2      1279.878          38.000  
G27  17900805.540 1  94069391.381 3      -583.912          35.000    17900780.545 2  73300678.814 5      -454.985          33.000  
G30  22965132.091 1 120682532.833 2      -335.433          41.000    22965108.309 1  94038266.779 3      -261.395          36.000  
> 2021 05 13 15 20 12.9920000  0  7                     
G07  22496241.426 9                     -1937.100          20.000                                                                  
G21  21032217.584 1 110525048.858 1      2140.203          44.000                                                                  
G23  19449951.439 9                     -2227.726          18.000                                                                  
G16  20227764.722 1 106297627.642 1     -3697.930          42.000                                                                  
G08  19009779.492 1  99897030.013 3      1641.963          38.000    19009754.298 1  77841739.472 2      1279.497          39.000  
G27  17900916.672 1  94069975.369 3      -583.737          35.000    17900891.732 2  73301133.869 4      -454.927          33.000  
G30  22965196.005 1 120682868.351 2      -336.107          41.000    22965172.126 1  94038528.210 3      -261.469          37.000  
> 2021 05 13 15 20 13.9920000  0  7                     
G07  22496612.741 9                     -1933.727          19.000                                                                  
G21  21031810.288 1 110522908.755 1      2139.891          44.000                                                                  
G23  19450374.860 9                     -2227.726          14.000                                                                  
G16  20228468.512 1 106301325.700 2     -3698.047          42.000                                                                  
G08  19009467.130 1  99895388.227 2      1641.610          40.000    19009441.836 1  77840460.171 3      1279.064          39.000  
G27  17901027.885 1  94070559.889 4      -584.982          34.000    17901002.905 2  73301589.316 5      -455.428          32.000  
G30  22965259.979 1 120683204.374 2      -336.242          42.000    22965236.153 1  94038790.078 3      -262.450          37.000  
> 2021 05 13 15 20 14.9920000  0  6                     
G21  21031403.025 1 110520768.881 1      2139.530          44.000                                                                  
G16  20229172.313 1 106305024.154 2     -3698.795          42.000                                                                  
G08  19009154.937 1  99893746.841 3      1641.007          38.000    19009129.422 1  77839181.182 2      1278.479          39.000  
G10  18715967.804 9                       131.066          26.000                                                                  
G27  17901139.245 1  94071144.911 4      -585.505          34.000    17901114.130 2  73302045.191 5      -456.683          32.000  
G30  22965324.103 1 120683541.046 2      -337.361          41.000    22965300.325 1  94039052.402 3      -262.993          37.000  
> 2021 05 13 15 20 15.9920000  0  7                     
G07  22497348.407 9                     -1940.745          22.000                                                                  
G21  21030995.943 1 110518629.311 1      2139.441          43.000                                                                  
G23  19451220.842 9                     -2222.849          14.000                                                                  
G16  20229876.184 1 106308723.017 2     -3699.104          42.000                                                                  
G08  19008842.791 1  99892105.938 2      1640.267          39.000    19008817.133 1  77837902.541 2      1278.344          39.000  
G27  17901250.676 1  94071730.541 4      -585.804          34.000    17901225.545 2  73302501.532 5      -456.880          32.000  
G30  22965388.227 1 120683878.366 2      -337.674          41.000    22965364.450 1  94039315.252 3      -263.227          37.000  
> 2021 05 13 15 20 16.9920000  0  7                     
G07  22497714.605 9                     -1938.409          23.000                                                                  
G21  21030588.771 1 110516489.987 1      2139.227          44.000                                                                  
G23  19451643.204 9                     -2206.668          14.000                                                                  
G16  20230580.128 1 106312422.267 2     -3699.213          42.000                                                                  
G08  19008530.534 1  99890465.404 3      1640.214          40.000    19008504.918 1  77836624.209 2      1278.268          39.000  
G27  17901362.211 1  94072316.744 4      -586.171          33.000    17901337.247 2  73302958.265 6      -456.772          32.000  
G30  22965452.466 1 120684216.337 2      -338.289          42.000    22965428.892 1  94039578.582 3      -263.250          37.000  
> 2021 05 13 15 20 17.9920000  0  7                     
G07  22498080.864 9                     -1933.153          23.000                                                                  
G21  21030181.704 1 110514350.699 1      2139.140          44.000                                                                  
G23  19452063.514 9                     -2211.229          14.000                                                                  
G16  20231284.103 1 106316121.659 2     -3699.353          42.000                                                                  
G08  19008218.416 1  99888824.981 2      1640.397          40.000    19008192.873 1  77835345.957 2      1278.236          39.000  
G27  17901473.817 2  94072903.278 5      -586.823          32.000    17901448.821 2  73303415.337 6      -458.145          32.000  
G30  22965516.977 1 120684554.668 2      -338.478          42.000    22965493.323 1  94039842.229 3      -263.871          37.000  
> 2021 05 13 15 20 18.9920000  0  7                     
G07  22498448.112 9                     -1940.676          23.000                                                                  
G21  21029774.705 1 110512211.627 1      2138.792          44.000                                                                  
G23  19452488.586 9                     -2236.679          14.000                                                                  
G16  20231988.142 1 106319821.417 2     -3699.947          42.000                                                                  
G08  19007906.527 1  99887184.992 2      1639.706          40.000    19007880.810 1  77834068.041 2      1277.764          39.000  
G27  17901585.620 2  94073490.285 5      -588.168          33.000    17901560.570 2  73303872.742 5      -457.668          32.000  
G30  22965581.480 1 120684893.618 2      -339.232          42.000    22965557.809 1  94040106.354 3      -264.714          37.000  
> 2021 05 13 15 20 19.9920000  0  7                     
G07  22498814.179 9                     -1939.139          25.000                                                                  
G21  21029367.612 1 110510072.639 1      2138.787          44.000                                                                  
G23  19452914.026 9                     -2223.341          16.000                                                                  
G16  20232692.269 1 106323521.377 1     -3700.182          42.000                                                                  
G08  19007594.548 1  99885545.221 2      1639.530          40.000    19007568.822 1  77832790.326 2      1277.523          39.000  
G27  17901697.370 1  94074077.725 5      -586.993          33.000    17901672.344 2  73304330.468 8      -457.457          31.000  
G30  22965646.105 1 120685233.015 2      -339.562          41.000    22965622.418 1  94040370.837 3      -264.813          38.000  
> 2021 05 13 15 20 20.9920000  0  7                     
G07  22499178.461 9                     -1939.397          25.000                                                                  
G21  21028960.599 1 110507933.924 1      2138.420          45.000                                                                  
G23  19453339.535 9                     -2201.509          15.000                                                                  
G16  20233396.413 1 106327221.751 1     -3700.802          42.000                                                                  
G08  19007282.631 1  99883905.880 2      1638.750          40.000    19007256.904 1  77831512.911 2      1276.758          39.000  
G27  17901809.250 2  94074665.724 5      -588.306          32.000    17901784.408 4  73304788.665 8      -457.503          31.000  
G30  22965710.827 1 120685573.082 2      -340.569          42.000    22965687.210 1  94040635.779 3      -265.270          38.000  
> 2021 05 13 15 20 21.9920000  0  7                     
G07  22499546.206 9 118235912.86438     -1940.367          25.000                                                                  
G21  21028553.716 1 110505795.691 1      2137.883          45.000                                                                  
G23  19453765.574 9                     -2226.107          16.000                                                                  
G16  20234100.811 1 106330922.735 1     -3701.301          43.000                                                                  
G08  19006970.884 1  99882267.169 2      1638.130          39.000    19006945.065 1  77830235.949 2      1276.833          38.000  
G27  17901921.153 2  94075254.398 6      -588.186          31.000    17901896.486 4  73305247.504 8      -459.906          30.000  
G30  22965775.698 1 120685913.967 2      -341.136          42.000    22965752.006 1  94040901.447 3      -266.092          38.000  
> 2021 05 13 15 20 22.9920000  0  8                     
G07  22499914.876 9                     -1942.763          25.000                                                                  
G21  21028146.988 1 110503657.976 1      2137.573          45.000                                                                  
G23  19454191.493 9                     -2238.874          16.000                                                                  
G16  20234805.232 1 106334624.390 2     -3702.053          41.000                                                                  
G08  19006659.144 1  99880629.026 2      1637.972          39.000    19006633.313 1  77828959.555 2      1275.870          38.000  
G27  17902033.509 2  94075844.170 7      -589.917          31.000    17902008.595 4  73305706.981 7      -460.655          30.000  
G30  22965840.779 1 120686255.778 2      -342.124          41.000    22965817.086 1  94041167.760 3      -266.531          38.000  
G10                                                                  18715774.088 9                        95.394          25.000  
> 2021 05 13 15 20 23.9920000  0  8                     
G07  22500284.880 9                     -1939.338          22.000                                                                  
G21  21027740.393 1 110501520.657 1      2137.017          45.000                                                                  
G23  19454617.905 9                     -2238.874          14.000                                                                  
G16  20235509.733 1 106338326.500 2     -3702.642          41.000                                                                  
G08  19006347.626 1  99878991.505 2      1637.200          40.000    19006321.690 1  77827683.532 2      1276.064          39.000  
G27  17902146.051 2  94076434.455 6      -591.395          32.000    17902121.000 4  73306166.860 6      -459.053          31.000  
G30  22965905.916 1 120686598.334 2      -342.703          40.000    22965882.212 1  94041434.729 3      -267.442          37.000  
G10                                                                  18715749.632 9                        94.795          25.000  
> 2021 05 13 15 20 24.9920000  0  8                     
G07  22500652.905 9                     -1936.994          22.000                                                                  
G21  21027333.768 1 110499383.811 1      2136.718          44.000                                                                  
G23  19455045.858 9                     -2232.048          14.000                                                                  
G16  20236214.257 1 106342029.225 2     -3703.220          42.000                                                                  
G08  19006036.145 1  99877354.598 2      1636.970          40.000    19006010.069 1  77826408.033 2      1275.204          38.000  
G15  22280633.406 9                     -1803.268          23.000                                                                  
G27  17902258.286 2  94077025.370 5      -591.359          31.000    17902233.440 4  73306627.442 8      -460.456          30.000  
G30  22965971.321 1 120686941.739 2      -343.611          41.000    22965947.576 1  94041702.311 3      -267.664          37.000  
> 2021 05 13 15 20 25.9920000  0  9                     
G07  22501021.643 9                     -1944.390          22.000                                                                  
G21  21026927.278 1 110497247.376 1      2136.346          43.000                                                                  
G23  19455471.006 9                     -2228.196          14.000                                                                  
G16  20236918.949 1 106345732.532 1     -3703.422          43.000                                                                  
G08  19005724.853 1  99875718.289 2      1636.070          40.000    19005698.640 1  77825132.964 2      1274.783          38.000  
G15  22280974.601 9                     -1803.268          22.000                                                                  
G27  17902370.924 2  94077617.374 4      -592.726          32.000    17902345.940 4  73307088.606 7      -460.339          30.000  
G30  22966036.712 1 120687285.958 2      -344.413          41.000    22966013.136 1  94041970.528 2      -268.480          38.000  
G10                                                                  18715703.419 9                        97.862          24.000  
> 2021 05 13 15 20 26.9920000  0  9                     
G07  22501388.372 9                     -1936.703          22.000                                                                  
G21  21026520.819 1 110495111.409 1      2135.642          43.000                                                                  
G23  19455890.927 9                     -2215.151          13.000                                                                  
G16  20237623.749 1 106349436.444 2     -3704.587          41.000                                                                  
G08  19005413.510 1  99874082.555 2      1635.088          40.000    19005387.402 1  77823858.375 2      1274.218          38.000  
G15  22281316.250 9                     -1803.268          21.000                                                                  
G27  17902484.121 2  94078210.077 5      -593.584          32.000    17902456.047 8  73307564.40617      -461.397          30.000  
G30  22966102.339 1 120687631.027 2      -345.522          41.000    22966078.930 1  94042239.402 2      -269.347          38.000  
G10                                                                  18715681.519 9                        93.704          25.000  
> 2021 05 13 15 20 27.9920000  0  8                     
G07  22501758.066 9                     -1942.008          21.000                                                                  
G21  21026114.332 1 110492975.915 1      2135.451          45.000                                                                  
G23  19456311.685 9                     -2219.783          13.000                                                                  
G16  20238328.726 1 106353140.909 2     -3704.835          41.000                                                                  
G08  19005102.467 1  99872447.435 2      1635.100          39.000    19005076.259 1  77822584.259 3      1274.092          38.000  
G27  17902597.012 2  94078803.370 4      -594.219          33.000    17902569.592 8  73308026.828 6      -463.807          31.000  
G30  22966168.144 1 120687976.922 2      -346.603          41.000    22966144.788 1  94042508.919 3      -270.050          38.000  
G10                                                                  18715658.221 8                        92.321          24.000  
> 2021 05 13 15 20 28.9920000  0  8                     
G07  22502126.639 9                     -1936.306          20.000                                                                  
G21  21025708.128 1 110490840.962 1      2134.451          44.000                                                                  
G23  19456735.351 9                     -2230.921          13.000                                                                  
G16  20239033.754 1 106356846.049 2     -3705.413          41.000                                                                  
G08  19004791.434 1  99870812.995 2      1633.940          39.000    19004765.225 1  77821310.689 3      1273.135          37.000  
G27  17902710.065 2  94079397.588 5      -595.143          32.000    17902684.338 8  73308489.808 7      -463.510          31.000  
G30  22966234.164 1 120688323.729 2      -347.420          41.000    22966210.739 1  94042779.150 3      -270.795          38.000  
G10                                                                  18715636.570 8                        92.338          25.000  
> 2021 05 13 15 20 29.9920000  0  6                     
G21  21025301.984 1 110488706.455 1      2134.135          44.000                                                                  
G23  19457156.676 9                     -2230.135          16.000                                                                  
G16  20239738.936 1 106360551.811 2     -3706.443          42.000                                                                  
G08  19004480.664 1  99869179.184 2      1633.417          39.000    19004454.323 1  77820037.558 3      1272.891          38.000  
G27  17902823.428 2  94079992.534 5      -595.499          31.000    17902797.757 8  73308953.387 8      -463.494          30.000  
G30  22966300.331 1 120688671.371 2      -348.287          41.000    22966276.902 1  94043050.015 2      -270.889          38.000  
> 2021 05 13 15 20 30.9920000  0  7                     
G21  21024895.824 1 110486572.374 1      2133.899          44.000                                                                  
G23  19457582.274 9                     -2233.843          17.000                                                                  
G16  20240444.199 1 106364258.065 2     -3706.850          41.000                                                                  
G08  19004169.905 1  99867545.943 2      1632.969          39.000    19004143.495 1  77818764.906 2      1272.195          38.000  
G27  17902936.850 2  94080588.227 5      -596.153          31.000    17902910.893 8  73309417.595 6      -464.731          30.000  
G30  22966366.663 1 120689019.786 2      -348.927          42.000    22966343.229 1  94043321.548 3      -271.957          38.000  
G10                                                                  18715593.581 9                        75.808          24.000  
> 2021 05 13 15 20 31.9920000  0  7                     
G21  21024489.895 1 110484438.773 1      2133.226          44.000                                                                  
G23  19458006.541 9                     -2237.435          19.000                                                                  
G10  18715611.328 9                       114.492          27.000                                                                  
G16  20241149.601 1 106367964.978 2     -3707.278          41.000                                                                  
G08  19003859.164 1  99865913.356 2      1632.369          39.000    19003832.758 1  77817492.756 2      1271.702          38.000  
G27  17903050.429 2  94081184.743 7      -596.164          31.000    17903023.748 8  73309882.377 8      -464.683          31.000  
G30  22966433.029 1 120689369.093 2      -349.727          41.000    22966409.737 1  94043593.730 3      -272.471          38.000  
> 2021 05 13 15 20 32.9920000  0  6                     
G21  21024083.908 1 110482305.819 1      2132.506          44.000                                                                  
G23  19458432.256 9                     -2230.259          19.000                                                                  
G16  20241855.230 1 106371672.657 2     -3708.088          41.000                                                                  
G08  19003548.618 1  99864281.493 3      1631.594          38.000    19003522.199 1  77816221.185 2      1271.256          38.000  
G27  17903164.075 2  94081782.171 7      -597.406          31.000    17903136.445 8  73310347.909 8      -465.872          30.000  
G30  22966499.684 1 120689719.413 1      -350.956          42.000    22966476.554 1  94043866.697 3      -273.350          38.000  
> 2021 05 13 15 20 33.9920000  0  8                     
G07  22503965.215 9                     -1950.172          18.000                                                                  
G21  21023678.030 1 110480173.336 1      2132.145          44.000                                                                  
G23  19458858.539 9                     -2236.294          20.000                                                                  
G16  20242560.853 1 106375380.922 2     -3708.137          41.000                                                                  
G08  19003238.217 1  99862650.282 2      1630.810          38.000    19003211.806 1  77814950.096 2      1271.239          38.000  
G27  17903277.880 2  94082380.342 5      -598.784          32.000    17903250.759 8  73310814.068 6      -466.359          30.000  
G30  22966566.556 1 120690070.545 2      -351.547          41.000    22966543.497 1  94044140.308 3      -273.927          37.000  
G10                                                                  18715527.175 9                        87.102          25.000  
> 2021 05 13 15 20 34.9920000  0  8                     
G07  22504343.485 9                     -1950.172          15.000                                                                  
G21  21023272.300 1 110478040.964 1      2132.212          43.000                                                                  
G23  19459281.216 9                     -2228.425          22.000                                                                  
G16  20243266.624 1 106379089.437 2     -3708.641          41.000                                                                  
G08  19002927.791 1  99861019.285 2      1631.073          40.000    19002901.435 1  77813679.203 3      1270.898          38.000  
G27  17903391.769 2  94082978.971 5      -598.346          31.000    17903365.410 4  73311280.523 7      -466.362          30.000  
G30  22966633.560 1 120690422.189 2      -351.994          41.000    22966610.355 1  94044414.298 3      -274.006          38.000  
G10                                                                  18715506.353 8  76636869.22418        87.941          26.000  
> 2021 05 13 15 20 35.9920000  0  8                     
G07  22504714.813 9                     -1950.172          17.000                                                                  
G21  21022866.445 1 110475908.612 1      2132.274          43.000                                                                  
G23  19459704.202 9                     -2238.979          21.000                                                                  
G10  18715519.260 9                       111.898          25.000    18715484.026 9                        87.177          25.000  
G16  20243972.315 1 106382798.072 2     -3708.819          42.000                                                                  
G08  19002617.462 1  99859388.501 2      1630.674          38.000    19002591.086 1  77812408.454 3      1270.297          38.000  
G27  17903505.642 2  94083577.925 5      -599.618          32.000    17903479.333 4  73311747.243 6      -466.742          31.000  
G30  22966700.487 1 120690774.195 2      -352.181          41.000    22966677.398 1  94044688.611 3      -274.683          38.000  
> 2021 05 13 15 20 36.9920000  0  8                     
G07  22505082.997 9                     -1950.172          26.000                                                                  
G21  21022460.649 1 110473776.247 2      2132.161          43.000                                                                  
G23  19460130.533 9                     -2231.047          22.000                                                                  
G10  18715498.930 9                       112.812          26.000    18715462.568 8                        87.660          25.000  
G16  20244678.240 1 106386506.819 2     -3708.776          42.000                                                                  
G08  19002307.096 1  99857757.832 2      1630.476          38.000    19002280.808 1  77811137.832 3      1270.065          37.000  
G27  17903619.755 2  94084177.128 5      -598.132          32.000    17903593.261 2  73312214.175 6      -467.762          31.000  
G30  22966767.443 1 120691126.543 2      -352.561          41.000    22966744.574 1  94044963.179 2      -274.807          38.000  
> 2021 05 13 15 20 37.9920000  0  9                     
G07  22505456.708 9                     -1950.172          25.000                                                                  
G21  21022054.832 1 110471643.797 1      2132.508          43.000                                                                  
G23  19460555.020 9                     -2237.931          20.000                                                                  
G10  18715467.418 9                       111.010          25.000                                                                  
G16  20245384.076 1 106390215.617 2     -3708.853          42.000                                                                  
G08  19001996.825 1  99856127.204 2      1630.822          39.000    19001970.481 1  77809867.225 3      1270.959          38.000  
G15  22285105.617 9                     -1814.545          25.000                                                                  
G27  17903734.222 2  94084776.679 5      -599.686          33.000    17903707.159 2  73312681.279 6      -467.336          31.000  
G30  22966834.605 1 120691479.223 2      -352.821          41.000    22966811.709 1  94045237.983 3      -274.875          39.000  
> 2021 05 13 15 20 38.9920000  0  9                     
G07  22505829.240 9                     -1948.358          26.000                                                                  
G21  21021649.053 1 110469511.401 2      2132.127          42.000                                                                  
G23  19460981.398 9                     -2243.051          19.000                                                                  
G10  18715443.659 9                       111.611          26.000                                                                  
G16  20246089.862 1 106393924.604 2     -3709.273          42.000                                                                  
G08  19001686.471 1  99854496.832 2      1630.120          39.000    19001660.238 1  77808596.795 2      1270.034          38.000  
G15  22285449.983 9                     -1815.625          24.000                                                                  
G27  17903848.889 2  94085376.488 4      -600.206          32.000    17903821.357 2  73313148.701 6      -468.106          31.000  
G30  22966901.651 1 120691832.300 2      -353.244          41.000    22966878.828 1  94045513.095 2      -275.203          38.000  
> 2021 05 13 15 20 39.9920000  0  9                     
G07  22506203.700 9 118270880.04938     -1949.218          27.000                                                                  
G21  21021243.206 1 110467379.095 2      2132.306          42.000                                                                  
G23  19461405.544 9                     -2235.017          18.000                                                                  
G10  18715423.846 9                       110.619          25.000                                                                  
G16  20246795.838 1 106397633.791 1     -3709.389          42.000                                                                  
G08  19001376.247 1  99852866.703 2      1629.798          39.000    19001349.981 1  77807326.543 2      1270.168          38.000  
G15  22285796.052 9                     -1817.724          24.000                                                                  
G27  17903963.716 2  94085976.701 5      -600.766          32.000    17903935.415 4  73313616.241 7      -466.141          30.000  
G30  22966968.866 1 120692185.862 2      -353.884          41.000    22966946.098 1  94045788.607 3      -275.978          38.000  
> 2021 05 13 15 20 40.9920000  0  7                     
G21  21020837.457 1 110465246.979 1      2131.896          43.000                                                                  
G23  19461827.867 9                     -2235.017          14.000                                                                  
G10  18715403.469 9                       105.773          25.000                                                                  
G16  20247501.641 1 106401343.279 2     -3709.825          41.000                                                                  
G08  19001066.094 1  99851236.855 2      1629.968          39.000    19001039.776 1  77806056.566 2      1269.587          37.000  
G27  17904078.176 2  94086577.425 5      -601.292          32.000    17904049.894 4  73314084.425 8      -468.460          30.000  
G30  22967036.331 1 120692539.982 2      -354.445          41.000    22967013.469 1  94046064.541 3      -276.109          38.000  
> 2021 05 13 15 20 41.9920000  0  7                     
G21  21020431.718 1 110463115.206 1      2131.664          43.000                                                                  
G23  19462254.971 9                     -2235.907          12.000                                                                  
G16  20248207.528 1 106405053.278 2     -3710.423          41.000                                                                  
G08  19000756.212 1  99849607.530 2      1628.936          39.000    19000729.787 1  77804786.976 2      1269.081          38.000  
G27  17904192.930 2  94087178.734 5      -601.836          32.000    17904164.348 4  73314552.975 6      -468.731          30.000  
G30  22967103.838 1 120692894.833 2      -355.177          41.000    22967080.992 1  94046341.048 3      -276.706          38.000  
G10                                                                  18715356.743 9                        84.226          24.000  
> 2021 05 13 15 20 42.9920000  0  8                     
G07  22507317.209 9                     -1951.791          29.000                                                                  
G21  21020026.114 1 110460983.742 1      2131.647          43.000                                                                  
G23  19462681.742 9                     -2251.396          15.000                                                                  
G16  20248913.545 1 106408763.652 2     -3710.374          42.000                                                                  
G08  19000446.269 1  99847978.651 2      1629.218          39.000    19000419.747 1  77803517.692 3      1269.186          38.000  
G27  17904307.787 2  94087780.671 6      -600.610          31.000    17904278.707 4  73315022.018 6      -468.359          31.000  
G30  22967171.506 1 120693250.328 2      -355.550          41.000    22967148.677 1  94046618.063 3      -277.007          38.000  
G10                                                                  18715336.153 9                        85.453          24.000  
> 2021 05 13 15 20 43.9920000  0  8                     
G07  22507689.094 9 118278704.27437     -1951.399          28.000                                                                  
G21  21019620.618 1 110458852.503 2      2131.048          43.000                                                                  
G23  19463106.100 9                     -2234.241          18.000                                                                  
G16  20249619.751 1 106412474.427 1     -3710.855          42.000                                                                  
G08  19000136.331 1  99846350.180 3      1627.965          39.000    19000109.724 1  77802248.768 3      1268.265          38.000  
G27  17904422.966 2  94088383.262 7      -603.600          31.000    17904393.459 4  73315491.534 7      -469.295          30.000  
G30  22967239.209 1 120693606.465 2      -356.469          41.000    22967216.567 1  94046895.573 3      -277.822          38.000  
G10                                                                  18715315.385 9                        84.571          24.000  
> 2021 05 13 15 20 44.9920000  0  8                     
G07  22508062.209 8 118280656.34327     -1952.916          28.000                                                                  
G21  21019215.249 1 110456721.791 1      2130.122          44.000                                                                  
G23  19463530.491 9                     -2255.551          17.000                                                                  
G16  20250326.095 1 106416185.829 1     -3711.976          42.000                                                                  
G08  18999826.643 1  99844722.337 2      1627.650          41.000    18999799.862 1  77800980.292 3      1268.427          37.000  
G27  17904538.426 4  94088986.563 8      -603.453          24.000    17904508.224 4  73315961.648 7      -470.181          29.000  
G30  22967307.115 1 120693963.500 2      -357.889          41.000    22967284.534 1  94047173.769 2      -278.796          38.000  
G10                                                                  18715295.145 9                        83.510          24.000  
> 2021 05 13 15 20 45.9920000  0  8                     
G07  22508432.516 8 118282608.93327     -1952.990          28.000                                                                  
G21  21018809.790 1 110454591.409 1      2130.175          44.000                                                                  
G23  19463955.763 9                     -2242.221          18.000                                                                  
G16  20251032.444 1 106419897.733 2     -3712.175          42.000                                                                  
G08  18999516.962 1  99843095.034 2      1627.134          41.000    18999490.182 1  77799712.279 3      1267.811          37.000  
G27  17904653.900 4  94089590.556 8      -604.333          26.000    17904623.147 4  73316432.282 8      -470.862          27.000  
G30  22967375.059 1 120694321.238 2      -358.250          41.000    22967352.648 1  94047452.527 2      -278.825          39.000  
G10                                                                  18715275.585 8                        83.388          25.000  
> 2021 05 13 15 20 46.9920000  0  8                     
G07  22508801.837 8 118284561.83927     -1952.899          28.000                                                                  
G21  21018404.453 1 110452461.172 1      2130.428          44.000                                                                  
G23  19464381.529 9                     -2239.578          18.000                                                                  
G16  20251738.806 1 106423609.898 2     -3712.100          41.000                                                                  
G08  18999207.208 1  99841467.967 2      1627.202          40.000    18999180.517 1  77798444.457 3      1267.546          37.000  
G27  17904769.305 2  94090194.932 7      -604.657          28.000    17904738.067 2  73316903.263 8      -471.480          28.000  
G30  22967443.135 1 120694679.479 2      -358.563          41.000    22967420.853 1  94047731.700 3      -279.556          38.000  
G10                                                                  18715255.050 9                        79.663          25.000  
> 2021 05 13 15 20 47.9920000  0  8                     
G07  22509172.023 8 118286515.10426     -1953.439          28.000                                                                  
G21  21017999.101 1 110450331.013 1      2130.041          44.000                                                                  
G23  19464809.956 9                     -2243.954          17.000                                                                  
G16  20252445.283 1 106427322.245 2     -3712.474          40.000                                                                  
G08  18998897.699 1  99839841.130 2      1626.927          40.000    18998870.885 1  77797176.797 3      1267.417          38.000  
G27  17904884.637 4  94090799.770 7      -605.012          29.000    17904853.181 2  73317374.521 7      -470.940          28.000  
G30  22967511.439 1 120695038.172 2      -358.729          41.000    22967489.080 1  94048011.185 3      -279.421          38.000  
G10                                                                  18715236.483 9                        83.492          24.000  
> 2021 05 13 15 20 48.9920000  0  9                     
G07  22509542.700 8 118288468.77728     -1954.888          27.000                                                                  
G21  21017593.795 1 110448201.013 1      2129.919          43.000                                                                  
G23  19465238.723 9                     -2235.628          18.000                                                                  
G16  20253151.890 1 106431034.876 2     -3712.829          41.000                                                                  
G08  18998588.121 1  99838214.636 2      1626.293          40.000    18998561.283 1  77795909.371 3      1267.820          37.000  
G27  17904999.938 4  94091405.039 7      -605.583          29.000    17904968.306 2  73317846.110 6      -471.401          28.000  
G26  22133010.412 9                     -4174.729          13.000                                                                  
G30  22967579.749 1 120695397.395 2      -359.393          41.000    22967557.363 1  94048291.104 3      -279.921          38.000  
G10                                                                  18715217.603 8                        82.260          25.000  
> 2021 05 13 15 20 49.9920000  0  9                     
G07  22509910.999 8                     -1954.192          26.000                                                                  
G21  21017188.505 1 110446071.143 1      2129.777          43.000                                                                  
G23  19465664.533 9                     -2234.226          16.000                                                                  
G16  20253858.296 1 106434747.700 2     -3712.740          42.000                                                                  
G08  18998278.623 1  99836588.389 2      1626.132          40.000    18998251.811 1  77794642.196 3      1266.917          37.000  
G27  17905115.231 2  94092010.635 6      -605.869          31.000    17905083.413 2  73318318.132 6      -472.083          29.000  
G26  22133808.700 9                     -4165.685          15.000                                                                  
G30  22967648.292 1 120695757.118 2      -359.930          41.000    22967625.768 1  94048571.393 3      -280.299          38.000  
G10                                                                  18715199.598 8                        81.700          24.000  
> 2021 05 13 15 20 50.9920000  0  9                     
G07  22510282.737 8                     -1954.522          25.000                                                                  
G21  21016783.208 1 110443941.084 2      2129.992          42.000                                                                  
G23  19466090.068 9                     -2239.327          17.000                                                                  
G16  20254564.772 1 106438460.549 2     -3712.979          42.000                                                                  
G08  18997969.141 1  99834962.166 2      1626.089          40.000    18997942.261 1  77793375.003 3      1266.835          37.000  
G27  17905230.763 2  94092616.531 6      -605.624          31.000    17905198.677 2  73318790.208 6      -472.645          29.000  
G26  22134605.486 9                     -4184.904          15.000                                                                  
G30  22967716.715 1 120696117.042 2      -360.085          41.000    22967694.255 1  94048851.862 2      -280.584          38.000  
G10                                                                  18715180.984 9                        81.834          24.000  
> 2021 05 13 15 20 51.9920000  0  8                     
G07  22510652.161 8                     -1954.730          26.000                                                                  
G21  21016377.906 1 110441811.033 1      2130.226          43.000                                                                  
G23  19466514.636 9                     -2252.679          19.000                                                                  
G16  20255271.388 1 106442173.484 2     -3712.910          42.000                                                                  
G08  18997659.563 1  99833336.045 2      1626.196          39.000    18997632.731 1  77792107.906 3      1266.997          37.000  
G27  17905346.184 2  94093222.613 6      -606.269          31.000    17905314.072 2  73319262.485 6      -472.342          29.000  
G26  22135402.556 9                     -4166.723          14.000                                                                  
G30  22967785.198 1 120696477.357 2      -360.446          41.000    22967762.743 1  94049132.632 3      -281.094          38.000  
> 2021 05 13 15 20 52.9920000  0  7                     
G21  21015972.626 1 110439680.919 1      2129.972          44.000                                                                  
G23  19466940.320 9                     -2243.016          20.000                                                                  
G16  20255977.883 1 106445886.475 2     -3713.093          42.000                                                                  
G08  18997350.138 1  99831709.973 3      1626.003          39.000    18997323.238 1  77790840.808 3      1267.677          38.000  
G27  17905461.635 2  94093828.983 5      -606.575          31.000    17905429.436 2  73319734.966 6      -472.573          29.000  
G26  22136200.163 9                     -4211.867          14.000                                                                  
G30  22967853.873 1 120696837.926 2      -360.658          41.000    22967831.330 1  94049413.608 3      -281.267          38.000  
> 2021 05 13 15 20 53.9920000  0  7                     
G21  21015567.351 1 110437550.823 1      2129.659          43.000                                                                  
G23  19467366.742 9                     -2242.177          20.000                                                                  
G16  20256684.449 1 106449599.610 2     -3713.719          42.000                                                                  
G08  18997040.795 1  99830084.195 2      1625.436          39.000    18997013.766 1  77789573.956 3      1266.451          37.000  
G27  17905576.979 2  94094435.657 7      -607.295          30.000    17905544.694 2  73320207.715 6      -473.087          29.000  
G26  22137002.260 9                     -4178.640          13.000                                                                  
G30  22967922.489 1 120697198.912 2      -361.474          41.000    22967899.979 1  94049694.920 3      -282.272          38.000  
> 2021 05 13 15 20 54.9920000  0  7                     
G21  21015162.102 1 110435420.762 1      2129.867          43.000                                                                  
G23  19467793.860 9                     -2244.788          18.000                                                                  
G16  20257391.136 1 106453312.918 2     -3713.402          42.000                                                                  
G08  18996731.366 1  99828458.479 2      1625.975          38.000    18996704.415 1  77788307.199 3      1267.128          37.000  
G27  17905692.316 4  94095042.697 7      -607.414          30.000    17905660.070 2  73320680.688 7      -472.836          27.000  
G26  22137797.202 9                     -4170.422          13.000                                                                  
G30  22967991.245 1 120697560.334 2      -361.423          40.000    22967968.711 1  94049976.500 3      -281.651          37.000  
> 2021 05 13 15 20 55.9920000  0  7                     
G21  21014756.733 1 110433290.610 2      2130.162          43.000                                                                  
G23  19468221.200 9                     -2252.009          20.000                                                                  
G16  20258097.627 1 106457026.247 2     -3713.355          41.000                                                                  
G08  18996422.083 1  99826832.888 2      1625.514          39.000    18996395.141 1  77787040.512 3      1266.571          37.000  
G27  17905807.996 2  94095649.903 6      -607.426          31.000    17905775.642 4  73321153.874 8      -472.716          27.000  
G26  22138593.560 9                     -4171.966          13.000                                                                  
G30  22968060.090 1 120697922.018 2      -361.906          40.000    22968037.581 1  94050258.360 3      -282.009          37.000  
> 2021 05 13 15 20 56.9920000  0  8                     
G07  22512511.256 9                     -1955.521          25.000                                                                  
G21  21014351.436 1 110431160.485 1      2130.224          43.000                                                                  
G23  19468647.357 9                     -2244.081          20.000                                                                  
G16  20258804.311 1 106460739.730 2     -3713.517          42.000                                                                  
G08  18996112.847 1  99825207.443 2      1625.658          39.000    18996085.774 1  77785773.928 3      1266.537          37.000  
G27  17905923.376 2  94096257.373 6      -607.036          31.000    17905891.159 4                      -473.767          26.000  
G26  22139388.720 9                     -4183.540          16.000                                                                  
G30  22968128.902 1 120698284.098 2      -362.118          40.000    22968106.460 1  94050540.475 3      -281.937          38.000  
> 2021 05 13 15 20 57.9920000  0  8                     
G07  22512884.996 8                     -1955.696          26.000                                                                  
G21  21013945.953 1 110429030.288 2      2129.855          42.000                                                                  
G23  19469076.596 9                     -2245.011          20.000                                                                  
G16  20259511.031 1 106464453.270 2     -3713.726          41.000                                                                  
G08  18995803.480 1  99823582.112 2      1625.160          40.000    18995776.512 1  77784507.436 3      1266.157          37.000  
G27  17906038.798 2  94096865.265 6      -608.102          31.000    17906006.711 2                      -473.916          26.000  
G26  22140184.918 9                     -4187.515          15.000                                                                  
G30  22968197.808 1 120698646.510 2      -362.505          41.000    22968175.272 1  94050822.862 3      -282.218          37.000  
